[{"city":"Hōyachō","city_ascii":"Hoyacho","lat":35.7483,"lng":139.5675,"country":"Japan","iso2":"JP","iso3":"JPN","admin_name":"Tōkyō","capital":"","population":102720},{"city":"Guihulñgan","city_ascii":"Guihulngan","lat":10.12,"lng":123.27,"country":"Philippines","iso2":"PH","iso3":"PHL","admin_name":"Negros Oriental","capital":"","population":102656},{"city":"Saint Helens","city_ascii":"Saint Helens","lat":53.4542,"lng":-2.7361,"country":"United Kingdom","iso2":"GB","iso3":"GBR","admin_name":"St. Helens","capital":"","population":102629},{"city":"Gürsu","city_ascii":"Gursu","lat":40.2144,"lng":29.1931,"country":"Turkey","iso2":"TR","iso3":"TUR","admin_name":"Bursa","capital":"minor","population":102601},{"city":"Jirjā","city_ascii":"Jirja","lat":26.3333,"lng":31.9,"country":"Egypt","iso2":"EG","iso3":"EGY","admin_name":"Sūhāj","capital":"","population":102597},{"city":"Noginsk","city_ascii":"Noginsk","lat":55.85,"lng":38.4333,"country":"Russia","iso2":"RU","iso3":"RUS","admin_name":"Moskovskaya Oblast’","capital":"minor","population":102592},{"city":"Kheda","city_ascii":"Kheda","lat":22.75,"lng":72.68,"country":"India","iso2":"IN","iso3":"IND","admin_name":"Gujarāt","capital":"","population":102587},{"city":"Siegen","city_ascii":"Siegen","lat":50.8833,"lng":8.0167,"country":"Germany","iso2":"DE","iso3":"DEU","admin_name":"North Rhine-Westphalia","capital":"minor","population":102560},{"city":"Tezpur","city_ascii":"Tezpur","lat":26.63,"lng":92.8,"country":"India","iso2":"IN","iso3":"IND","admin_name":"Assam","capital":"","population":102505},{"city":"Wichita Falls","city_ascii":"Wichita Falls","lat":33.9072,"lng":-98.5291,"country":"United States","iso2":"US","iso3":"USA","admin_name":"Texas","capital":"","population":102482},{"city":"Riverview","city_ascii":"Riverview","lat":27.8227,"lng":-82.3023,"country":"United States","iso2":"US","iso3":"USA","admin_name":"Florida","capital":"","population":102467},{"city":"Piacenza","city_ascii":"Piacenza","lat":45.0478,"lng":9.7006,"country":"Italy","iso2":"IT","iso3":"ITA","admin_name":"Emilia-Romagna","capital":"minor","population":102465},{"city":"Messaad","city_ascii":"Messaad","lat":34.1667,"lng":3.5,"country":"Algeria","iso2":"DZ","iso3":"DZA","admin_name":"Djelfa","capital":"","population":102453},{"city":"Sundarnagar","city_ascii":"Sundarnagar","lat":31.53,"lng":76.88,"country":"India","iso2":"IN","iso3":"IND","admin_name":"Himāchal Pradesh","capital":"","population":102401},{"city":"Houzhuang","city_ascii":"Houzhuang","lat":35.639,"lng":111.2324,"country":"China","iso2":"CN","iso3":"CHN","admin_name":"Shanxi","capital":"","population":102400},{"city":"Gütersloh","city_ascii":"Gutersloh","lat":51.9,"lng":8.3833,"country":"Germany","iso2":"DE","iso3":"DEU","admin_name":"North Rhine-Westphalia","capital":"minor","population":102393},{"city":"Mayarí","city_ascii":"Mayari","lat":20.6592,"lng":-75.6781,"country":"Cuba","iso2":"CU","iso3":"CUB","admin_name":"Holguín","capital":"minor","population":102354},{"city":"Seoni","city_ascii":"Seoni","lat":22.08,"lng":79.53,"country":"India","iso2":"IN","iso3":"IND","admin_name":"Madhya Pradesh","capital":"","population":102343},{"city":"Ngong","city_ascii":"Ngong","lat":-1.3667,"lng":36.6333,"country":"Kenya","iso2":"KE","iso3":"KEN","admin_name":"Kajiado","capital":"","population":102323},{"city":"Ban Mangkon","city_ascii":"Ban Mangkon","lat":13.6138,"lng":100.6104,"country":"Thailand","iso2":"TH","iso3":"THA","admin_name":"Samut Prakan","capital":"","population":102291},{"city":"Mustafakemalpaşa","city_ascii":"Mustafakemalpasa","lat":40.0353,"lng":28.4117,"country":"Turkey","iso2":"TR","iso3":"TUR","admin_name":"Bursa","capital":"minor","population":102284},{"city":"Kāshmar","city_ascii":"Kashmar","lat":35.2431,"lng":58.4594,"country":"Iran","iso2":"IR","iso3":"IRN","admin_name":"Khorāsān-e Raẕavī","capital":"minor","population":102282},{"city":"Bahrain","city_ascii":"Bahrain","lat":35.2075,"lng":72.5456,"country":"Pakistan","iso2":"PK","iso3":"PAK","admin_name":"Khyber Pakhtunkhwa","capital":"","population":102253},{"city":"Aurangābād","city_ascii":"Aurangabad","lat":24.7,"lng":84.35,"country":"India","iso2":"IN","iso3":"IND","admin_name":"Bihār","capital":"","population":102244},{"city":"Joünié","city_ascii":"Jounie","lat":33.9697,"lng":35.6156,"country":"Lebanon","iso2":"LB","iso3":"LBN","admin_name":"Mont-Liban","capital":"minor","population":102221},{"city":"Ituiutaba","city_ascii":"Ituiutaba","lat":-18.9667,"lng":-49.4667,"country":"Brazil","iso2":"BR","iso3":"BRA","admin_name":"Minas Gerais","capital":"","population":102217},{"city":"Mositai","city_ascii":"Mositai","lat":45.5333,"lng":119.6528,"country":"China","iso2":"CN","iso3":"CHN","admin_name":"Inner Mongolia","capital":"minor","population":102214},{"city":"Matehuala","city_ascii":"Matehuala","lat":23.6528,"lng":-100.6444,"country":"Mexico","iso2":"MX","iso3":"MEX","admin_name":"San Luis Potosí","capital":"minor","population":102199},{"city":"Rishīkesh","city_ascii":"Rishikesh","lat":30.1083,"lng":78.2972,"country":"India","iso2":"IN","iso3":"IND","admin_name":"Uttarākhand","capital":"","population":102138},{"city":"Simanggang","city_ascii":"Simanggang","lat":1.2353,"lng":111.4697,"country":"Malaysia","iso2":"MY","iso3":"MYS","admin_name":"Sarawak","capital":"","population":102092},{"city":"Yishi","city_ascii":"Yishi","lat":35.1379,"lng":110.764,"country":"China","iso2":"CN","iso3":"CHN","admin_name":"Shanxi","capital":"minor","population":102090},{"city":"Isehara","city_ascii":"Isehara","lat":35.3833,"lng":139.3,"country":"Japan","iso2":"JP","iso3":"JPN","admin_name":"Kanagawa","capital":"","population":102088},{"city":"Novokuybyshevsk","city_ascii":"Novokuybyshevsk","lat":53.1,"lng":49.9333,"country":"Russia","iso2":"RU","iso3":"RUS","admin_name":"Samarskaya Oblast’","capital":"","population":102075},{"city":"Shibuya","city_ascii":"Shibuya","lat":35.6536,"lng":139.7092,"country":"Japan","iso2":"JP","iso3":"JPN","admin_name":"Tōkyō","capital":"","population":102056},{"city":"Şabrātah","city_ascii":"Sabratah","lat":32.7922,"lng":12.4842,"country":"Libya","iso2":"LY","iso3":"LBY","admin_name":"An Nuqāţ al Khams","capital":"","population":102038},{"city":"Lahān","city_ascii":"Lahan","lat":26.7083,"lng":86.4917,"country":"Nepal","iso2":"NP","iso3":"NPL","admin_name":"","capital":"","population":102031},{"city":"Aflou","city_ascii":"Aflou","lat":34.1089,"lng":2.1019,"country":"Algeria","iso2":"DZ","iso3":"DZA","admin_name":"Laghouat","capital":"","population":102025},{"city":"Al Fqih Ben Çalah","city_ascii":"Al Fqih Ben Calah","lat":32.5,"lng":-6.5333,"country":"Morocco","iso2":"MA","iso3":"MAR","admin_name":"Béni Mellal-Khénifra","capital":"","population":102019},{"city":"Fugangcun","city_ascii":"Fugangcun","lat":23.5873,"lng":116.5957,"country":"China","iso2":"CN","iso3":"CHN","admin_name":"Guangdong","capital":"","population":102012},{"city":"Al Jumayl","city_ascii":"Al Jumayl","lat":32.8528,"lng":12.0611,"country":"Libya","iso2":"LY","iso3":"LBY","admin_name":"An Nuqāţ al Khams","capital":"","population":102000},{"city":"Dhangaḍhi̇̄","city_ascii":"Dhangadhi","lat":28.7136,"lng":80.5692,"country":"Nepal","iso2":"NP","iso3":"NPL","admin_name":"","capital":"","population":101970},{"city":"Tavşanlı","city_ascii":"Tavsanli","lat":39.5333,"lng":29.4833,"country":"Turkey","iso2":"TR","iso3":"TUR","admin_name":"Kütahya","capital":"minor","population":101903},{"city":"Norwalk","city_ascii":"Norwalk","lat":33.9069,"lng":-118.0829,"country":"United States","iso2":"US","iso3":"USA","admin_name":"California","capital":"","population":101893},{"city":"Worcester","city_ascii":"Worcester","lat":52.1911,"lng":-2.2206,"country":"United Kingdom","iso2":"GB","iso3":"GBR","admin_name":"Worcestershire","capital":"","population":101891},{"city":"Shūshtar","city_ascii":"Shushtar","lat":32.045,"lng":48.8594,"country":"Iran","iso2":"IR","iso3":"IRN","admin_name":"Khūzestān","capital":"minor","population":101878},{"city":"Tota","city_ascii":"Tota","lat":6.8,"lng":1.7833,"country":"Benin","iso2":"BJ","iso3":"BEN","admin_name":"Couffo","capital":"","population":101870},{"city":"Tando Muhammad Khan","city_ascii":"Tando Muhammad Khan","lat":25.1239,"lng":68.5389,"country":"Pakistan","iso2":"PK","iso3":"PAK","admin_name":"Sindh","capital":"minor","population":101863},{"city":"Hildesheim","city_ascii":"Hildesheim","lat":52.15,"lng":9.95,"country":"Germany","iso2":"DE","iso3":"DEU","admin_name":"Lower Saxony","capital":"minor","population":101858},{"city":"Kapūrthala","city_ascii":"Kapurthala","lat":31.38,"lng":75.38,"country":"India","iso2":"IN","iso3":"IND","admin_name":"Punjab","capital":"","population":101854},{"city":"Boryeong","city_ascii":"Boryeong","lat":36.3333,"lng":126.6167,"country":"Korea, South","iso2":"KR","iso3":"KOR","admin_name":"Chungnam","capital":"minor","population":101852},{"city":"Al Ḩajar al Aswad","city_ascii":"Al Hajar al Aswad","lat":33.464,"lng":36.3044,"country":"Syria","iso2":"SY","iso3":"SYR","admin_name":"Rīf Dimashq","capital":"minor","population":101827},{"city":"Olomouc","city_ascii":"Olomouc","lat":49.5939,"lng":17.2508,"country":"Czechia","iso2":"CZ","iso3":"CZE","admin_name":"Olomoucký Kraj","capital":"admin","population":101825},{"city":"Zonguldak","city_ascii":"Zonguldak","lat":41.4564,"lng":31.7986,"country":"Turkey","iso2":"TR","iso3":"TUR","admin_name":"Zonguldak","capital":"admin","population":101749},{"city":"Lee's Summit","city_ascii":"Lee's Summit","lat":38.9171,"lng":-94.3816,"country":"United States","iso2":"US","iso3":"USA","admin_name":"Missouri","capital":"","population":101728},{"city":"Dhamtari","city_ascii":"Dhamtari","lat":20.71,"lng":81.55,"country":"India","iso2":"IN","iso3":"IND","admin_name":"Chhattīsgarh","capital":"","population":101677},{"city":"Rāneswar","city_ascii":"Raneswar","lat":24.0311,"lng":87.4197,"country":"India","iso2":"IN","iso3":"IND","admin_name":"Jhārkhand","capital":"","population":101667},{"city":"Chishtian","city_ascii":"Chishtian","lat":29.8,"lng":72.8333,"country":"Pakistan","iso2":"PK","iso3":"PAK","admin_name":"Punjab","capital":"","population":101659},{"city":"Longmont","city_ascii":"Longmont","lat":40.1686,"lng":-105.1005,"country":"United States","iso2":"US","iso3":"USA","admin_name":"Colorado","capital":"","population":101642},{"city":"‘Ibrī","city_ascii":"`Ibri","lat":23.2325,"lng":56.4973,"country":"Oman","iso2":"OM","iso3":"OMN","admin_name":"Az̧ Z̧āhirah","capital":"admin","population":101640},{"city":"Vacaville","city_ascii":"Vacaville","lat":38.3587,"lng":-121.9673,"country":"United States","iso2":"US","iso3":"USA","admin_name":"California","capital":"","population":101631},{"city":"Nantou","city_ascii":"Nantou","lat":23.9167,"lng":120.6833,"country":"Taiwan","iso2":"TW","iso3":"TWN","admin_name":"Nantou","capital":"admin","population":101606},{"city":"Ōnojō","city_ascii":"Onojo","lat":33.5333,"lng":130.4833,"country":"Japan","iso2":"JP","iso3":"JPN","admin_name":"Fukuoka","capital":"","population":101603},{"city":"Brājarājnagar","city_ascii":"Brajarajnagar","lat":21.8167,"lng":83.9167,"country":"India","iso2":"IN","iso3":"IND","admin_name":"Odisha","capital":"","population":101585},{"city":"Eastbourne","city_ascii":"Eastbourne","lat":50.77,"lng":0.28,"country":"United Kingdom","iso2":"GB","iso3":"GBR","admin_name":"East Sussex","capital":"","population":101547},{"city":"Sūjāngarh","city_ascii":"Sujangarh","lat":27.7,"lng":74.47,"country":"India","iso2":"IN","iso3":"IND","admin_name":"Rājasthān","capital":"","population":101528},{"city":"Highlands Ranch","city_ascii":"Highlands Ranch","lat":39.5419,"lng":-104.9708,"country":"United States","iso2":"US","iso3":"USA","admin_name":"Colorado","capital":"","population":101514},{"city":"Ciudad Río Bravo","city_ascii":"Ciudad Rio Bravo","lat":25.9861,"lng":-98.0889,"country":"Mexico","iso2":"MX","iso3":"MEX","admin_name":"Tamaulipas","capital":"minor","population":101481},{"city":"Bhadreswar","city_ascii":"Bhadreswar","lat":22.82,"lng":88.35,"country":"India","iso2":"IN","iso3":"IND","admin_name":"West Bengal","capital":"","population":101477},{"city":"Pavlohrad","city_ascii":"Pavlohrad","lat":48.5167,"lng":35.8667,"country":"Ukraine","iso2":"UA","iso3":"UKR","admin_name":"Dnipropetrovska Oblast","capital":"minor","population":101430},{"city":"Clarington","city_ascii":"Clarington","lat":43.935,"lng":-78.6083,"country":"Canada","iso2":"CA","iso3":"CAN","admin_name":"Ontario","capital":"","population":101427},{"city":"Hengnan","city_ascii":"Hengnan","lat":22.5348,"lng":113.2491,"country":"China","iso2":"CN","iso3":"CHN","admin_name":"Guangdong","capital":"","population":101415},{"city":"Assis","city_ascii":"Assis","lat":-22.6619,"lng":-50.4119,"country":"Brazil","iso2":"BR","iso3":"BRA","admin_name":"São Paulo","capital":"","population":101409},{"city":"Klagenfurt","city_ascii":"Klagenfurt","lat":46.6167,"lng":14.3,"country":"Austria","iso2":"AT","iso3":"AUT","admin_name":"Kärnten","capital":"admin","population":101403},{"city":"Chilakalūrupet","city_ascii":"Chilakalurupet","lat":16.0892,"lng":80.1672,"country":"India","iso2":"IN","iso3":"IND","admin_name":"Andhra Pradesh","capital":"","population":101398},{"city":"San Luis de la Paz","city_ascii":"San Luis de la Paz","lat":21.2986,"lng":-100.5164,"country":"Mexico","iso2":"MX","iso3":"MEX","admin_name":"Guanajuato","capital":"minor","population":101370},{"city":"Hanau","city_ascii":"Hanau","lat":50.1328,"lng":8.9169,"country":"Germany","iso2":"DE","iso3":"DEU","admin_name":"Hesse","capital":"minor","population":101364},{"city":"Hikkaduwa","city_ascii":"Hikkaduwa","lat":6.1472,"lng":80.1103,"country":"Sri Lanka","iso2":"LK","iso3":"LKA","admin_name":"Southern","capital":"","population":101342},{"city":"Sungai Penuh","city_ascii":"Sungai Penuh","lat":-2.0589,"lng":101.3914,"country":"Indonesia","iso2":"ID","iso3":"IDN","admin_name":"Jambi","capital":"","population":101325},{"city":"Kingsport","city_ascii":"Kingsport","lat":36.5224,"lng":-82.5454,"country":"United States","iso2":"US","iso3":"USA","admin_name":"Tennessee","capital":"","population":101323},{"city":"Chaguanas","city_ascii":"Chaguanas","lat":10.5167,"lng":-61.4,"country":"Trinidad and Tobago","iso2":"TT","iso3":"TTO","admin_name":"Chaguanas","capital":"admin","population":101297},{"city":"Jingping","city_ascii":"Jingping","lat":39.5189,"lng":112.2837,"country":"China","iso2":"CN","iso3":"CHN","admin_name":"Shanxi","capital":"minor","population":101297},{"city":"Novara","city_ascii":"Novara","lat":45.45,"lng":8.62,"country":"Italy","iso2":"IT","iso3":"ITA","admin_name":"Piedmont","capital":"minor","population":101257},{"city":"Kousséri","city_ascii":"Kousseri","lat":12.0833,"lng":15.0333,"country":"Cameroon","iso2":"CM","iso3":"CMR","admin_name":"Extrême-Nord","capital":"","population":101246},{"city":"Aïn Oussera","city_ascii":"Ain Oussera","lat":35.4489,"lng":2.9044,"country":"Algeria","iso2":"DZ","iso3":"DZA","admin_name":"Djelfa","capital":"","population":101239},{"city":"Deventer","city_ascii":"Deventer","lat":52.25,"lng":6.15,"country":"Netherlands","iso2":"NL","iso3":"NLD","admin_name":"Overijssel","capital":"minor","population":101236},{"city":"San Vicente de Baracaldo","city_ascii":"San Vicente de Baracaldo","lat":43.2972,"lng":-2.9917,"country":"Spain","iso2":"ES","iso3":"ESP","admin_name":"Basque Country","capital":"","population":101229},{"city":"Kaiserslautern","city_ascii":"Kaiserslautern","lat":49.4447,"lng":7.7689,"country":"Germany","iso2":"DE","iso3":"DEU","admin_name":"Rhineland-Palatinate","capital":"minor","population":101228},{"city":"KwaDukuza","city_ascii":"KwaDukuza","lat":-29.3333,"lng":31.2917,"country":"South Africa","iso2":"ZA","iso3":"ZAF","admin_name":"KwaZulu-Natal","capital":"","population":101224},{"city":"San Tan Valley","city_ascii":"San Tan Valley","lat":33.1786,"lng":-111.5629,"country":"United States","iso2":"US","iso3":"USA","admin_name":"Arizona","capital":"","population":101207},{"city":"Ngã Bảy","city_ascii":"Nga Bay","lat":9.8164,"lng":105.8197,"country":"Vietnam","iso2":"VN","iso3":"VNM","admin_name":"Hậu Giang","capital":"minor","population":101192},{"city":"Hồng Ngự","city_ascii":"Hong Ngu","lat":10.833,"lng":105.283,"country":"Vietnam","iso2":"VN","iso3":"VNM","admin_name":"Đồng Tháp","capital":"","population":101155},{"city":"Jeypore","city_ascii":"Jeypore","lat":18.8563,"lng":82.5716,"country":"India","iso2":"IN","iso3":"IND","admin_name":"Odisha","capital":"","population":101145},{"city":"Zomba","city_ascii":"Zomba","lat":-15.3869,"lng":35.3192,"country":"Malawi","iso2":"MW","iso3":"MWI","admin_name":"Zomba","capital":"admin","population":101140},{"city":"Daoukro","city_ascii":"Daoukro","lat":7.05,"lng":-3.9667,"country":"Côte d’Ivoire","iso2":"CI","iso3":"CIV","admin_name":"Lacs","capital":"minor","population":101136},{"city":"Santa Cruz","city_ascii":"Santa Cruz","lat":6.83,"lng":125.42,"country":"Philippines","iso2":"PH","iso3":"PHL","admin_name":"Davao del Sur","capital":"","population":101125},{"city":"Itaperuna","city_ascii":"Itaperuna","lat":-21.205,"lng":-41.8878,"country":"Brazil","iso2":"BR","iso3":"BRA","admin_name":"Rio de Janeiro","capital":"","population":101041},{"city":"Oran","city_ascii":"Oran","lat":35.6969,"lng":-0.6331,"country":"Algeria","iso2":"DZ","iso3":"DZA","admin_name":"Oran","capital":"admin","population":101009},{"city":"Mporokoso","city_ascii":"Mporokoso","lat":-9.3833,"lng":30.1,"country":"Zambia","iso2":"ZM","iso3":"ZMB","admin_name":"Northern","capital":"","population":100993},{"city":"Quincy","city_ascii":"Quincy","lat":42.2506,"lng":-71.0187,"country":"United States","iso2":"US","iso3":"USA","admin_name":"Massachusetts","capital":"","population":100981},{"city":"Edinburg","city_ascii":"Edinburg","lat":26.3196,"lng":-98.1597,"country":"United States","iso2":"US","iso3":"USA","admin_name":"Texas","capital":"","population":100964},{"city":"Kāranja","city_ascii":"Karanja","lat":20.4833,"lng":77.4833,"country":"India","iso2":"IN","iso3":"IND","admin_name":"Mahārāshtra","capital":"","population":100947},{"city":"Aboisso","city_ascii":"Aboisso","lat":5.4667,"lng":-3.2,"country":"Côte d’Ivoire","iso2":"CI","iso3":"CIV","admin_name":"Comoé","capital":"minor","population":100903},{"city":"Salavan","city_ascii":"Salavan","lat":15.7167,"lng":106.4167,"country":"Laos","iso2":"LA","iso3":"LAO","admin_name":"Salavan","capital":"admin","population":100900},{"city":"Xırdalan","city_ascii":"Xirdalan","lat":40.4486,"lng":49.7564,"country":"Azerbaijan","iso2":"AZ","iso3":"AZE","admin_name":"Abşeron","capital":"admin","population":100900},{"city":"Saint-Jérôme","city_ascii":"Saint-Jerome","lat":45.7833,"lng":-74,"country":"Canada","iso2":"CA","iso3":"CAN","admin_name":"Quebec","capital":"","population":100859},{"city":"Red Deer","city_ascii":"Red Deer","lat":52.2681,"lng":-113.8111,"country":"Canada","iso2":"CA","iso3":"CAN","admin_name":"Alberta","capital":"","population":100844},{"city":"Sakado","city_ascii":"Sakado","lat":35.9573,"lng":139.403,"country":"Japan","iso2":"JP","iso3":"JPN","admin_name":"Saitama","capital":"","population":100829},{"city":"Bỉm Sơn","city_ascii":"Bim Son","lat":20.0781,"lng":105.8603,"country":"Vietnam","iso2":"VN","iso3":"VNM","admin_name":"Thanh Hóa","capital":"","population":100820},{"city":"Kefar Sava","city_ascii":"Kefar Sava","lat":32.1714,"lng":34.9083,"country":"Israel","iso2":"IL","iso3":"ISR","admin_name":"Central","capital":"","population":100800},{"city":"Chanwari","city_ascii":"Chanwari","lat":23.1917,"lng":82.3542,"country":"India","iso2":"IN","iso3":"IND","admin_name":"Chhattīsgarh","capital":"","population":100800},{"city":"Xinhua","city_ascii":"Xinhua","lat":23.6243,"lng":105.6229,"country":"China","iso2":"CN","iso3":"CHN","admin_name":"Yunnan","capital":"minor","population":100792},{"city":"Sungailiat","city_ascii":"Sungailiat","lat":-1.8561,"lng":106.1192,"country":"Indonesia","iso2":"ID","iso3":"IDN","admin_name":"Kepulauan Bangka Belitung","capital":"minor","population":100750},{"city":"Sittwe","city_ascii":"Sittwe","lat":20.167,"lng":92.785,"country":"Burma","iso2":"MM","iso3":"MMR","admin_name":"Rakhine State","capital":"admin","population":100748},{"city":"Zheleznogorsk","city_ascii":"Zheleznogorsk","lat":52.3333,"lng":35.3667,"country":"Russia","iso2":"RU","iso3":"RUS","admin_name":"Kurskaya Oblast’","capital":"minor","population":100740},{"city":"Concepción del Uruguay","city_ascii":"Concepcion del Uruguay","lat":-32.4833,"lng":-58.2333,"country":"Argentina","iso2":"AR","iso3":"ARG","admin_name":"Entre Ríos","capital":"minor","population":100728},{"city":"Leer","city_ascii":"Leer","lat":8.2979,"lng":30.1475,"country":"South Sudan","iso2":"SS","iso3":"SSD","admin_name":"Unity","capital":"","population":100722},{"city":"Cavite City","city_ascii":"Cavite City","lat":14.48,"lng":120.9,"country":"Philippines","iso2":"PH","iso3":"PHL","admin_name":"Cavite","capital":"","population":100674},{"city":"Playas de Rosarito","city_ascii":"Playas de Rosarito","lat":32.3422,"lng":-117.0561,"country":"Mexico","iso2":"MX","iso3":"MEX","admin_name":"Baja California","capital":"minor","population":100660},{"city":"Lynn","city_ascii":"Lynn","lat":42.4781,"lng":-70.9664,"country":"United States","iso2":"US","iso3":"USA","admin_name":"Massachusetts","capital":"","population":100653},{"city":"Ahar","city_ascii":"Ahar","lat":38.4797,"lng":47.0669,"country":"Iran","iso2":"IR","iso3":"IRN","admin_name":"Āz̄arbāyjān-e Sharqī","capital":"minor","population":100641},{"city":"Yên Bái","city_ascii":"Yen Bai","lat":21.7,"lng":104.8667,"country":"Vietnam","iso2":"VN","iso3":"VNM","admin_name":"Yên Bái","capital":"admin","population":100631},{"city":"Weifen","city_ascii":"Weifen","lat":38.4633,"lng":111.1203,"country":"China","iso2":"CN","iso3":"CHN","admin_name":"Shanxi","capital":"minor","population":100615},{"city":"Sur","city_ascii":"Sur","lat":37.9106,"lng":40.2358,"country":"Turkey","iso2":"TR","iso3":"TUR","admin_name":"Diyarbakır","capital":"minor","population":100613},{"city":"Port Blair","city_ascii":"Port Blair","lat":11.6683,"lng":92.7378,"country":"India","iso2":"IN","iso3":"IND","admin_name":"Andaman and Nicobar Islands","capital":"admin","population":100608},{"city":"Nāḩiyat al Iskandarīyah","city_ascii":"Nahiyat al Iskandariyah","lat":32.9,"lng":44.35,"country":"Iraq","iso2":"IQ","iso3":"IRQ","admin_name":"Bābil","capital":"","population":100600},{"city":"Kalyani","city_ascii":"Kalyani","lat":22.975,"lng":88.4344,"country":"India","iso2":"IN","iso3":"IND","admin_name":"West Bengal","capital":"","population":100575},{"city":"Masjed Soleymān","city_ascii":"Masjed Soleyman","lat":31.96,"lng":49.2881,"country":"Iran","iso2":"IR","iso3":"IRN","admin_name":"Khūzestān","capital":"minor","population":100497},{"city":"Calasiao","city_ascii":"Calasiao","lat":16.02,"lng":120.37,"country":"Philippines","iso2":"PH","iso3":"PHL","admin_name":"Pangasinan","capital":"","population":100471},{"city":"Datia","city_ascii":"Datia","lat":25.67,"lng":78.47,"country":"India","iso2":"IN","iso3":"IND","admin_name":"Madhya Pradesh","capital":"","population":100466},{"city":"Kamianets-Podilskyi","city_ascii":"Kamianets-Podilskyi","lat":48.6833,"lng":26.5833,"country":"Ukraine","iso2":"UA","iso3":"UKR","admin_name":"Khmelnytska Oblast","capital":"minor","population":100462},{"city":"Itauguá","city_ascii":"Itaugua","lat":-25.3833,"lng":-57.3333,"country":"Paraguay","iso2":"PY","iso3":"PRY","admin_name":"Central","capital":"","population":100456},{"city":"Torbat-e Jām","city_ascii":"Torbat-e Jam","lat":35.2431,"lng":60.625,"country":"Iran","iso2":"IR","iso3":"IRN","admin_name":"Khorāsān-e Raẕavī","capital":"minor","population":100449},{"city":"Diourbel","city_ascii":"Diourbel","lat":14.655,"lng":-16.2314,"country":"Senegal","iso2":"SN","iso3":"SEN","admin_name":"Diourbel","capital":"admin","population":100445},{"city":"Madhavaram","city_ascii":"Madhavaram","lat":13.1482,"lng":80.2314,"country":"India","iso2":"IN","iso3":"IND","admin_name":"Tamil Nādu","capital":"","population":100442},{"city":"Kawachinagano","city_ascii":"Kawachinagano","lat":34.4667,"lng":135.5667,"country":"Japan","iso2":"JP","iso3":"JPN","admin_name":"Ōsaka","capital":"","population":100415},{"city":"Libertad","city_ascii":"Libertad","lat":-34.6833,"lng":-58.6833,"country":"Argentina","iso2":"AR","iso3":"ARG","admin_name":"Buenos Aires","capital":"","population":100324},{"city":"Shahrisabz","city_ascii":"Shahrisabz","lat":39.05,"lng":66.8333,"country":"Uzbekistan","iso2":"UZ","iso3":"UZB","admin_name":"Qashqadaryo","capital":"","population":100300},{"city":"Gangtok","city_ascii":"Gangtok","lat":27.33,"lng":88.62,"country":"India","iso2":"IN","iso3":"IND","admin_name":"Sikkim","capital":"admin","population":100286},{"city":"Vaciamadrid","city_ascii":"Vaciamadrid","lat":40.3394,"lng":-3.5181,"country":"Spain","iso2":"ES","iso3":"ESP","admin_name":"Madrid","capital":"","population":100250},{"city":"Boconó","city_ascii":"Bocono","lat":9.2461,"lng":-70.2617,"country":"Venezuela","iso2":"VE","iso3":"VEN","admin_name":"Trujillo","capital":"minor","population":100240},{"city":"San Felipe del Progreso","city_ascii":"San Felipe del Progreso","lat":19.7125,"lng":-99.9511,"country":"Mexico","iso2":"MX","iso3":"MEX","admin_name":"México","capital":"minor","population":100201},{"city":"Chust","city_ascii":"Chust","lat":40.9978,"lng":71.2403,"country":"Uzbekistan","iso2":"UZ","iso3":"UZB","admin_name":"Namangan","capital":"","population":100200},{"city":"Lamitan","city_ascii":"Lamitan","lat":6.65,"lng":122.13,"country":"Philippines","iso2":"PH","iso3":"PHL","admin_name":"Basilan","capital":"","population":100150},{"city":"Talipao","city_ascii":"Talipao","lat":5.976,"lng":121.1087,"country":"Philippines","iso2":"PH","iso3":"PHL","admin_name":"Sulu","capital":"minor","population":100088},{"city":"San Angelo","city_ascii":"San Angelo","lat":31.4424,"lng":-100.4504,"country":"United States","iso2":"US","iso3":"USA","admin_name":"Texas","capital":"","population":100057},{"city":"Sabanalarga","city_ascii":"Sabanalarga","lat":6.85,"lng":-75.8167,"country":"Colombia","iso2":"CO","iso3":"COL","admin_name":"Antioquia","capital":"minor","population":100049},{"city":"Zelënodol’sk","city_ascii":"Zelenodol'sk","lat":55.85,"lng":48.5167,"country":"Russia","iso2":"RU","iso3":"RUS","admin_name":"Tatarstan","capital":"","population":100009},{"city":"Pyinmana","city_ascii":"Pyinmana","lat":19.75,"lng":96.2,"country":"Burma","iso2":"MM","iso3":"MMR","admin_name":"Nay Pyi Taw","capital":"","population":100001},{"city":"Zahlé","city_ascii":"Zahle","lat":33.8333,"lng":35.9167,"country":"Lebanon","iso2":"LB","iso3":"LBN","admin_name":"Béqaa","capital":"admin","population":100000},{"city":"Bāmyān","city_ascii":"Bamyan","lat":34.825,"lng":67.8333,"country":"Afghanistan","iso2":"AF","iso3":"AFG","admin_name":"Bāmyān","capital":"admin","population":100000},{"city":"Mbanza-Ngungu","city_ascii":"Mbanza-Ngungu","lat":-5.25,"lng":14.8667,"country":"Congo (Kinshasa)","iso2":"CD","iso3":"COD","admin_name":"Kongo Central","capital":"","population":100000},{"city":"Banzhuangcun","city_ascii":"Banzhuangcun","lat":34.8504,"lng":118.851,"country":"China","iso2":"CN","iso3":"CHN","admin_name":"Jiangsu","capital":"","population":100000},{"city":"Ra’s Ghārib","city_ascii":"Ra's Gharib","lat":28.3597,"lng":33.0775,"country":"Egypt","iso2":"EG","iso3":"EGY","admin_name":"Al Baḩr al Aḩmar","capital":"","population":100000},{"city":"Gwelej","city_ascii":"Gwelej","lat":14.75,"lng":36.7167,"country":"Eritrea","iso2":"ER","iso3":"ERI","admin_name":"Gash-Barka","capital":"","population":100000},{"city":"Babīlē","city_ascii":"Babile","lat":9.2167,"lng":42.3333,"country":"Ethiopia","iso2":"ET","iso3":"ETH","admin_name":"Oromīya","capital":"","population":100000},{"city":"Dzolokpuita","city_ascii":"Dzolokpuita","lat":6.7862,"lng":0.4437,"country":"Ghana","iso2":"GH","iso3":"GHA","admin_name":"Volta","capital":"","population":100000},{"city":"Suramāla","city_ascii":"Suramala","lat":13.76,"lng":79.7,"country":"India","iso2":"IN","iso3":"IND","admin_name":"Andhra Pradesh","capital":"","population":100000},{"city":"Navalyal","city_ascii":"Navalyal","lat":16.48,"lng":74.78,"country":"India","iso2":"IN","iso3":"IND","admin_name":"Karnātaka","capital":"","population":100000},{"city":"Barod","city_ascii":"Barod","lat":27.8947,"lng":76.3681,"country":"India","iso2":"IN","iso3":"IND","admin_name":"Rājasthān","capital":"","population":100000},{"city":"Vāsco Da Gāma","city_ascii":"Vasco Da Gama","lat":15.3981,"lng":73.8111,"country":"India","iso2":"IN","iso3":"IND","admin_name":"Goa","capital":"","population":100000},{"city":"Khambhāliya","city_ascii":"Khambhaliya","lat":22.2,"lng":69.65,"country":"India","iso2":"IN","iso3":"IND","admin_name":"Gujarāt","capital":"","population":100000},{"city":"Abbigeri","city_ascii":"Abbigeri","lat":13.0767,"lng":77.525,"country":"India","iso2":"IN","iso3":"IND","admin_name":"Karnātaka","capital":"","population":100000},{"city":"Kundli","city_ascii":"Kundli","lat":28.99,"lng":77.022,"country":"India","iso2":"IN","iso3":"IND","admin_name":"Haryāna","capital":"","population":100000},{"city":"Ad Dujayl","city_ascii":"Ad Dujayl","lat":33.8389,"lng":44.2481,"country":"Iraq","iso2":"IQ","iso3":"IRQ","admin_name":"Şalāḩ ad Dīn","capital":"","population":100000},{"city":"Mumias","city_ascii":"Mumias","lat":0.3333,"lng":34.4833,"country":"Kenya","iso2":"KE","iso3":"KEN","admin_name":"Kakamega","capital":"","population":99987},{"city":"Luckeesarai","city_ascii":"Luckeesarai","lat":25.1678,"lng":86.0944,"country":"India","iso2":"IN","iso3":"IND","admin_name":"Bihār","capital":"","population":99979},{"city":"Songea","city_ascii":"Songea","lat":-10.6833,"lng":35.65,"country":"Tanzania","iso2":"TZ","iso3":"TZA","admin_name":"Ruvuma","capital":"admin","population":99961},{"city":"Pouytenga","city_ascii":"Pouytenga","lat":12.25,"lng":-0.4333,"country":"Burkina Faso","iso2":"BF","iso3":"BFA","admin_name":"Centre-Est","capital":"","population":99950},{"city":"Sololá","city_ascii":"Solola","lat":14.7667,"lng":-91.1833,"country":"Guatemala","iso2":"GT","iso3":"GTM","admin_name":"Sololá","capital":"admin","population":99934},{"city":"Mabai","city_ascii":"Mabai","lat":23.0151,"lng":104.396,"country":"China","iso2":"CN","iso3":"CHN","admin_name":"Yunnan","capital":"minor","population":99930},{"city":"Debre Zeyit","city_ascii":"Debre Zeyit","lat":8.75,"lng":38.9833,"country":"Ethiopia","iso2":"ET","iso3":"ETH","admin_name":"Oromīya","capital":"","population":99928},{"city":"Dunedin","city_ascii":"Dunedin","lat":-45.8742,"lng":170.5036,"country":"New Zealand","iso2":"NZ","iso3":"NZL","admin_name":"Otago","capital":"admin","population":99885},{"city":"Hesperia","city_ascii":"Hesperia","lat":34.3975,"lng":-117.3147,"country":"United States","iso2":"US","iso3":"USA","admin_name":"California","capital":"","population":99878},{"city":"Nabire","city_ascii":"Nabire","lat":-3.3682,"lng":135.4964,"country":"Indonesia","iso2":"ID","iso3":"IDN","admin_name":"Papua Tengah","capital":"admin","population":99848},{"city":"Sundsvall","city_ascii":"Sundsvall","lat":62.4,"lng":17.3167,"country":"Sweden","iso2":"SE","iso3":"SWE","admin_name":"Västernorrland","capital":"minor","population":99825},{"city":"Kadaiyanallūr","city_ascii":"Kadaiyanallur","lat":9.0743,"lng":77.3419,"country":"India","iso2":"IN","iso3":"IND","admin_name":"Tamil Nādu","capital":"","population":99807},{"city":"Sayaxché","city_ascii":"Sayaxche","lat":16.5167,"lng":-90.1833,"country":"Guatemala","iso2":"GT","iso3":"GTM","admin_name":"Petén","capital":"minor","population":99787},{"city":"Ciamis","city_ascii":"Ciamis","lat":-7.3281,"lng":108.3336,"country":"Indonesia","iso2":"ID","iso3":"IDN","admin_name":"Jawa Barat","capital":"minor","population":99750},{"city":"Putatan","city_ascii":"Putatan","lat":14.3984,"lng":121.0364,"country":"Philippines","iso2":"PH","iso3":"PHL","admin_name":"Muntinlupa","capital":"","population":99725},{"city":"Xiongzhou","city_ascii":"Xiongzhou","lat":38.9786,"lng":116.073,"country":"China","iso2":"CN","iso3":"CHN","admin_name":"Hebei","capital":"minor","population":99693},{"city":"Urgut Shahri","city_ascii":"Urgut Shahri","lat":39.419,"lng":67.2612,"country":"Uzbekistan","iso2":"UZ","iso3":"UZB","admin_name":"Samarqand","capital":"minor","population":99675},{"city":"Fengning","city_ascii":"Fengning","lat":41.2013,"lng":116.6433,"country":"China","iso2":"CN","iso3":"CHN","admin_name":"Hebei","capital":"minor","population":99673},{"city":"Bowling Green","city_ascii":"Bowling Green","lat":36.9716,"lng":-86.4378,"country":"United States","iso2":"US","iso3":"USA","admin_name":"Kentucky","capital":"","population":99669},{"city":"Shahdadpur","city_ascii":"Shahdadpur","lat":25.9228,"lng":68.6206,"country":"Pakistan","iso2":"PK","iso3":"PAK","admin_name":"Sindh","capital":"","population":99653},{"city":"Federal Way","city_ascii":"Federal Way","lat":47.3091,"lng":-122.3358,"country":"United States","iso2":"US","iso3":"USA","admin_name":"Washington","capital":"","population":99614},{"city":"Talara","city_ascii":"Talara","lat":-4.5799,"lng":-81.2719,"country":"Peru","iso2":"PE","iso3":"PER","admin_name":"Piura","capital":"","population":99600},{"city":"Menglang","city_ascii":"Menglang","lat":22.5586,"lng":99.9336,"country":"China","iso2":"CN","iso3":"CHN","admin_name":"Yunnan","capital":"minor","population":99551},{"city":"Kani","city_ascii":"Kani","lat":35.4261,"lng":137.0613,"country":"Japan","iso2":"JP","iso3":"JPN","admin_name":"Gifu","capital":"","population":99545},{"city":"Cottbus","city_ascii":"Cottbus","lat":51.7606,"lng":14.3342,"country":"Germany","iso2":"DE","iso3":"DEU","admin_name":"Brandenburg","capital":"minor","population":99515},{"city":"Tinsukia","city_ascii":"Tinsukia","lat":27.5,"lng":95.367,"country":"India","iso2":"IN","iso3":"IND","admin_name":"Assam","capital":"","population":99507},{"city":"Santa Cruz del Quiché","city_ascii":"Santa Cruz del Quiche","lat":15.03,"lng":-91.15,"country":"Guatemala","iso2":"GT","iso3":"GTM","admin_name":"Quiché","capital":"admin","population":99479},{"city":"Hualien","city_ascii":"Hualien","lat":23.9722,"lng":121.6064,"country":"Taiwan","iso2":"TW","iso3":"TWN","admin_name":"Hualien","capital":"admin","population":99458},{"city":"Carmel","city_ascii":"Carmel","lat":39.965,"lng":-86.146,"country":"United States","iso2":"US","iso3":"USA","admin_name":"Indiana","capital":"","population":99453},{"city":"Bismarck","city_ascii":"Bismarck","lat":46.8143,"lng":-100.7694,"country":"United States","iso2":"US","iso3":"USA","admin_name":"North Dakota","capital":"admin","population":99433},{"city":"Campo Mourão","city_ascii":"Campo Mourao","lat":-24.0458,"lng":-52.3828,"country":"Brazil","iso2":"BR","iso3":"BRA","admin_name":"Paraná","capital":"","population":99432},{"city":"Alaminos","city_ascii":"Alaminos","lat":16.1553,"lng":119.9808,"country":"Philippines","iso2":"PH","iso3":"PHL","admin_name":"Pangasinan","capital":"","population":99397},{"city":"Xiegang","city_ascii":"Xiegang","lat":22.9616,"lng":114.1487,"country":"China","iso2":"CN","iso3":"CHN","admin_name":"Guangdong","capital":"","population":99387},{"city":"Tellicherry","city_ascii":"Tellicherry","lat":11.7481,"lng":75.4929,"country":"India","iso2":"IN","iso3":"IND","admin_name":"Kerala","capital":"","population":99386},{"city":"Jinotega","city_ascii":"Jinotega","lat":13.0884,"lng":-85.9994,"country":"Nicaragua","iso2":"NI","iso3":"NIC","admin_name":"Jinotega","capital":"admin","population":99382},{"city":"Itārsi","city_ascii":"Itarsi","lat":22.6115,"lng":77.7623,"country":"India","iso2":"IN","iso3":"IND","admin_name":"Madhya Pradesh","capital":"","population":99330},{"city":"Izumisano","city_ascii":"Izumisano","lat":34.4,"lng":135.3333,"country":"Japan","iso2":"JP","iso3":"JPN","admin_name":"Ōsaka","capital":"","population":99328},{"city":"Thika","city_ascii":"Thika","lat":-1.0396,"lng":37.09,"country":"Kenya","iso2":"KE","iso3":"KEN","admin_name":"Kiambu","capital":"","population":99322},{"city":"Bislig","city_ascii":"Bislig","lat":8.2133,"lng":126.3161,"country":"Philippines","iso2":"PH","iso3":"PHL","admin_name":"Surigao del Sur","capital":"","population":99290},{"city":"Abhar","city_ascii":"Abhar","lat":36.1511,"lng":49.2244,"country":"Iran","iso2":"IR","iso3":"IRN","admin_name":"Zanjān","capital":"minor","population":99285},{"city":"Viseu","city_ascii":"Viseu","lat":40.6667,"lng":-7.9167,"country":"Portugal","iso2":"PT","iso3":"PRT","admin_name":"Viseu","capital":"admin","population":99274},{"city":"Malate","city_ascii":"Malate","lat":14.5642,"lng":120.9913,"country":"Philippines","iso2":"PH","iso3":"PHL","admin_name":"Manila","capital":"","population":99257},{"city":"Ginowan","city_ascii":"Ginowan","lat":26.2817,"lng":127.7783,"country":"Japan","iso2":"JP","iso3":"JPN","admin_name":"Okinawa","capital":"","population":99256},{"city":"Wakefield","city_ascii":"Wakefield","lat":53.6825,"lng":-1.4975,"country":"United Kingdom","iso2":"GB","iso3":"GBR","admin_name":"Wakefield","capital":"","population":99251},{"city":"Sakata","city_ascii":"Sakata","lat":38.9145,"lng":139.8364,"country":"Japan","iso2":"JP","iso3":"JPN","admin_name":"Yamagata","capital":"","population":99235},{"city":"Khamīs Mushayţ","city_ascii":"Khamis Mushayt","lat":18.3,"lng":42.7333,"country":"Saudi Arabia","iso2":"SA","iso3":"SAU","admin_name":"‘Asīr","capital":"","population":99213},{"city":"Pili","city_ascii":"Pili","lat":13.5542,"lng":123.2753,"country":"Philippines","iso2":"PH","iso3":"PHL","admin_name":"Camarines Sur","capital":"","population":99196},{"city":"Pickering","city_ascii":"Pickering","lat":43.8354,"lng":-79.089,"country":"Canada","iso2":"CA","iso3":"CAN","admin_name":"Ontario","capital":"","population":99186},{"city":"Hasilpur","city_ascii":"Hasilpur","lat":29.6917,"lng":72.5453,"country":"Pakistan","iso2":"PK","iso3":"PAK","admin_name":"Punjab","capital":"","population":99171},{"city":"Trincomalee","city_ascii":"Trincomalee","lat":8.5667,"lng":81.2333,"country":"Sri Lanka","iso2":"LK","iso3":"LKA","admin_name":"Eastern","capital":"admin","population":99135},{"city":"Riberalta","city_ascii":"Riberalta","lat":-11.0128,"lng":-66.0572,"country":"Bolivia","iso2":"BO","iso3":"BOL","admin_name":"El Beni","capital":"","population":99070},{"city":"Morón","city_ascii":"Moron","lat":-34.65,"lng":-58.6167,"country":"Argentina","iso2":"AR","iso3":"ARG","admin_name":"Buenos Aires","capital":"minor","population":99066},{"city":"Fishers","city_ascii":"Fishers","lat":39.9588,"lng":-85.9659,"country":"United States","iso2":"US","iso3":"USA","admin_name":"Indiana","capital":"","population":99041},{"city":"Kohīma","city_ascii":"Kohima","lat":25.67,"lng":94.1,"country":"India","iso2":"IN","iso3":"IND","admin_name":"Nāgāland","capital":"admin","population":99039},{"city":"Sisophon","city_ascii":"Sisophon","lat":13.5833,"lng":102.9833,"country":"Cambodia","iso2":"KH","iso3":"KHM","admin_name":"Banteay Meanchey","capital":"admin","population":99019},{"city":"Tourcoing","city_ascii":"Tourcoing","lat":50.7239,"lng":3.1612,"country":"France","iso2":"FR","iso3":"FRA","admin_name":"Hauts-de-France","capital":"","population":99011},{"city":"Vereeniging","city_ascii":"Vereeniging","lat":-26.6736,"lng":27.9319,"country":"South Africa","iso2":"ZA","iso3":"ZAF","admin_name":"Gauteng","capital":"","population":99000},{"city":"Mīāneh","city_ascii":"Mianeh","lat":37.4239,"lng":47.7197,"country":"Iran","iso2":"IR","iso3":"IRN","admin_name":"Āz̄arbāyjān-e Sharqī","capital":"minor","population":98973},{"city":"Heshan","city_ascii":"Heshan","lat":23.8,"lng":108.8833,"country":"China","iso2":"CN","iso3":"CHN","admin_name":"Guangxi","capital":"minor","population":98938},{"city":"Paoy Paet","city_ascii":"Paoy Paet","lat":13.65,"lng":102.5667,"country":"Cambodia","iso2":"KH","iso3":"KHM","admin_name":"Banteay Meanchey","capital":"","population":98934},{"city":"Weldiya","city_ascii":"Weldiya","lat":11.8306,"lng":39.6,"country":"Ethiopia","iso2":"ET","iso3":"ETH","admin_name":"Āmara","capital":"","population":98911},{"city":"Nyeri","city_ascii":"Nyeri","lat":-0.4167,"lng":36.95,"country":"Kenya","iso2":"KE","iso3":"KEN","admin_name":"Nyeri","capital":"admin","population":98908},{"city":"Roubaix","city_ascii":"Roubaix","lat":50.6901,"lng":3.1817,"country":"France","iso2":"FR","iso3":"FRA","admin_name":"Hauts-de-France","capital":"","population":98892},{"city":"Lafayette","city_ascii":"Lafayette","lat":39.9946,"lng":-105.0998,"country":"United States","iso2":"US","iso3":"USA","admin_name":"Colorado","capital":"","population":98889},{"city":"Tobolsk","city_ascii":"Tobolsk","lat":58.2,"lng":68.2667,"country":"Russia","iso2":"RU","iso3":"RUS","admin_name":"Tyumenskaya Oblast’","capital":"","population":98886},{"city":"Burzaco","city_ascii":"Burzaco","lat":-34.8167,"lng":-58.3667,"country":"Argentina","iso2":"AR","iso3":"ARG","admin_name":"Buenos Aires","capital":"","population":98859},{"city":"Espejo","city_ascii":"Espejo","lat":-33.5167,"lng":-70.6917,"country":"Chile","iso2":"CL","iso3":"CHL","admin_name":"Región Metropolitana","capital":"","population":98804},{"city":"Kontagora","city_ascii":"Kontagora","lat":10.403,"lng":5.473,"country":"Nigeria","iso2":"NG","iso3":"NGA","admin_name":"Niger","capital":"minor","population":98763},{"city":"Senahú","city_ascii":"Senahu","lat":15.4164,"lng":-89.8203,"country":"Guatemala","iso2":"GT","iso3":"GTM","admin_name":"Alta Verapaz","capital":"minor","population":98703},{"city":"Khambhāt","city_ascii":"Khambhat","lat":22.3,"lng":72.62,"country":"India","iso2":"IN","iso3":"IND","admin_name":"Gujarāt","capital":"","population":98700},{"city":"Santiago de Compostela","city_ascii":"Santiago de Compostela","lat":42.8778,"lng":-8.5444,"country":"Spain","iso2":"ES","iso3":"ESP","admin_name":"Galicia","capital":"admin","population":98687},{"city":"Ixmiquilpan","city_ascii":"Ixmiquilpan","lat":20.4819,"lng":-99.2181,"country":"Mexico","iso2":"MX","iso3":"MEX","admin_name":"Hidalgo","capital":"minor","population":98654},{"city":"Caldas Novas","city_ascii":"Caldas Novas","lat":-17.745,"lng":-48.625,"country":"Brazil","iso2":"BR","iso3":"BRA","admin_name":"Goiás","capital":"","population":98622},{"city":"Schwerin","city_ascii":"Schwerin","lat":53.6333,"lng":11.4167,"country":"Germany","iso2":"DE","iso3":"DEU","admin_name":"Mecklenburg-Western Pomerania","capital":"admin","population":98596},{"city":"Salihorsk","city_ascii":"Salihorsk","lat":52.8,"lng":27.5333,"country":"Belarus","iso2":"BY","iso3":"BLR","admin_name":"Minskaya Voblasts’","capital":"minor","population":98590},{"city":"Reyhanlı","city_ascii":"Reyhanli","lat":36.2681,"lng":36.5675,"country":"Turkey","iso2":"TR","iso3":"TUR","admin_name":"Hatay","capital":"minor","population":98534},{"city":"Itoshima","city_ascii":"Itoshima","lat":33.5539,"lng":130.1978,"country":"Japan","iso2":"JP","iso3":"JPN","admin_name":"Fukuoka","capital":"","population":98527},{"city":"Zárate","city_ascii":"Zarate","lat":-34.0833,"lng":-59.0333,"country":"Argentina","iso2":"AR","iso3":"ARG","admin_name":"Buenos Aires","capital":"minor","population":98522},{"city":"Oton","city_ascii":"Oton","lat":10.6931,"lng":122.4736,"country":"Philippines","iso2":"PH","iso3":"PHL","admin_name":"Iloilo","capital":"","population":98509},{"city":"Manacapuru","city_ascii":"Manacapuru","lat":-3.2997,"lng":-60.6206,"country":"Brazil","iso2":"BR","iso3":"BRA","admin_name":"Amazonas","capital":"minor","population":98502},{"city":"Sopron","city_ascii":"Sopron","lat":47.6849,"lng":16.5831,"country":"Hungary","iso2":"HU","iso3":"HUN","admin_name":"Sopron","capital":"admin","population":98479},{"city":"Koytendag","city_ascii":"Koytendag","lat":37.5,"lng":66,"country":"Turkmenistan","iso2":"TM","iso3":"TKM","admin_name":"Lebap","capital":"","population":98477},{"city":"Abreu e Lima","city_ascii":"Abreu e Lima","lat":-7.9117,"lng":-34.9028,"country":"Brazil","iso2":"BR","iso3":"BRA","admin_name":"Pernambuco","capital":"minor","population":98462},{"city":"Lorca","city_ascii":"Lorca","lat":37.6798,"lng":-1.6944,"country":"Spain","iso2":"ES","iso3":"ESP","admin_name":"Murcia","capital":"","population":98447},{"city":"Chipata","city_ascii":"Chipata","lat":-13.6453,"lng":32.6464,"country":"Zambia","iso2":"ZM","iso3":"ZMB","admin_name":"Eastern","capital":"admin","population":98416},{"city":"Lethbridge","city_ascii":"Lethbridge","lat":49.6942,"lng":-112.8328,"country":"Canada","iso2":"CA","iso3":"CAN","admin_name":"Alberta","capital":"","population":98406},{"city":"Vista","city_ascii":"Vista","lat":33.1896,"lng":-117.2386,"country":"United States","iso2":"US","iso3":"USA","admin_name":"California","capital":"","population":98392},{"city":"Chikusei","city_ascii":"Chikusei","lat":36.3071,"lng":139.9831,"country":"Japan","iso2":"JP","iso3":"JPN","admin_name":"Ibaraki","capital":"","population":98384},{"city":"Ancona","city_ascii":"Ancona","lat":43.6169,"lng":13.5167,"country":"Italy","iso2":"IT","iso3":"ITA","admin_name":"Marche","capital":"admin","population":98356},{"city":"Saku","city_ascii":"Saku","lat":36.2488,"lng":138.4769,"country":"Japan","iso2":"JP","iso3":"JPN","admin_name":"Nagano","capital":"","population":98292},{"city":"Silvassa","city_ascii":"Silvassa","lat":20.2667,"lng":73.0167,"country":"India","iso2":"IN","iso3":"IND","admin_name":"Dādra and Nagar Haveli and Damān and Diu","capital":"","population":98266},{"city":"Santa Cruz do Capibaribe","city_ascii":"Santa Cruz do Capibaribe","lat":-7.9569,"lng":-36.205,"country":"Brazil","iso2":"BR","iso3":"BRA","admin_name":"Pernambuco","capital":"","population":98254},{"city":"Babahoyo","city_ascii":"Babahoyo","lat":-1.8167,"lng":-79.5167,"country":"Ecuador","iso2":"EC","iso3":"ECU","admin_name":"Los Ríos","capital":"admin","population":98251},{"city":"Lugo","city_ascii":"Lugo","lat":43.0167,"lng":-7.55,"country":"Spain","iso2":"ES","iso3":"ESP","admin_name":"Galicia","capital":"minor","population":98214},{"city":"M’lang","city_ascii":"M'lang","lat":6.95,"lng":124.88,"country":"Philippines","iso2":"PH","iso3":"PHL","admin_name":"Cotabato","capital":"","population":98195},{"city":"Leme","city_ascii":"Leme","lat":-22.1861,"lng":-47.3906,"country":"Brazil","iso2":"BR","iso3":"BRA","admin_name":"São Paulo","capital":"","population":98145},{"city":"Las Rozas de Madrid","city_ascii":"Las Rozas de Madrid","lat":40.4917,"lng":-3.8733,"country":"Spain","iso2":"ES","iso3":"ESP","admin_name":"Madrid","capital":"","population":98086},{"city":"Río Grande","city_ascii":"Rio Grande","lat":-53.7833,"lng":-67.7,"country":"Argentina","iso2":"AR","iso3":"ARG","admin_name":"Tierra del Fuego, Antártida e Islas del Atlántico Sur","capital":"minor","population":98017},{"city":"Boca Raton","city_ascii":"Boca Raton","lat":26.3752,"lng":-80.108,"country":"United States","iso2":"US","iso3":"USA","admin_name":"Florida","capital":"","population":97980},{"city":"Moortebeek","city_ascii":"Moortebeek","lat":50.8547,"lng":4.3386,"country":"Belgium","iso2":"BE","iso3":"BEL","admin_name":"Flanders","capital":"","population":97979},{"city":"Chitose","city_ascii":"Chitose","lat":42.8167,"lng":141.65,"country":"Japan","iso2":"JP","iso3":"JPN","admin_name":"Hokkaidō","capital":"","population":97945},{"city":"Bălţi","city_ascii":"Balti","lat":47.7667,"lng":27.9167,"country":"Moldova","iso2":"MD","iso3":"MDA","admin_name":"Bălţi","capital":"admin","population":97930},{"city":"Smederevo","city_ascii":"Smederevo","lat":44.6667,"lng":20.9333,"country":"Serbia","iso2":"RS","iso3":"SRB","admin_name":"Smederevo","capital":"admin","population":97930},{"city":"Rāmnagar","city_ascii":"Ramnagar","lat":29.395,"lng":79.1264,"country":"India","iso2":"IN","iso3":"IND","admin_name":"Uttarākhand","capital":"","population":97916},{"city":"Trelew","city_ascii":"Trelew","lat":-43.25,"lng":-65.3,"country":"Argentina","iso2":"AR","iso3":"ARG","admin_name":"Chubut","capital":"","population":97915},{"city":"Sarapul","city_ascii":"Sarapul","lat":56.4667,"lng":53.8,"country":"Russia","iso2":"RU","iso3":"RUS","admin_name":"Udmurtiya","capital":"minor","population":97910},{"city":"Kamloops","city_ascii":"Kamloops","lat":50.6761,"lng":-120.3408,"country":"Canada","iso2":"CA","iso3":"CAN","admin_name":"British Columbia","capital":"","population":97902},{"city":"Montego Bay","city_ascii":"Montego Bay","lat":18.4667,"lng":-77.9167,"country":"Jamaica","iso2":"JM","iso3":"JAM","admin_name":"Saint James","capital":"admin","population":97890},{"city":"Catarman","city_ascii":"Catarman","lat":12.4994,"lng":124.6328,"country":"Philippines","iso2":"PH","iso3":"PHL","admin_name":"Northern Samar","capital":"admin","population":97879},{"city":"Valença","city_ascii":"Valenca","lat":-13.37,"lng":-39.069,"country":"Brazil","iso2":"BR","iso3":"BRA","admin_name":"Bahia","capital":"minor","population":97873},{"city":"Saint-Jean-sur-Richelieu","city_ascii":"Saint-Jean-sur-Richelieu","lat":45.3167,"lng":-73.2667,"country":"Canada","iso2":"CA","iso3":"CAN","admin_name":"Quebec","capital":"","population":97873},{"city":"Marmaris","city_ascii":"Marmaris","lat":36.85,"lng":28.2667,"country":"Turkey","iso2":"TR","iso3":"TUR","admin_name":"Muğla","capital":"minor","population":97818},{"city":"Udine","city_ascii":"Udine","lat":46.0667,"lng":13.2333,"country":"Italy","iso2":"IT","iso3":"ITA","admin_name":"Friuli Venezia Giulia","capital":"minor","population":97808},{"city":"Janakpur","city_ascii":"Janakpur","lat":26.7286,"lng":85.925,"country":"Nepal","iso2":"NP","iso3":"NPL","admin_name":"Madhesh","capital":"admin","population":97776},{"city":"Serov","city_ascii":"Serov","lat":59.6,"lng":60.5667,"country":"Russia","iso2":"RU","iso3":"RUS","admin_name":"Sverdlovskaya Oblast’","capital":"","population":97762},{"city":"Nanxicun","city_ascii":"Nanxicun","lat":23.4975,"lng":116.2436,"country":"China","iso2":"CN","iso3":"CHN","admin_name":"Guangdong","capital":"","population":97747},{"city":"St. Augustine","city_ascii":"St. Augustine","lat":29.8976,"lng":-81.31,"country":"United States","iso2":"US","iso3":"USA","admin_name":"Florida","capital":"","population":97703},{"city":"Paulínia","city_ascii":"Paulinia","lat":-22.7611,"lng":-47.1542,"country":"Brazil","iso2":"BR","iso3":"BRA","admin_name":"São Paulo","capital":"","population":97702},{"city":"Kambar","city_ascii":"Kambar","lat":27.5868,"lng":68.001,"country":"Pakistan","iso2":"PK","iso3":"PAK","admin_name":"Sindh","capital":"","population":97691},{"city":"Al Jammālīyah","city_ascii":"Al Jammaliyah","lat":31.1806,"lng":31.8653,"country":"Egypt","iso2":"EG","iso3":"EGY","admin_name":"Ad Daqahlīyah","capital":"","population":97682},{"city":"Itaúna","city_ascii":"Itauna","lat":-20.075,"lng":-44.5758,"country":"Brazil","iso2":"BR","iso3":"BRA","admin_name":"Minas Gerais","capital":"","population":97669},{"city":"Ipojuca","city_ascii":"Ipojuca","lat":-8.4,"lng":-35.0639,"country":"Brazil","iso2":"BR","iso3":"BRA","admin_name":"Pernambuco","capital":"minor","population":97669},{"city":"Quilenda","city_ascii":"Quilenda","lat":-10.6333,"lng":14.3333,"country":"Angola","iso2":"AO","iso3":"AGO","admin_name":"Cuanza-Sul","capital":"","population":97648},{"city":"Gambēla","city_ascii":"Gambela","lat":8.25,"lng":34.5833,"country":"Ethiopia","iso2":"ET","iso3":"ETH","admin_name":"Gambēla Hizboch","capital":"admin","population":97643},{"city":"Kallithéa","city_ascii":"Kallithea","lat":37.95,"lng":23.7,"country":"Greece","iso2":"GR","iso3":"GRC","admin_name":"Attikí","capital":"minor","population":97616},{"city":"Deoni Buzurg","city_ascii":"Deoni Buzurg","lat":18.2639,"lng":77.0822,"country":"India","iso2":"IN","iso3":"IND","admin_name":"Mahārāshtra","capital":"","population":97598},{"city":"Radès","city_ascii":"Rades","lat":36.7667,"lng":10.2833,"country":"Tunisia","iso2":"TN","iso3":"TUN","admin_name":"Ben Arous","capital":"","population":97588},{"city":"Mariano Roque Alonso","city_ascii":"Mariano Roque Alonso","lat":-25.2122,"lng":-57.5331,"country":"Paraguay","iso2":"PY","iso3":"PRY","admin_name":"Central","capital":"","population":97585},{"city":"Hammamet","city_ascii":"Hammamet","lat":36.4,"lng":10.6167,"country":"Tunisia","iso2":"TN","iso3":"TUN","admin_name":"Nabeul","capital":"","population":97579},{"city":"Aşağıçinik","city_ascii":"Asagicinik","lat":41.2719,"lng":36.3508,"country":"Turkey","iso2":"TR","iso3":"TUR","admin_name":"Samsun","capital":"","population":97564},{"city":"Beaverton","city_ascii":"Beaverton","lat":45.4779,"lng":-122.8168,"country":"United States","iso2":"US","iso3":"USA","admin_name":"Oregon","capital":"","population":97554},{"city":"Votkinsk","city_ascii":"Votkinsk","lat":57.05,"lng":54,"country":"Russia","iso2":"RU","iso3":"RUS","admin_name":"Udmurtiya","capital":"minor","population":97550},{"city":"Goodyear","city_ascii":"Goodyear","lat":33.2614,"lng":-112.3622,"country":"United States","iso2":"US","iso3":"USA","admin_name":"Arizona","capital":"","population":97542},{"city":"San Cugat del Vallés","city_ascii":"San Cugat del Valles","lat":41.4667,"lng":2.0833,"country":"Spain","iso2":"ES","iso3":"ESP","admin_name":"Catalonia","capital":"","population":97530},{"city":"Tartu","city_ascii":"Tartu","lat":58.3833,"lng":26.7167,"country":"Estonia","iso2":"EE","iso3":"EST","admin_name":"Tartu","capital":"admin","population":97524},{"city":"Tsuyama","city_ascii":"Tsuyama","lat":35.0692,"lng":134.0044,"country":"Japan","iso2":"JP","iso3":"JPN","admin_name":"Okayama","capital":"","population":97507},{"city":"Isulan","city_ascii":"Isulan","lat":6.63,"lng":124.6,"country":"Philippines","iso2":"PH","iso3":"PHL","admin_name":"Sultan Kudarat","capital":"admin","population":97490},{"city":"Kallūru","city_ascii":"Kalluru","lat":15.8344,"lng":78.0292,"country":"India","iso2":"IN","iso3":"IND","admin_name":"Andhra Pradesh","capital":"","population":97483},{"city":"Kōnan","city_ascii":"Konan","lat":35.3321,"lng":136.8707,"country":"Japan","iso2":"JP","iso3":"JPN","admin_name":"Aichi","capital":"","population":97435},{"city":"Lajeado","city_ascii":"Lajeado","lat":-29.4669,"lng":-51.9608,"country":"Brazil","iso2":"BR","iso3":"BRA","admin_name":"Rio Grande do Sul","capital":"","population":97432},{"city":"Adjarra","city_ascii":"Adjarra","lat":6.5333,"lng":2.6667,"country":"Benin","iso2":"BJ","iso3":"BEN","admin_name":"Ouémé","capital":"","population":97424},{"city":"Dongducheon","city_ascii":"Dongducheon","lat":37.9167,"lng":127.0667,"country":"Korea, South","iso2":"KR","iso3":"KOR","admin_name":"Gyeonggi","capital":"","population":97424},{"city":"Portsmouth","city_ascii":"Portsmouth","lat":36.8468,"lng":-76.354,"country":"United States","iso2":"US","iso3":"USA","admin_name":"Virginia","capital":"","population":97384},{"city":"Attock Khurd","city_ascii":"Attock Khurd","lat":33.7667,"lng":72.3667,"country":"Pakistan","iso2":"PK","iso3":"PAK","admin_name":"Punjab","capital":"","population":97374},{"city":"Nanterre","city_ascii":"Nanterre","lat":48.8988,"lng":2.1969,"country":"France","iso2":"FR","iso3":"FRA","admin_name":"Île-de-France","capital":"minor","population":97351},{"city":"Fanyang","city_ascii":"Fanyang","lat":31.0847,"lng":118.1942,"country":"China","iso2":"CN","iso3":"CHN","admin_name":"Anhui","capital":"","population":97300},{"city":"Yacuiba","city_ascii":"Yacuiba","lat":-22.0153,"lng":-63.6772,"country":"Bolivia","iso2":"BO","iso3":"BOL","admin_name":"Tarija","capital":"","population":97296},{"city":"Vị Thanh","city_ascii":"Vi Thanh","lat":9.7833,"lng":105.4708,"country":"Vietnam","iso2":"VN","iso3":"VNM","admin_name":"Hậu Giang","capital":"admin","population":97200},{"city":"Pernik","city_ascii":"Pernik","lat":42.6,"lng":23.0333,"country":"Bulgaria","iso2":"BG","iso3":"BGR","admin_name":"Pernik","capital":"admin","population":97181},{"city":"Andria","city_ascii":"Andria","lat":41.2167,"lng":16.3,"country":"Italy","iso2":"IT","iso3":"ITA","admin_name":"Puglia","capital":"minor","population":97146},{"city":"Pará de Minas","city_ascii":"Para de Minas","lat":-19.86,"lng":-44.6078,"country":"Brazil","iso2":"BR","iso3":"BRA","admin_name":"Minas Gerais","capital":"","population":97139},{"city":"Orem","city_ascii":"Orem","lat":40.2981,"lng":-111.6994,"country":"United States","iso2":"US","iso3":"USA","admin_name":"Utah","capital":"","population":97100},{"city":"Worcester","city_ascii":"Worcester","lat":-33.645,"lng":19.4436,"country":"South Africa","iso2":"ZA","iso3":"ZAF","admin_name":"Western Cape","capital":"","population":97098},{"city":"Modi‘in Makkabbim Re‘ut","city_ascii":"Modi`in Makkabbim Re`ut","lat":31.9077,"lng":35.0076,"country":"Israel","iso2":"IL","iso3":"ISR","admin_name":"Central","capital":"","population":97097},{"city":"Ukhta","city_ascii":"Ukhta","lat":63.5667,"lng":53.7,"country":"Russia","iso2":"RU","iso3":"RUS","admin_name":"Komi","capital":"","population":97087},{"city":"Munakata","city_ascii":"Munakata","lat":33.8,"lng":130.5333,"country":"Japan","iso2":"JP","iso3":"JPN","admin_name":"Fukuoka","capital":"","population":97041},{"city":"Maribor","city_ascii":"Maribor","lat":46.5575,"lng":15.6456,"country":"Slovenia","iso2":"SI","iso3":"SVN","admin_name":"Maribor","capital":"admin","population":97019},{"city":"Harnai","city_ascii":"Harnai","lat":30.1,"lng":67.9378,"country":"Pakistan","iso2":"PK","iso3":"PAK","admin_name":"Balochistan","capital":"","population":97017},{"city":"Didim","city_ascii":"Didim","lat":37.3756,"lng":27.2678,"country":"Turkey","iso2":"TR","iso3":"TUR","admin_name":"Aydın","capital":"minor","population":97000},{"city":"Colón","city_ascii":"Colon","lat":13.7167,"lng":-89.3667,"country":"El Salvador","iso2":"SV","iso3":"SLV","admin_name":"La Libertad","capital":"","population":96989},{"city":"Gävle","city_ascii":"Gavle","lat":60.6747,"lng":17.1417,"country":"Sweden","iso2":"SE","iso3":"SWE","admin_name":"Gävleborg","capital":"admin","population":96969},{"city":"Tumbes","city_ascii":"Tumbes","lat":-3.5708,"lng":-80.4597,"country":"Peru","iso2":"PE","iso3":"PER","admin_name":"Tumbes","capital":"admin","population":96946},{"city":"Es Senia","city_ascii":"Es Senia","lat":35.65,"lng":-0.6333,"country":"Algeria","iso2":"DZ","iso3":"DZA","admin_name":"Oran","capital":"","population":96928},{"city":"Bodināyakkanūr","city_ascii":"Bodinayakkanur","lat":10.0101,"lng":77.3511,"country":"India","iso2":"IN","iso3":"IND","admin_name":"Tamil Nādu","capital":"","population":96901},{"city":"Quvasoy","city_ascii":"Quvasoy","lat":40.3,"lng":71.9667,"country":"Uzbekistan","iso2":"UZ","iso3":"UZB","admin_name":"Farg‘ona","capital":"minor","population":96900},{"city":"Paletwa","city_ascii":"Paletwa","lat":21.3,"lng":92.85,"country":"Burma","iso2":"MM","iso3":"MMR","admin_name":"Chin State","capital":"","population":96899},{"city":"Caotun","city_ascii":"Caotun","lat":23.983,"lng":120.7326,"country":"Taiwan","iso2":"TW","iso3":"TWN","admin_name":"Nantou","capital":"","population":96838},{"city":"Tamazunchale","city_ascii":"Tamazunchale","lat":21.2667,"lng":-98.7833,"country":"Mexico","iso2":"MX","iso3":"MEX","admin_name":"San Luis Potosí","capital":"minor","population":96820},{"city":"Arauca","city_ascii":"Arauca","lat":7.0903,"lng":-70.7617,"country":"Colombia","iso2":"CO","iso3":"COL","admin_name":"Arauca","capital":"admin","population":96814},{"city":"Tela","city_ascii":"Tela","lat":15.7833,"lng":-87.4667,"country":"Honduras","iso2":"HN","iso3":"HND","admin_name":"Atlántida","capital":"","population":96758},{"city":"Paraíso","city_ascii":"Paraiso","lat":18.3961,"lng":-93.2128,"country":"Mexico","iso2":"MX","iso3":"MEX","admin_name":"Tabasco","capital":"minor","population":96741},{"city":"Do Gonbadān","city_ascii":"Do Gonbadan","lat":30.36,"lng":50.7839,"country":"Iran","iso2":"IR","iso3":"IRN","admin_name":"Kohgīlūyeh va Bowyer Aḩmad","capital":"minor","population":96728},{"city":"Sumber","city_ascii":"Sumber","lat":-6.7544,"lng":108.4858,"country":"Indonesia","iso2":"ID","iso3":"IDN","admin_name":"Jawa Barat","capital":"minor","population":96725},{"city":"Kāzerūn","city_ascii":"Kazerun","lat":29.6156,"lng":51.6567,"country":"Iran","iso2":"IR","iso3":"IRN","admin_name":"Fārs","capital":"minor","population":96683},{"city":"Francisco Beltrão","city_ascii":"Francisco Beltrao","lat":-26.0833,"lng":-53.05,"country":"Brazil","iso2":"BR","iso3":"BRA","admin_name":"Paraná","capital":"","population":96666},{"city":"Sangolquí","city_ascii":"Sangolqui","lat":-0.3344,"lng":-78.4475,"country":"Ecuador","iso2":"EC","iso3":"ECU","admin_name":"Pichincha","capital":"","population":96647},{"city":"Iida","city_ascii":"Iida","lat":35.515,"lng":137.8214,"country":"Japan","iso2":"JP","iso3":"JPN","admin_name":"Nagano","capital":"","population":96642},{"city":"Votuporanga","city_ascii":"Votuporanga","lat":-20.4172,"lng":-49.9728,"country":"Brazil","iso2":"BR","iso3":"BRA","admin_name":"São Paulo","capital":"","population":96634},{"city":"Tiddim","city_ascii":"Tiddim","lat":23.3758,"lng":93.6539,"country":"Burma","iso2":"MM","iso3":"MMR","admin_name":"Chin State","capital":"","population":96624},{"city":"Buin","city_ascii":"Buin","lat":-33.7333,"lng":-70.7333,"country":"Chile","iso2":"CL","iso3":"CHL","admin_name":"Región Metropolitana","capital":"","population":96614},{"city":"Bab Ezzouar","city_ascii":"Bab Ezzouar","lat":36.7217,"lng":3.1853,"country":"Algeria","iso2":"DZ","iso3":"DZA","admin_name":"Alger","capital":"","population":96597},{"city":"Oldham","city_ascii":"Oldham","lat":53.5444,"lng":-2.1169,"country":"United Kingdom","iso2":"GB","iso3":"GBR","admin_name":"Oldham","capital":"","population":96555},{"city":"Zhudong","city_ascii":"Zhudong","lat":24.7366,"lng":121.0916,"country":"Taiwan","iso2":"TW","iso3":"TWN","admin_name":"Hsinchu","capital":"","population":96518},{"city":"Sunrise","city_ascii":"Sunrise","lat":26.1547,"lng":-80.2997,"country":"United States","iso2":"US","iso3":"USA","admin_name":"Florida","capital":"","population":96510},{"city":"Ōmura","city_ascii":"Omura","lat":32.9,"lng":129.9583,"country":"Japan","iso2":"JP","iso3":"JPN","admin_name":"Nagasaki","capital":"","population":96508},{"city":"Half Way Tree","city_ascii":"Half Way Tree","lat":18.0106,"lng":-76.7847,"country":"Jamaica","iso2":"JM","iso3":"JAM","admin_name":"Saint Andrew","capital":"admin","population":96494},{"city":"Pejë","city_ascii":"Peje","lat":42.6603,"lng":20.2917,"country":"Kosovo","iso2":"XK","iso3":"XKS","admin_name":"Pejë","capital":"admin","population":96450},{"city":"Wujiaqu","city_ascii":"Wujiaqu","lat":44.167,"lng":87.543,"country":"China","iso2":"CN","iso3":"CHN","admin_name":"Xinjiang","capital":"","population":96436},{"city":"Harihar","city_ascii":"Harihar","lat":14.5129,"lng":75.8072,"country":"India","iso2":"IN","iso3":"IND","admin_name":"Karnātaka","capital":"","population":96422},{"city":"České Budějovice","city_ascii":"Ceske Budejovice","lat":48.9747,"lng":14.4747,"country":"Czechia","iso2":"CZ","iso3":"CZE","admin_name":"Jihočeský Kraj","capital":"admin","population":96417},{"city":"Tomohon","city_ascii":"Tomohon","lat":1.325,"lng":124.8389,"country":"Indonesia","iso2":"ID","iso3":"IDN","admin_name":"Sulawesi Utara","capital":"minor","population":96411},{"city":"Parintins","city_ascii":"Parintins","lat":-2.6278,"lng":-56.7358,"country":"Brazil","iso2":"BR","iso3":"BRA","admin_name":"Amazonas","capital":"minor","population":96372},{"city":"Navapolatsk","city_ascii":"Navapolatsk","lat":55.5333,"lng":28.65,"country":"Belarus","iso2":"BY","iso3":"BLR","admin_name":"Vitsyebskaya Voblasts’","capital":"","population":96320},{"city":"Osijek","city_ascii":"Osijek","lat":45.5556,"lng":18.6944,"country":"Croatia","iso2":"HR","iso3":"HRV","admin_name":"Osječko-Baranjska Županija","capital":"admin","population":96313},{"city":"Greece","city_ascii":"Greece","lat":43.246,"lng":-77.6988,"country":"United States","iso2":"US","iso3":"USA","admin_name":"New York","capital":"","population":96284},{"city":"Corumbá","city_ascii":"Corumba","lat":-19.0089,"lng":-57.6528,"country":"Brazil","iso2":"BR","iso3":"BRA","admin_name":"Mato Grosso do Sul","capital":"minor","population":96268},{"city":"Arezzo","city_ascii":"Arezzo","lat":43.4633,"lng":11.8783,"country":"Italy","iso2":"IT","iso3":"ITA","admin_name":"Tuscany","capital":"minor","population":96260},{"city":"Cáceres","city_ascii":"Caceres","lat":39.4833,"lng":-6.3667,"country":"Spain","iso2":"ES","iso3":"ESP","admin_name":"Extremadura","capital":"minor","population":96215},{"city":"Vitry-sur-Seine","city_ascii":"Vitry-sur-Seine","lat":48.7875,"lng":2.3928,"country":"France","iso2":"FR","iso3":"FRA","admin_name":"Île-de-France","capital":"","population":96205},{"city":"Doudian","city_ascii":"Doudian","lat":39.6503,"lng":116.0617,"country":"China","iso2":"CN","iso3":"CHN","admin_name":"Beijing","capital":"","population":96184},{"city":"Lysychansk","city_ascii":"Lysychansk","lat":48.9167,"lng":38.4,"country":"Ukraine","iso2":"UA","iso3":"UKR","admin_name":"Luhanska Oblast","capital":"","population":96161},{"city":"Escalante","city_ascii":"Escalante","lat":10.83,"lng":123.5,"country":"Philippines","iso2":"PH","iso3":"PHL","admin_name":"Negros Occidental","capital":"","population":96159},{"city":"Portsmouth","city_ascii":"Portsmouth","lat":43.058,"lng":-70.7826,"country":"United States","iso2":"US","iso3":"USA","admin_name":"New Hampshire","capital":"","population":96146},{"city":"Itabaiana","city_ascii":"Itabaiana","lat":-10.685,"lng":-37.425,"country":"Brazil","iso2":"BR","iso3":"BRA","admin_name":"Sergipe","capital":"minor","population":96142},{"city":"Leninsk-Kuznetskiy","city_ascii":"Leninsk-Kuznetskiy","lat":54.6575,"lng":86.1617,"country":"Russia","iso2":"RU","iso3":"RUS","admin_name":"Kemerovskaya Oblast’","capital":"","population":96139},{"city":"Chārīkār","city_ascii":"Charikar","lat":35.0131,"lng":69.1689,"country":"Afghanistan","iso2":"AF","iso3":"AFG","admin_name":"Parwān","capital":"admin","population":96093},{"city":"Arden-Arcade","city_ascii":"Arden-Arcade","lat":38.6017,"lng":-121.3845,"country":"United States","iso2":"US","iso3":"USA","admin_name":"California","capital":"","population":96076},{"city":"Harran","city_ascii":"Harran","lat":36.8708,"lng":39.025,"country":"Turkey","iso2":"TR","iso3":"TUR","admin_name":"Şanlıurfa","capital":"minor","population":96072},{"city":"Lawrence","city_ascii":"Lawrence","lat":38.9597,"lng":-95.2642,"country":"United States","iso2":"US","iso3":"USA","admin_name":"Kansas","capital":"","population":96061},{"city":"Muzaffarabad","city_ascii":"Muzaffarabad","lat":34.3583,"lng":73.4722,"country":"Pakistan","iso2":"PK","iso3":"PAK","admin_name":"Azad Kashmir","capital":"","population":96000},{"city":"Bachhraon","city_ascii":"Bachhraon","lat":28.93,"lng":78.22,"country":"India","iso2":"IN","iso3":"IND","admin_name":"Uttar Pradesh","capital":"","population":95999},{"city":"Toms River","city_ascii":"Toms River","lat":39.9895,"lng":-74.1654,"country":"United States","iso2":"US","iso3":"USA","admin_name":"New Jersey","capital":"","population":95997},{"city":"Hammersmith","city_ascii":"Hammersmith","lat":51.4928,"lng":-0.2229,"country":"United Kingdom","iso2":"GB","iso3":"GBR","admin_name":"Hammersmith and Fulham","capital":"","population":95996},{"city":"Amalner","city_ascii":"Amalner","lat":21.05,"lng":75.05,"country":"India","iso2":"IN","iso3":"IND","admin_name":"Mahārāshtra","capital":"","population":95994},{"city":"Balayan","city_ascii":"Balayan","lat":13.93,"lng":120.73,"country":"Philippines","iso2":"PH","iso3":"PHL","admin_name":"Batangas","capital":"","population":95913},{"city":"Sardārshahr","city_ascii":"Sardarshahr","lat":28.4401,"lng":74.4908,"country":"India","iso2":"IN","iso3":"IND","admin_name":"Rājasthān","capital":"","population":95911},{"city":"Kalisz","city_ascii":"Kalisz","lat":51.7575,"lng":18.08,"country":"Poland","iso2":"PL","iso3":"POL","admin_name":"Wielkopolskie","capital":"minor","population":95905},{"city":"Witten","city_ascii":"Witten","lat":51.4333,"lng":7.3333,"country":"Germany","iso2":"DE","iso3":"DEU","admin_name":"North Rhine-Westphalia","capital":"","population":95897},{"city":"Longkeng","city_ascii":"Longkeng","lat":24.0376,"lng":112.0427,"country":"China","iso2":"CN","iso3":"CHN","admin_name":"Guangdong","capital":"","population":95881},{"city":"Longquan","city_ascii":"Longquan","lat":40.3703,"lng":113.7483,"country":"China","iso2":"CN","iso3":"CHN","admin_name":"Shanxi","capital":"minor","population":95849},{"city":"Vanderbijlpark","city_ascii":"Vanderbijlpark","lat":-26.6992,"lng":27.8356,"country":"South Africa","iso2":"ZA","iso3":"ZAF","admin_name":"Gauteng","capital":"","population":95840},{"city":"Vilhena","city_ascii":"Vilhena","lat":-12.7406,"lng":-60.1458,"country":"Brazil","iso2":"BR","iso3":"BRA","admin_name":"Rondônia","capital":"minor","population":95832},{"city":"Río Gallegos","city_ascii":"Rio Gallegos","lat":-51.6233,"lng":-69.2161,"country":"Argentina","iso2":"AR","iso3":"ARG","admin_name":"Santa Cruz","capital":"admin","population":95796},{"city":"Weiyuan","city_ascii":"Weiyuan","lat":23.4842,"lng":100.7118,"country":"China","iso2":"CN","iso3":"CHN","admin_name":"Yunnan","capital":"minor","population":95795},{"city":"Caseros","city_ascii":"Caseros","lat":-34.6106,"lng":-58.5625,"country":"Argentina","iso2":"AR","iso3":"ARG","admin_name":"Buenos Aires","capital":"minor","population":95785},{"city":"Cesena","city_ascii":"Cesena","lat":44.1389,"lng":12.2444,"country":"Italy","iso2":"IT","iso3":"ITA","admin_name":"Emilia-Romagna","capital":"","population":95778},{"city":"Tataouine","city_ascii":"Tataouine","lat":32.9306,"lng":10.45,"country":"Tunisia","iso2":"TN","iso3":"TUN","admin_name":"Tataouine","capital":"admin","population":95775},{"city":"Dhuliān","city_ascii":"Dhulian","lat":24.681,"lng":87.954,"country":"India","iso2":"IN","iso3":"IND","admin_name":"West Bengal","capital":"","population":95706},{"city":"Hadera","city_ascii":"Hadera","lat":32.45,"lng":34.9167,"country":"Israel","iso2":"IL","iso3":"ISR","admin_name":"Haifa","capital":"","population":95700},{"city":"Arifwala","city_ascii":"Arifwala","lat":30.2981,"lng":73.0561,"country":"Pakistan","iso2":"PK","iso3":"PAK","admin_name":"Punjab","capital":"","population":95655},{"city":"Sandy","city_ascii":"Sandy","lat":40.5709,"lng":-111.8506,"country":"United States","iso2":"US","iso3":"USA","admin_name":"Utah","capital":"","population":95635},{"city":"São Cristóvão","city_ascii":"Sao Cristovao","lat":-11.015,"lng":-37.2058,"country":"Brazil","iso2":"BR","iso3":"BRA","admin_name":"Sergipe","capital":"","population":95612},{"city":"Rayleigh","city_ascii":"Rayleigh","lat":51.5864,"lng":0.6049,"country":"United Kingdom","iso2":"GB","iso3":"GBR","admin_name":"Essex","capital":"","population":95580},{"city":"Paramagudi","city_ascii":"Paramagudi","lat":9.5494,"lng":78.5891,"country":"India","iso2":"IN","iso3":"IND","admin_name":"Tamil Nādu","capital":"","population":95579},{"city":"Zerakpur","city_ascii":"Zerakpur","lat":30.65,"lng":76.82,"country":"India","iso2":"IN","iso3":"IND","admin_name":"Punjab","capital":"","population":95553},{"city":"Slidell","city_ascii":"Slidell","lat":30.2887,"lng":-89.7828,"country":"United States","iso2":"US","iso3":"USA","admin_name":"Louisiana","capital":"","population":95528},{"city":"Tandwa","city_ascii":"Tandwa","lat":26.55,"lng":82.65,"country":"India","iso2":"IN","iso3":"IND","admin_name":"Uttar Pradesh","capital":"","population":95516},{"city":"Shirē","city_ascii":"Shire","lat":14.1,"lng":38.2833,"country":"Ethiopia","iso2":"ET","iso3":"ETH","admin_name":"Tigray","capital":"","population":95491},{"city":"Kamisu","city_ascii":"Kamisu","lat":35.8899,"lng":140.6645,"country":"Japan","iso2":"JP","iso3":"JPN","admin_name":"Ibaraki","capital":"","population":95471},{"city":"Çubuk","city_ascii":"Cubuk","lat":40.2386,"lng":33.0331,"country":"Turkey","iso2":"TR","iso3":"TUR","admin_name":"Ankara","capital":"minor","population":95449},{"city":"Burdur","city_ascii":"Burdur","lat":37.7194,"lng":30.2833,"country":"Turkey","iso2":"TR","iso3":"TUR","admin_name":"Burdur","capital":"admin","population":95436},{"city":"Candelaria","city_ascii":"Candelaria","lat":3.4,"lng":-76.3833,"country":"Colombia","iso2":"CO","iso3":"COL","admin_name":"Valle del Cauca","capital":"minor","population":95413},{"city":"Mezhdurechensk","city_ascii":"Mezhdurechensk","lat":53.6864,"lng":88.0703,"country":"Russia","iso2":"RU","iso3":"RUS","admin_name":"Kemerovskaya Oblast’","capital":"","population":95408},{"city":"Aliağa","city_ascii":"Aliaga","lat":38.8008,"lng":26.9728,"country":"Turkey","iso2":"TR","iso3":"TUR","admin_name":"İzmir","capital":"minor","population":95392},{"city":"Pesaro","city_ascii":"Pesaro","lat":43.9167,"lng":12.9,"country":"Italy","iso2":"IT","iso3":"ITA","admin_name":"Marche","capital":"minor","population":95376},{"city":"Erbaa","city_ascii":"Erbaa","lat":40.6744,"lng":36.5681,"country":"Turkey","iso2":"TR","iso3":"TUR","admin_name":"Tokat","capital":"minor","population":95361},{"city":"Tiruchengodu","city_ascii":"Tiruchengodu","lat":11.379,"lng":77.8949,"country":"India","iso2":"IN","iso3":"IND","admin_name":"Tamil Nādu","capital":"","population":95335},{"city":"Hương Thủy","city_ascii":"Huong Thuy","lat":16.4,"lng":107.6889,"country":"Vietnam","iso2":"VN","iso3":"VNM","admin_name":"Thừa Thiên-Huế","capital":"","population":95299},{"city":"Mons","city_ascii":"Mons","lat":50.455,"lng":3.952,"country":"Belgium","iso2":"BE","iso3":"BEL","admin_name":"Wallonia","capital":"minor","population":95299},{"city":"Pedagādi","city_ascii":"Pedagadi","lat":17.6615,"lng":83.2104,"country":"India","iso2":"IN","iso3":"IND","admin_name":"Andhra Pradesh","capital":"","population":95291},{"city":"Oued Zem","city_ascii":"Oued Zem","lat":32.8667,"lng":-6.5667,"country":"Morocco","iso2":"MA","iso3":"MAR","admin_name":"Béni Mellal-Khénifra","capital":"","population":95267},{"city":"Boli","city_ascii":"Boli","lat":45.7564,"lng":130.5759,"country":"China","iso2":"CN","iso3":"CHN","admin_name":"Heilongjiang","capital":"minor","population":95260},{"city":"Nagīna","city_ascii":"Nagina","lat":29.443,"lng":78.433,"country":"India","iso2":"IN","iso3":"IND","admin_name":"Uttar Pradesh","capital":"","population":95246},{"city":"Bogo","city_ascii":"Bogo","lat":10.734,"lng":14.608,"country":"Cameroon","iso2":"CM","iso3":"CMR","admin_name":"Extrême-Nord","capital":"","population":95230},{"city":"Saint-Michel de l’Atalaye","city_ascii":"Saint-Michel de l'Atalaye","lat":19.3667,"lng":-72.3333,"country":"Haiti","iso2":"HT","iso3":"HTI","admin_name":"Artibonite","capital":"","population":95216},{"city":"Chākdaha","city_ascii":"Chakdaha","lat":23.08,"lng":88.52,"country":"India","iso2":"IN","iso3":"IND","admin_name":"West Bengal","capital":"","population":95203},{"city":"Shimada","city_ascii":"Shimada","lat":34.8363,"lng":138.1927,"country":"Japan","iso2":"JP","iso3":"JPN","admin_name":"Shizuoka","capital":"","population":95198},{"city":"Closepet","city_ascii":"Closepet","lat":12.723,"lng":77.286,"country":"India","iso2":"IN","iso3":"IND","admin_name":"Karnātaka","capital":"","population":95167},{"city":"Jiantang","city_ascii":"Jiantang","lat":27.8333,"lng":99.7,"country":"China","iso2":"CN","iso3":"CHN","admin_name":"Yunnan","capital":"minor","population":95163},{"city":"Dovzhansk","city_ascii":"Dovzhansk","lat":48.0778,"lng":39.6472,"country":"Ukraine","iso2":"UA","iso3":"UKR","admin_name":"Luhanska Oblast","capital":"minor","population":95153},{"city":"Birecik","city_ascii":"Birecik","lat":37.025,"lng":37.9769,"country":"Turkey","iso2":"TR","iso3":"TUR","admin_name":"Şanlıurfa","capital":"minor","population":95149},{"city":"Emmiganūr","city_ascii":"Emmiganur","lat":15.7333,"lng":77.4833,"country":"India","iso2":"IN","iso3":"IND","admin_name":"Andhra Pradesh","capital":"","population":95149},{"city":"Yalamakūru","city_ascii":"Yalamakuru","lat":15.5103,"lng":77.5249,"country":"India","iso2":"IN","iso3":"IND","admin_name":"Andhra Pradesh","capital":"","population":95149},{"city":"Balamban","city_ascii":"Balamban","lat":10.47,"lng":123.78,"country":"Philippines","iso2":"PH","iso3":"PHL","admin_name":"Cebu","capital":"","population":95136},{"city":"Siguatepeque","city_ascii":"Siguatepeque","lat":14.6,"lng":-87.8333,"country":"Honduras","iso2":"HN","iso3":"HND","admin_name":"Comayagua","capital":"","population":95121},{"city":"Labuan","city_ascii":"Labuan","lat":5.3,"lng":115.22,"country":"Malaysia","iso2":"MY","iso3":"MYS","admin_name":"Labuan","capital":"admin","population":95120},{"city":"Naxçıvan","city_ascii":"Naxcivan","lat":39.2161,"lng":45.4106,"country":"Azerbaijan","iso2":"AZ","iso3":"AZE","admin_name":"Naxçıvan","capital":"admin","population":95100},{"city":"Rawānduz","city_ascii":"Rawanduz","lat":36.6119,"lng":44.5247,"country":"Iraq","iso2":"IQ","iso3":"IRQ","admin_name":"Arbīl","capital":"minor","population":95089},{"city":"Yumbo","city_ascii":"Yumbo","lat":3.585,"lng":-76.4958,"country":"Colombia","iso2":"CO","iso3":"COL","admin_name":"Valle del Cauca","capital":"minor","population":95072},{"city":"Vāniyambādi","city_ascii":"Vaniyambadi","lat":12.6825,"lng":78.6167,"country":"India","iso2":"IN","iso3":"IND","admin_name":"Tamil Nādu","capital":"","population":95061},{"city":"Al Jīzah","city_ascii":"Al Jizah","lat":31.6833,"lng":35.95,"country":"Jordan","iso2":"JO","iso3":"JOR","admin_name":"Al ‘Āşimah","capital":"minor","population":95045},{"city":"Buckeye","city_ascii":"Buckeye","lat":33.4314,"lng":-112.6429,"country":"United States","iso2":"US","iso3":"USA","admin_name":"Arizona","capital":"","population":95042},{"city":"Rubio","city_ascii":"Rubio","lat":7.7,"lng":-72.35,"country":"Venezuela","iso2":"VE","iso3":"VEN","admin_name":"Táchira","capital":"minor","population":95041},{"city":"Tiruttani","city_ascii":"Tiruttani","lat":13.18,"lng":79.63,"country":"India","iso2":"IN","iso3":"IND","admin_name":"Tamil Nādu","capital":"","population":95014},{"city":"Mianwali","city_ascii":"Mianwali","lat":32.5853,"lng":71.5436,"country":"Pakistan","iso2":"PK","iso3":"PAK","admin_name":"Punjab","capital":"minor","population":95007},{"city":"Dongping","city_ascii":"Dongping","lat":28.3817,"lng":111.2194,"country":"China","iso2":"CN","iso3":"CHN","admin_name":"Hunan","capital":"minor","population":95000},{"city":"Meizichong","city_ascii":"Meizichong","lat":28.1419,"lng":111.6444,"country":"China","iso2":"CN","iso3":"CHN","admin_name":"Hunan","capital":"","population":95000},{"city":"Nāḩiyat al Karmah","city_ascii":"Nahiyat al Karmah","lat":33.4042,"lng":43.9133,"country":"Iraq","iso2":"IQ","iso3":"IRQ","admin_name":"Al Anbār","capital":"","population":95000},{"city":"Moca","city_ascii":"Moca","lat":19.3833,"lng":-70.5167,"country":"Dominican Republic","iso2":"DO","iso3":"DOM","admin_name":"Cibao Norte","capital":"minor","population":94981},{"city":"Rincón de Romos","city_ascii":"Rincon de Romos","lat":22.2333,"lng":-102.3167,"country":"Mexico","iso2":"MX","iso3":"MEX","admin_name":"Aguascalientes","capital":"minor","population":94978},{"city":"Ocotlán","city_ascii":"Ocotlan","lat":20.3467,"lng":-102.7744,"country":"Mexico","iso2":"MX","iso3":"MEX","admin_name":"Jalisco","capital":"minor","population":94978},{"city":"Sibolga","city_ascii":"Sibolga","lat":1.74,"lng":98.78,"country":"Indonesia","iso2":"ID","iso3":"IDN","admin_name":"Sumatera Utara","capital":"","population":94971},{"city":"Esslingen","city_ascii":"Esslingen","lat":48.7333,"lng":9.3167,"country":"Germany","iso2":"DE","iso3":"DEU","admin_name":"Baden-Württemberg","capital":"minor","population":94941},{"city":"Cereté","city_ascii":"Cerete","lat":8.8833,"lng":-75.8,"country":"Colombia","iso2":"CO","iso3":"COL","admin_name":"Córdoba","capital":"minor","population":94935},{"city":"Hemel Hempstead","city_ascii":"Hemel Hempstead","lat":51.7526,"lng":-0.4692,"country":"United Kingdom","iso2":"GB","iso3":"GBR","admin_name":"Hertfordshire","capital":"","population":94932},{"city":"Livonia","city_ascii":"Livonia","lat":42.3972,"lng":-83.3733,"country":"United States","iso2":"US","iso3":"USA","admin_name":"Michigan","capital":"","population":94928},{"city":"San Ramón","city_ascii":"San Ramon","lat":-33.5333,"lng":-70.6417,"country":"Chile","iso2":"CL","iso3":"CHL","admin_name":"Región Metropolitana","capital":"","population":94906},{"city":"San Martín Jilotepeque","city_ascii":"San Martin Jilotepeque","lat":14.7833,"lng":-90.8,"country":"Guatemala","iso2":"GT","iso3":"GTM","admin_name":"Chimaltenango","capital":"minor","population":94901},{"city":"Williamsburg","city_ascii":"Williamsburg","lat":37.2693,"lng":-76.7076,"country":"United States","iso2":"US","iso3":"USA","admin_name":"Virginia","capital":"","population":94892},{"city":"Bouna","city_ascii":"Bouna","lat":9.2667,"lng":-3,"country":"Côte d’Ivoire","iso2":"CI","iso3":"CIV","admin_name":"Zanzan","capital":"minor","population":94883},{"city":"Legnica","city_ascii":"Legnica","lat":51.2083,"lng":16.1603,"country":"Poland","iso2":"PL","iso3":"POL","admin_name":"Dolnośląskie","capital":"minor","population":94878},{"city":"Kangan","city_ascii":"Kangan","lat":34.263,"lng":74.903,"country":"India","iso2":"IN","iso3":"IND","admin_name":"Jammu and Kashmīr","capital":"","population":94874},{"city":"Suffolk","city_ascii":"Suffolk","lat":36.6953,"lng":-76.6398,"country":"United States","iso2":"US","iso3":"USA","admin_name":"Virginia","capital":"","population":94856},{"city":"Los Patios","city_ascii":"Los Patios","lat":7.8333,"lng":-72.5167,"country":"Colombia","iso2":"CO","iso3":"COL","admin_name":"Norte de Santander","capital":"minor","population":94847},{"city":"Compton","city_ascii":"Compton","lat":33.893,"lng":-118.2274,"country":"United States","iso2":"US","iso3":"USA","admin_name":"California","capital":"","population":94822},{"city":"Lecce","city_ascii":"Lecce","lat":40.35,"lng":18.1667,"country":"Italy","iso2":"IT","iso3":"ITA","admin_name":"Puglia","capital":"minor","population":94783},{"city":"Bath","city_ascii":"Bath","lat":51.38,"lng":-2.36,"country":"United Kingdom","iso2":"GB","iso3":"GBR","admin_name":"Bath and North East Somerset","capital":"","population":94782},{"city":"Behshahr","city_ascii":"Behshahr","lat":36.6911,"lng":53.5539,"country":"Iran","iso2":"IR","iso3":"IRN","admin_name":"Māzandarān","capital":"minor","population":94702},{"city":"Lopez","city_ascii":"Lopez","lat":13.884,"lng":122.2604,"country":"Philippines","iso2":"PH","iso3":"PHL","admin_name":"Quezon","capital":"","population":94657},{"city":"Lingwala","city_ascii":"Lingwala","lat":-4.3203,"lng":15.2983,"country":"Congo (Kinshasa)","iso2":"CD","iso3":"COD","admin_name":"Kinshasa","capital":"","population":94635},{"city":"La Crosse","city_ascii":"La Crosse","lat":43.8241,"lng":-91.2268,"country":"United States","iso2":"US","iso3":"USA","admin_name":"Wisconsin","capital":"","population":94627},{"city":"Bhadohi","city_ascii":"Bhadohi","lat":25.42,"lng":82.57,"country":"India","iso2":"IN","iso3":"IND","admin_name":"Uttar Pradesh","capital":"","population":94620},{"city":"Kanuma","city_ascii":"Kanuma","lat":36.5671,"lng":139.7451,"country":"Japan","iso2":"JP","iso3":"JPN","admin_name":"Tochigi","capital":"","population":94591},{"city":"Gjakovë","city_ascii":"Gjakove","lat":42.3833,"lng":20.4333,"country":"Kosovo","iso2":"XK","iso3":"XKS","admin_name":"Gjakovë","capital":"admin","population":94556},{"city":"Edmond","city_ascii":"Edmond","lat":35.6689,"lng":-97.416,"country":"United States","iso2":"US","iso3":"USA","admin_name":"Oklahoma","capital":"","population":94503},{"city":"San Joaquín","city_ascii":"San Joaquin","lat":-33.4792,"lng":-70.6413,"country":"Chile","iso2":"CL","iso3":"CHL","admin_name":"Región Metropolitana","capital":"","population":94492},{"city":"Gerona","city_ascii":"Gerona","lat":15.6069,"lng":120.5986,"country":"Philippines","iso2":"PH","iso3":"PHL","admin_name":"Tarlac","capital":"","population":94485},{"city":"Carson","city_ascii":"Carson","lat":33.8374,"lng":-118.2559,"country":"United States","iso2":"US","iso3":"USA","admin_name":"California","capital":"","population":94475},{"city":"Allinagaram","city_ascii":"Allinagaram","lat":10.0119,"lng":77.4786,"country":"India","iso2":"IN","iso3":"IND","admin_name":"Tamil Nādu","capital":"","population":94453},{"city":"Gatchina","city_ascii":"Gatchina","lat":59.5833,"lng":30.1333,"country":"Russia","iso2":"RU","iso3":"RUS","admin_name":"Leningradskaya Oblast’","capital":"admin","population":94447},{"city":"Bayan Hot","city_ascii":"Bayan Hot","lat":38.8556,"lng":105.7001,"country":"China","iso2":"CN","iso3":"CHN","admin_name":"Inner Mongolia","capital":"minor","population":94445},{"city":"Niagara Falls","city_ascii":"Niagara Falls","lat":43.06,"lng":-79.1067,"country":"Canada","iso2":"CA","iso3":"CAN","admin_name":"Ontario","capital":"","population":94415},{"city":"Villa Luzuriaga","city_ascii":"Villa Luzuriaga","lat":-34.6595,"lng":-58.5833,"country":"Argentina","iso2":"AR","iso3":"ARG","admin_name":"Buenos Aires","capital":"","population":94403},{"city":"Marmagao","city_ascii":"Marmagao","lat":15.4,"lng":73.8,"country":"India","iso2":"IN","iso3":"IND","admin_name":"Goa","capital":"","population":94393},{"city":"San Marcos","city_ascii":"San Marcos","lat":33.135,"lng":-117.1743,"country":"United States","iso2":"US","iso3":"USA","admin_name":"California","capital":"","population":94360},{"city":"Pingyuanjie","city_ascii":"Pingyuanjie","lat":23.7491,"lng":103.7841,"country":"China","iso2":"CN","iso3":"CHN","admin_name":"Yunnan","capital":"","population":94291},{"city":"Greenburgh","city_ascii":"Greenburgh","lat":41.033,"lng":-73.8412,"country":"United States","iso2":"US","iso3":"USA","admin_name":"New York","capital":"","population":94259},{"city":"Shibata","city_ascii":"Shibata","lat":37.9479,"lng":139.3273,"country":"Japan","iso2":"JP","iso3":"JPN","admin_name":"Niigata","capital":"","population":94258},{"city":"Ludwigsburg","city_ascii":"Ludwigsburg","lat":48.8975,"lng":9.1922,"country":"Germany","iso2":"DE","iso3":"DEU","admin_name":"Baden-Württemberg","capital":"minor","population":94157},{"city":"Gießen","city_ascii":"Giessen","lat":50.5833,"lng":8.6667,"country":"Germany","iso2":"DE","iso3":"DEU","admin_name":"Hesse","capital":"minor","population":94146},{"city":"Ashiya","city_ascii":"Ashiya","lat":34.7278,"lng":135.3033,"country":"Japan","iso2":"JP","iso3":"JPN","admin_name":"Hyōgo","capital":"","population":94116},{"city":"Yishui","city_ascii":"Yishui","lat":35.7904,"lng":118.62,"country":"China","iso2":"CN","iso3":"CHN","admin_name":"Shandong","capital":"","population":94115},{"city":"Yi Xian","city_ascii":"Yi Xian","lat":39.3444,"lng":115.4954,"country":"China","iso2":"CN","iso3":"CHN","admin_name":"Hebei","capital":"minor","population":94110},{"city":"Tracy","city_ascii":"Tracy","lat":37.7269,"lng":-121.4523,"country":"United States","iso2":"US","iso3":"USA","admin_name":"California","capital":"","population":94027},{"city":"Paracatu","city_ascii":"Paracatu","lat":-17.2217,"lng":-46.875,"country":"Brazil","iso2":"BR","iso3":"BRA","admin_name":"Minas Gerais","capital":"","population":94017},{"city":"Herẕliyya","city_ascii":"Herzliyya","lat":32.1653,"lng":34.8458,"country":"Israel","iso2":"IL","iso3":"ISR","admin_name":"Tel Aviv","capital":"","population":93989},{"city":"Monkayo","city_ascii":"Monkayo","lat":7.8239,"lng":126.0536,"country":"Philippines","iso2":"PH","iso3":"PHL","admin_name":"Davao de Oro","capital":"minor","population":93937},{"city":"Ponta Porã","city_ascii":"Ponta Pora","lat":-22.5358,"lng":-55.7258,"country":"Brazil","iso2":"BR","iso3":"BRA","admin_name":"Mato Grosso do Sul","capital":"","population":93937},{"city":"Hayes","city_ascii":"Hayes","lat":51.5127,"lng":-0.4211,"country":"United Kingdom","iso2":"GB","iso3":"GBR","admin_name":"Hillingdon","capital":"","population":93928},{"city":"Rio Largo","city_ascii":"Rio Largo","lat":-9.4778,"lng":-35.8528,"country":"Brazil","iso2":"BR","iso3":"BRA","admin_name":"Alagoas","capital":"minor","population":93927},{"city":"San Fernando","city_ascii":"San Fernando","lat":36.4667,"lng":-6.2,"country":"Spain","iso2":"ES","iso3":"ESP","admin_name":"Andalusia","capital":"","population":93927},{"city":"Azumino","city_ascii":"Azumino","lat":36.3039,"lng":137.9058,"country":"Japan","iso2":"JP","iso3":"JPN","admin_name":"Nagano","capital":"","population":93927},{"city":"Prescott Valley","city_ascii":"Prescott Valley","lat":34.598,"lng":-112.3185,"country":"United States","iso2":"US","iso3":"USA","admin_name":"Arizona","capital":"","population":93923},{"city":"Dhār","city_ascii":"Dhar","lat":22.5972,"lng":75.3042,"country":"India","iso2":"IN","iso3":"IND","admin_name":"Madhya Pradesh","capital":"","population":93917},{"city":"Qormi","city_ascii":"Qormi","lat":35.8794,"lng":14.4722,"country":"Malta","iso2":"MT","iso3":"MLT","admin_name":"Qormi","capital":"admin","population":93897},{"city":"San José del Rincón Centro","city_ascii":"San Jose del Rincon Centro","lat":19.6606,"lng":-100.1525,"country":"Mexico","iso2":"MX","iso3":"MEX","admin_name":"México","capital":"minor","population":93878},{"city":"Middletown","city_ascii":"Middletown","lat":39.5033,"lng":-84.3659,"country":"United States","iso2":"US","iso3":"USA","admin_name":"Ohio","capital":"","population":93870},{"city":"Valongo","city_ascii":"Valongo","lat":41.1833,"lng":-8.5,"country":"Portugal","iso2":"PT","iso3":"PRT","admin_name":"Porto","capital":"minor","population":93858},{"city":"Alvand","city_ascii":"Alvand","lat":36.1867,"lng":50.0639,"country":"Iran","iso2":"IR","iso3":"IRN","admin_name":"Qazvīn","capital":"minor","population":93836},{"city":"Lingtang","city_ascii":"Lingtang","lat":23.6032,"lng":113.074,"country":"China","iso2":"CN","iso3":"CHN","admin_name":"Guangdong","capital":"","population":93835},{"city":"Đông Hà","city_ascii":"Dong Ha","lat":16.8303,"lng":107.0972,"country":"Vietnam","iso2":"VN","iso3":"VNM","admin_name":"Quảng Trị","capital":"admin","population":93800},{"city":"Menderes","city_ascii":"Menderes","lat":38.254,"lng":27.134,"country":"Turkey","iso2":"TR","iso3":"TUR","admin_name":"İzmir","capital":"minor","population":93796},{"city":"Chiantla","city_ascii":"Chiantla","lat":15.35,"lng":-91.45,"country":"Guatemala","iso2":"GT","iso3":"GTM","admin_name":"Huehuetenango","capital":"minor","population":93780},{"city":"Simeulu","city_ascii":"Simeulu","lat":2.63,"lng":96.09,"country":"Indonesia","iso2":"ID","iso3":"IDN","admin_name":"Aceh","capital":"","population":93762},{"city":"Ziftá","city_ascii":"Zifta","lat":30.7142,"lng":31.2443,"country":"Egypt","iso2":"EG","iso3":"EGY","admin_name":"Al Gharbīyah","capital":"","population":93740},{"city":"Cape Breton","city_ascii":"Cape Breton","lat":46.1389,"lng":-60.1931,"country":"Canada","iso2":"CA","iso3":"CAN","admin_name":"Nova Scotia","capital":"","population":93694},{"city":"Al Fujayrah","city_ascii":"Al Fujayrah","lat":25.1222,"lng":56.3344,"country":"United Arab Emirates","iso2":"AE","iso3":"ARE","admin_name":"Al Fujayrah","capital":"admin","population":93673},{"city":"Sanjō","city_ascii":"Sanjo","lat":37.6368,"lng":138.9617,"country":"Japan","iso2":"JP","iso3":"JPN","admin_name":"Niigata","capital":"","population":93671},{"city":"Mikhaylovsk","city_ascii":"Mikhaylovsk","lat":45.1333,"lng":42.0333,"country":"Russia","iso2":"RU","iso3":"RUS","admin_name":"Stavropol’skiy Kray","capital":"","population":93658},{"city":"Fall River","city_ascii":"Fall River","lat":41.7136,"lng":-71.1015,"country":"United States","iso2":"US","iso3":"USA","admin_name":"Massachusetts","capital":"","population":93638},{"city":"Gera","city_ascii":"Gera","lat":50.8806,"lng":12.0833,"country":"Germany","iso2":"DE","iso3":"DEU","admin_name":"Thuringia","capital":"minor","population":93634},{"city":"Jaén","city_ascii":"Jaen","lat":-5.7083,"lng":-78.8083,"country":"Peru","iso2":"PE","iso3":"PER","admin_name":"Cajamarca","capital":"","population":93631},{"city":"Mairiporã","city_ascii":"Mairipora","lat":-23.3189,"lng":-46.5869,"country":"Brazil","iso2":"BR","iso3":"BRA","admin_name":"São Paulo","capital":"","population":93617},{"city":"Lawang","city_ascii":"Lawang","lat":-7.83,"lng":112.7,"country":"Indonesia","iso2":"ID","iso3":"IDN","admin_name":"Jawa Timur","capital":"","population":93563},{"city":"San Germán","city_ascii":"San German","lat":18.0827,"lng":-67.046,"country":"Puerto Rico","iso2":"PR","iso3":"PRI","admin_name":"Puerto Rico","capital":"","population":93549},{"city":"Hradec Králové","city_ascii":"Hradec Kralove","lat":50.2092,"lng":15.8322,"country":"Czechia","iso2":"CZ","iso3":"CZE","admin_name":"Královéhradecký Kraj","capital":"admin","population":93506},{"city":"Daanbantayan","city_ascii":"Daanbantayan","lat":11.25,"lng":124,"country":"Philippines","iso2":"PH","iso3":"PHL","admin_name":"Cebu","capital":"","population":93502},{"city":"Sarov","city_ascii":"Sarov","lat":54.9333,"lng":43.3167,"country":"Russia","iso2":"RU","iso3":"RUS","admin_name":"Nizhegorodskaya Oblast’","capital":"minor","population":93357},{"city":"Michurinsk","city_ascii":"Michurinsk","lat":52.8833,"lng":40.4833,"country":"Russia","iso2":"RU","iso3":"RUS","admin_name":"Tambovskaya Oblast’","capital":"","population":93330},{"city":"Monastir","city_ascii":"Monastir","lat":35.7694,"lng":10.8194,"country":"Tunisia","iso2":"TN","iso3":"TUN","admin_name":"Monastir","capital":"admin","population":93306},{"city":"Wangjia","city_ascii":"Wangjia","lat":30.6218,"lng":120.7212,"country":"China","iso2":"CN","iso3":"CHN","admin_name":"Zhejiang","capital":"","population":93291},{"city":"Yashio","city_ascii":"Yashio","lat":35.8225,"lng":139.8392,"country":"Japan","iso2":"JP","iso3":"JPN","admin_name":"Saitama","capital":"","population":93283},{"city":"Jinbi","city_ascii":"Jinbi","lat":25.7356,"lng":101.3239,"country":"China","iso2":"CN","iso3":"CHN","admin_name":"Yunnan","capital":"minor","population":93281},{"city":"Akşehir","city_ascii":"Aksehir","lat":38.3575,"lng":31.4164,"country":"Turkey","iso2":"TR","iso3":"TUR","admin_name":"Konya","capital":"minor","population":93233},{"city":"Yotsukaidō","city_ascii":"Yotsukaido","lat":35.6698,"lng":140.1679,"country":"Japan","iso2":"JP","iso3":"JPN","admin_name":"Chiba","capital":"","population":93233},{"city":"Düren","city_ascii":"Duren","lat":50.8,"lng":6.4833,"country":"Germany","iso2":"DE","iso3":"DEU","admin_name":"North Rhine-Westphalia","capital":"minor","population":93207},{"city":"Chilliwack","city_ascii":"Chilliwack","lat":49.1577,"lng":-121.9509,"country":"Canada","iso2":"CA","iso3":"CAN","admin_name":"British Columbia","capital":"","population":93203},{"city":"Santa Cruz Xoxocotlán","city_ascii":"Santa Cruz Xoxocotlan","lat":17.0264,"lng":-96.7333,"country":"Mexico","iso2":"MX","iso3":"MEX","admin_name":"Oaxaca","capital":"","population":93188},{"city":"Lemery","city_ascii":"Lemery","lat":13.92,"lng":120.88,"country":"Philippines","iso2":"PH","iso3":"PHL","admin_name":"Batangas","capital":"","population":93186},{"city":"Indanan","city_ascii":"Indanan","lat":6,"lng":120.97,"country":"Philippines","iso2":"PH","iso3":"PHL","admin_name":"Sulu","capital":"","population":93168},{"city":"Santa Fe","city_ascii":"Santa Fe","lat":35.6619,"lng":-105.9819,"country":"United States","iso2":"US","iso3":"USA","admin_name":"New Mexico","capital":"admin","population":93165},{"city":"Râmnicu Vâlcea","city_ascii":"Ramnicu Valcea","lat":45.1047,"lng":24.3756,"country":"Romania","iso2":"RO","iso3":"ROU","admin_name":"Vâlcea","capital":"admin","population":93151},{"city":"Fenggang","city_ascii":"Fenggang","lat":23.6283,"lng":116.5718,"country":"China","iso2":"CN","iso3":"CHN","admin_name":"Guangdong","capital":"","population":93148},{"city":"Tual","city_ascii":"Tual","lat":-5.6368,"lng":132.7508,"country":"Indonesia","iso2":"ID","iso3":"IDN","admin_name":"Maluku","capital":"","population":93145},{"city":"Plantation","city_ascii":"Plantation","lat":26.1259,"lng":-80.2617,"country":"United States","iso2":"US","iso3":"USA","admin_name":"Florida","capital":"","population":93130},{"city":"Galle","city_ascii":"Galle","lat":6.0328,"lng":80.2156,"country":"Sri Lanka","iso2":"LK","iso3":"LKA","admin_name":"Southern","capital":"admin","population":93118},{"city":"Mayagüez","city_ascii":"Mayaguez","lat":18.2003,"lng":-67.1397,"country":"Puerto Rico","iso2":"PR","iso3":"PRI","admin_name":"Puerto Rico","capital":"","population":93079},{"city":"Itajubá","city_ascii":"Itajuba","lat":-22.4258,"lng":-45.4528,"country":"Brazil","iso2":"BR","iso3":"BRA","admin_name":"Minas Gerais","capital":"","population":93073},{"city":"Kwekwe","city_ascii":"Kwekwe","lat":-18.9167,"lng":29.8167,"country":"Zimbabwe","iso2":"ZW","iso3":"ZWE","admin_name":"Midlands","capital":"","population":93072},{"city":"Glazov","city_ascii":"Glazov","lat":58.1333,"lng":52.6667,"country":"Russia","iso2":"RU","iso3":"RUS","admin_name":"Udmurtiya","capital":"minor","population":93056},{"city":"Darlington","city_ascii":"Darlington","lat":54.527,"lng":-1.5526,"country":"United Kingdom","iso2":"GB","iso3":"GBR","admin_name":"Darlington","capital":"","population":93015},{"city":"New Braunfels","city_ascii":"New Braunfels","lat":29.6994,"lng":-98.1148,"country":"United States","iso2":"US","iso3":"USA","admin_name":"Texas","capital":"","population":92993},{"city":"Sidi Slimane","city_ascii":"Sidi Slimane","lat":34.26,"lng":-5.92,"country":"Morocco","iso2":"MA","iso3":"MAR","admin_name":"Rabat-Salé-Kénitra","capital":"","population":92989},{"city":"Créteil","city_ascii":"Creteil","lat":48.7911,"lng":2.4628,"country":"France","iso2":"FR","iso3":"FRA","admin_name":"Île-de-France","capital":"minor","population":92989},{"city":"La Marsa","city_ascii":"La Marsa","lat":36.8764,"lng":10.3253,"country":"Tunisia","iso2":"TN","iso3":"TUN","admin_name":"Tunis","capital":"","population":92987},{"city":"Ubatuba","city_ascii":"Ubatuba","lat":-23.4394,"lng":-45.07,"country":"Brazil","iso2":"BR","iso3":"BRA","admin_name":"São Paulo","capital":"","population":92980},{"city":"Ciudad General Belgrano","city_ascii":"Ciudad General Belgrano","lat":-34.7167,"lng":-58.5333,"country":"Argentina","iso2":"AR","iso3":"ARG","admin_name":"Buenos Aires","capital":"","population":92957},{"city":"Rafaela","city_ascii":"Rafaela","lat":-31.2667,"lng":-61.4833,"country":"Argentina","iso2":"AR","iso3":"ARG","admin_name":"Santa Fe","capital":"minor","population":92945},{"city":"Wukari","city_ascii":"Wukari","lat":7.8704,"lng":9.78,"country":"Nigeria","iso2":"NG","iso3":"NGA","admin_name":"Taraba","capital":"minor","population":92933},{"city":"Guaíba","city_ascii":"Guaiba","lat":-30.1183,"lng":-51.3214,"country":"Brazil","iso2":"BR","iso3":"BRA","admin_name":"Rio Grande do Sul","capital":"","population":92924},{"city":"Barra do Piraí","city_ascii":"Barra do Pirai","lat":-22.47,"lng":-43.8258,"country":"Brazil","iso2":"BR","iso3":"BRA","admin_name":"Rio de Janeiro","capital":"","population":92883},{"city":"Palimbang","city_ascii":"Palimbang","lat":6.22,"lng":124.2,"country":"Philippines","iso2":"PH","iso3":"PHL","admin_name":"Sultan Kudarat","capital":"","population":92828},{"city":"Nisshin","city_ascii":"Nisshin","lat":35.132,"lng":137.0394,"country":"Japan","iso2":"JP","iso3":"JPN","admin_name":"Aichi","capital":"","population":92823},{"city":"Hanamaki Onsen","city_ascii":"Hanamaki Onsen","lat":39.3886,"lng":141.1169,"country":"Japan","iso2":"JP","iso3":"JPN","admin_name":"Iwate","capital":"","population":92815},{"city":"Tübingen","city_ascii":"Tubingen","lat":48.52,"lng":9.0556,"country":"Germany","iso2":"DE","iso3":"DEU","admin_name":"Baden-Württemberg","capital":"minor","population":92811},{"city":"Boundiali","city_ascii":"Boundiali","lat":9.5167,"lng":-6.4833,"country":"Côte d’Ivoire","iso2":"CI","iso3":"CIV","admin_name":"Savanes","capital":"minor","population":92792},{"city":"La Reina","city_ascii":"La Reina","lat":-33.45,"lng":-70.55,"country":"Chile","iso2":"CL","iso3":"CHL","admin_name":"Región Metropolitana","capital":"","population":92787},