[{"city":"San Ramon","city_ascii":"San Ramon","lat":37.7624,"lng":-121.9365,"country":"United States","iso2":"US","iso3":"USA","admin_name":"California","capital":"","population":86119},{"city":"Repentigny","city_ascii":"Repentigny","lat":45.7333,"lng":-73.4667,"country":"Canada","iso2":"CA","iso3":"CAN","admin_name":"Quebec","capital":"","population":86100},{"city":"Shchëkino","city_ascii":"Shchekino","lat":54,"lng":37.5167,"country":"Russia","iso2":"RU","iso3":"RUS","admin_name":"Tul’skaya Oblast’","capital":"minor","population":86088},{"city":"Bugulma","city_ascii":"Bugulma","lat":54.5364,"lng":52.7975,"country":"Russia","iso2":"RU","iso3":"RUS","admin_name":"Tatarstan","capital":"","population":86085},{"city":"Toledo","city_ascii":"Toledo","lat":39.8567,"lng":-4.0244,"country":"Spain","iso2":"ES","iso3":"ESP","admin_name":"Castille-La Mancha","capital":"admin","population":86070},{"city":"Khowrāsgān","city_ascii":"Khowrasgan","lat":32.6539,"lng":51.7553,"country":"Iran","iso2":"IR","iso3":"IRN","admin_name":"Eşfahān","capital":"","population":86063},{"city":"Kitanagoya","city_ascii":"Kitanagoya","lat":35.2456,"lng":136.8659,"country":"Japan","iso2":"JP","iso3":"JPN","admin_name":"Aichi","capital":"","population":86060},{"city":"Vineland","city_ascii":"Vineland","lat":39.4653,"lng":-74.9981,"country":"United States","iso2":"US","iso3":"USA","admin_name":"New Jersey","capital":"","population":86042},{"city":"Shaoshanzhan","city_ascii":"Shaoshanzhan","lat":27.915,"lng":112.5267,"country":"China","iso2":"CN","iso3":"CHN","admin_name":"Hunan","capital":"","population":86036},{"city":"Potiskum","city_ascii":"Potiskum","lat":11.7104,"lng":11.08,"country":"Nigeria","iso2":"NG","iso3":"NGA","admin_name":"Yobe","capital":"minor","population":86002},{"city":"Sharūrah","city_ascii":"Sharurah","lat":17.4833,"lng":47.1167,"country":"Saudi Arabia","iso2":"SA","iso3":"SAU","admin_name":"Najrān","capital":"","population":85977},{"city":"Kameoka","city_ascii":"Kameoka","lat":35.0167,"lng":135.5667,"country":"Japan","iso2":"JP","iso3":"JPN","admin_name":"Kyōto","capital":"","population":85962},{"city":"Keffi","city_ascii":"Keffi","lat":8.8464,"lng":7.8733,"country":"Nigeria","iso2":"NG","iso3":"NGA","admin_name":"Nasarawa","capital":"minor","population":85911},{"city":"Qaraçuxur","city_ascii":"Qaracuxur","lat":40.3967,"lng":49.9736,"country":"Azerbaijan","iso2":"AZ","iso3":"AZE","admin_name":"Bakı","capital":"","population":85900},{"city":"Iga","city_ascii":"Iga","lat":34.7667,"lng":136.1333,"country":"Japan","iso2":"JP","iso3":"JPN","admin_name":"Mie","capital":"","population":85883},{"city":"Chiguayante","city_ascii":"Chiguayante","lat":-36.9167,"lng":-73.0167,"country":"Chile","iso2":"CL","iso3":"CHL","admin_name":"Biobío","capital":"","population":85863},{"city":"Cabiao","city_ascii":"Cabiao","lat":15.2522,"lng":120.8575,"country":"Philippines","iso2":"PH","iso3":"PHL","admin_name":"Nueva Ecija","capital":"","population":85862},{"city":"Konstanz","city_ascii":"Konstanz","lat":47.6667,"lng":9.1833,"country":"Germany","iso2":"DE","iso3":"DEU","admin_name":"Baden-Württemberg","capital":"","population":85859},{"city":"Kouvola","city_ascii":"Kouvola","lat":60.8681,"lng":26.7042,"country":"Finland","iso2":"FI","iso3":"FIN","admin_name":"Kymenlaakso","capital":"admin","population":85855},{"city":"Vólos","city_ascii":"Volos","lat":39.3667,"lng":22.9333,"country":"Greece","iso2":"GR","iso3":"GRC","admin_name":"Thessalía","capital":"minor","population":85803},{"city":"Guinobatan","city_ascii":"Guinobatan","lat":13.18,"lng":123.6,"country":"Philippines","iso2":"PH","iso3":"PHL","admin_name":"Albay","capital":"","population":85786},{"city":"Kharian","city_ascii":"Kharian","lat":32.8108,"lng":73.8647,"country":"Pakistan","iso2":"PK","iso3":"PAK","admin_name":"Punjab","capital":"","population":85765},{"city":"Mission","city_ascii":"Mission","lat":26.2039,"lng":-98.3256,"country":"United States","iso2":"US","iso3":"USA","admin_name":"Texas","capital":"","population":85755},{"city":"Bāsoda","city_ascii":"Basoda","lat":23.8515,"lng":77.9365,"country":"India","iso2":"IN","iso3":"IND","admin_name":"Madhya Pradesh","capital":"","population":85716},{"city":"Longhua","city_ascii":"Longhua","lat":41.3246,"lng":117.7344,"country":"China","iso2":"CN","iso3":"CHN","admin_name":"Hebei","capital":"minor","population":85697},{"city":"Taishan Houcun","city_ascii":"Taishan Houcun","lat":41.317,"lng":117.7264,"country":"China","iso2":"CN","iso3":"CHN","admin_name":"Hebei","capital":"","population":85697},{"city":"San Pedro Sacatepéquez","city_ascii":"San Pedro Sacatepequez","lat":14.9667,"lng":-91.7667,"country":"Guatemala","iso2":"GT","iso3":"GTM","admin_name":"San Marcos","capital":"minor","population":85671},{"city":"Ducheng","city_ascii":"Ducheng","lat":23.2445,"lng":111.5342,"country":"China","iso2":"CN","iso3":"CHN","admin_name":"Guangdong","capital":"minor","population":85659},{"city":"Ādwa","city_ascii":"Adwa","lat":14.1667,"lng":38.9,"country":"Ethiopia","iso2":"ET","iso3":"ETH","admin_name":"Tigray","capital":"","population":85644},{"city":"Sekimachi","city_ascii":"Sekimachi","lat":35.4958,"lng":136.918,"country":"Japan","iso2":"JP","iso3":"JPN","admin_name":"Gifu","capital":"","population":85636},{"city":"Maratturai","city_ascii":"Maratturai","lat":11.1536,"lng":79.5329,"country":"India","iso2":"IN","iso3":"IND","admin_name":"Tamil Nādu","capital":"","population":85632},{"city":"Auburn","city_ascii":"Auburn","lat":47.3039,"lng":-122.2108,"country":"United States","iso2":"US","iso3":"USA","admin_name":"Washington","capital":"","population":85623},{"city":"Fuengirola","city_ascii":"Fuengirola","lat":36.5417,"lng":-4.625,"country":"Spain","iso2":"ES","iso3":"ESP","admin_name":"Andalusia","capital":"","population":85598},{"city":"Redenção","city_ascii":"Redencao","lat":-8.0289,"lng":-50.0308,"country":"Brazil","iso2":"BR","iso3":"BRA","admin_name":"Pará","capital":"minor","population":85597},{"city":"Karakol","city_ascii":"Karakol","lat":42.4903,"lng":78.3917,"country":"Kyrgyzstan","iso2":"KG","iso3":"KGZ","admin_name":"Ysyk-Köl","capital":"admin","population":85588},{"city":"Lake Forest","city_ascii":"Lake Forest","lat":33.6605,"lng":-117.6714,"country":"United States","iso2":"US","iso3":"USA","admin_name":"California","capital":"","population":85583},{"city":"El Bayadh","city_ascii":"El Bayadh","lat":33.6803,"lng":1.0203,"country":"Algeria","iso2":"DZ","iso3":"DZA","admin_name":"El Bayadh","capital":"admin","population":85577},{"city":"Mukacheve","city_ascii":"Mukacheve","lat":48.45,"lng":22.75,"country":"Ukraine","iso2":"UA","iso3":"UKR","admin_name":"Zakarpatska Oblast","capital":"minor","population":85569},{"city":"Fusui","city_ascii":"Fusui","lat":22.6325,"lng":107.9047,"country":"China","iso2":"CN","iso3":"CHN","admin_name":"Guangxi","capital":"minor","population":85512},{"city":"Xuddur","city_ascii":"Xuddur","lat":4.12,"lng":43.8878,"country":"Somalia","iso2":"SO","iso3":"SOM","admin_name":"Bakool","capital":"admin","population":85500},{"city":"Karād","city_ascii":"Karad","lat":17.285,"lng":74.184,"country":"India","iso2":"IN","iso3":"IND","admin_name":"Mahārāshtra","capital":"","population":85500},{"city":"Pariaman","city_ascii":"Pariaman","lat":-0.6264,"lng":100.1178,"country":"Indonesia","iso2":"ID","iso3":"IDN","admin_name":"Sumatera Barat","capital":"minor","population":85485},{"city":"Chinnachauku","city_ascii":"Chinnachauku","lat":14.4732,"lng":78.8451,"country":"India","iso2":"IN","iso3":"IND","admin_name":"Andhra Pradesh","capital":"","population":85442},{"city":"Batarasa","city_ascii":"Batarasa","lat":8.67,"lng":117.62,"country":"Philippines","iso2":"PH","iso3":"PHL","admin_name":"Palawan","capital":"","population":85439},{"city":"Lugang","city_ascii":"Lugang","lat":24.05,"lng":120.4333,"country":"Taiwan","iso2":"TW","iso3":"TWN","admin_name":"Changhua","capital":"","population":85423},{"city":"Junín","city_ascii":"Junin","lat":-34.5833,"lng":-60.95,"country":"Argentina","iso2":"AR","iso3":"ARG","admin_name":"Buenos Aires","capital":"minor","population":85420},{"city":"Shumen","city_ascii":"Shumen","lat":43.2833,"lng":26.9333,"country":"Bulgaria","iso2":"BG","iso3":"BGR","admin_name":"Shumen","capital":"admin","population":85410},{"city":"Colonie","city_ascii":"Colonie","lat":42.7396,"lng":-73.7874,"country":"United States","iso2":"US","iso3":"USA","admin_name":"New York","capital":"","population":85406},{"city":"Warder","city_ascii":"Warder","lat":6.9667,"lng":45.35,"country":"Ethiopia","iso2":"ET","iso3":"ETH","admin_name":"Sumalē","capital":"","population":85400},{"city":"Caldas","city_ascii":"Caldas","lat":6.09,"lng":-75.638,"country":"Colombia","iso2":"CO","iso3":"COL","admin_name":"Antioquia","capital":"minor","population":85385},{"city":"Vélez-Málaga","city_ascii":"Velez-Malaga","lat":36.7833,"lng":-4.1,"country":"Spain","iso2":"ES","iso3":"ESP","admin_name":"Andalusia","capital":"","population":85377},{"city":"Pori","city_ascii":"Pori","lat":61.4833,"lng":21.8,"country":"Finland","iso2":"FI","iso3":"FIN","admin_name":"Satakunta","capital":"admin","population":85363},{"city":"Mitrovicë","city_ascii":"Mitrovice","lat":42.8833,"lng":20.8667,"country":"Kosovo","iso2":"XK","iso3":"XKS","admin_name":"","capital":"admin","population":85360},{"city":"Jinhe","city_ascii":"Jinhe","lat":22.7686,"lng":103.2272,"country":"China","iso2":"CN","iso3":"CHN","admin_name":"Yunnan","capital":"minor","population":85350},{"city":"Garulia","city_ascii":"Garulia","lat":22.82,"lng":88.37,"country":"India","iso2":"IN","iso3":"IND","admin_name":"West Bengal","capital":"","population":85336},{"city":"Tagaytay","city_ascii":"Tagaytay","lat":14.1,"lng":120.93,"country":"Philippines","iso2":"PH","iso3":"PHL","admin_name":"Cavite","capital":"","population":85330},{"city":"Apaseo el Grande","city_ascii":"Apaseo el Grande","lat":20.5531,"lng":-100.6347,"country":"Mexico","iso2":"MX","iso3":"MEX","admin_name":"Guanajuato","capital":"minor","population":85319},{"city":"General Rodríguez","city_ascii":"General Rodriguez","lat":-34.6167,"lng":-58.95,"country":"Argentina","iso2":"AR","iso3":"ARG","admin_name":"Buenos Aires","capital":"minor","population":85315},{"city":"Chiquinquirá","city_ascii":"Chiquinquira","lat":5.6333,"lng":-73.75,"country":"Colombia","iso2":"CO","iso3":"COL","admin_name":"Boyacá","capital":"minor","population":85274},{"city":"Krishnagiri","city_ascii":"Krishnagiri","lat":12.5317,"lng":78.2174,"country":"India","iso2":"IN","iso3":"IND","admin_name":"Tamil Nādu","capital":"","population":85254},{"city":"Arona","city_ascii":"Arona","lat":28.1,"lng":-16.6667,"country":"Spain","iso2":"ES","iso3":"ESP","admin_name":"Canary Islands","capital":"","population":85249},{"city":"Upper Darby","city_ascii":"Upper Darby","lat":39.949,"lng":-75.2891,"country":"United States","iso2":"US","iso3":"USA","admin_name":"Pennsylvania","capital":"","population":85217},{"city":"Dapitan","city_ascii":"Dapitan","lat":8.6549,"lng":123.4243,"country":"Philippines","iso2":"PH","iso3":"PHL","admin_name":"Zamboanga del Norte","capital":"","population":85202},{"city":"Takayama","city_ascii":"Takayama","lat":36.146,"lng":137.2522,"country":"Japan","iso2":"JP","iso3":"JPN","admin_name":"Gifu","capital":"","population":85199},{"city":"Grand Bourg","city_ascii":"Grand Bourg","lat":-34.4833,"lng":-58.7167,"country":"Argentina","iso2":"AR","iso3":"ARG","admin_name":"Buenos Aires","capital":"","population":85189},{"city":"Newport Beach","city_ascii":"Newport Beach","lat":33.6151,"lng":-117.8668,"country":"United States","iso2":"US","iso3":"USA","admin_name":"California","capital":"","population":85159},{"city":"Harda Khās","city_ascii":"Harda Khas","lat":22.3441,"lng":77.0954,"country":"India","iso2":"IN","iso3":"IND","admin_name":"Madhya Pradesh","capital":"","population":85136},{"city":"Gurupi","city_ascii":"Gurupi","lat":-11.73,"lng":-49.0689,"country":"Brazil","iso2":"BR","iso3":"BRA","admin_name":"Tocantins","capital":"minor","population":85126},{"city":"Maga","city_ascii":"Maga","lat":10.85,"lng":14.9333,"country":"Cameroon","iso2":"CM","iso3":"CMR","admin_name":"Extrême-Nord","capital":"","population":85100},{"city":"Araripina","city_ascii":"Araripina","lat":-7.55,"lng":-40.5667,"country":"Brazil","iso2":"BR","iso3":"BRA","admin_name":"Pernambuco","capital":"","population":85088},{"city":"Monte Chingolo","city_ascii":"Monte Chingolo","lat":-34.7333,"lng":-58.35,"country":"Argentina","iso2":"AR","iso3":"ARG","admin_name":"Buenos Aires","capital":"","population":85060},{"city":"Jastrzębie-Zdrój","city_ascii":"Jastrzebie-Zdroj","lat":49.95,"lng":18.5833,"country":"Poland","iso2":"PL","iso3":"POL","admin_name":"Śląskie","capital":"minor","population":85050},{"city":"Puerto Maldonado","city_ascii":"Puerto Maldonado","lat":-12.6,"lng":-69.1833,"country":"Peru","iso2":"PE","iso3":"PER","admin_name":"Madre de Dios","capital":"admin","population":85024},{"city":"Mhow","city_ascii":"Mhow","lat":22.55,"lng":75.76,"country":"India","iso2":"IN","iso3":"IND","admin_name":"Madhya Pradesh","capital":"","population":85023},{"city":"Derry","city_ascii":"Derry","lat":54.9975,"lng":-7.32,"country":"United Kingdom","iso2":"GB","iso3":"GBR","admin_name":"Derry and Strabane","capital":"","population":85016},{"city":"Santa Inês","city_ascii":"Santa Ines","lat":-3.6689,"lng":-45.3839,"country":"Brazil","iso2":"BR","iso3":"BRA","admin_name":"Maranhão","capital":"minor","population":85014},{"city":"Ealing","city_ascii":"Ealing","lat":51.5175,"lng":-0.2988,"country":"United Kingdom","iso2":"GB","iso3":"GBR","admin_name":"Ealing","capital":"","population":85014},{"city":"Walvisbaai","city_ascii":"Walvisbaai","lat":-22.9561,"lng":14.5081,"country":"Namibia","iso2":"NA","iso3":"NAM","admin_name":"Erongo","capital":"","population":85000},{"city":"Bahlā’","city_ascii":"Bahla'","lat":22.968,"lng":57.298,"country":"Oman","iso2":"OM","iso3":"OMN","admin_name":"Ad Dākhilīyah","capital":"","population":85000},{"city":"Taxila","city_ascii":"Taxila","lat":33.7458,"lng":72.7875,"country":"Pakistan","iso2":"PK","iso3":"PAK","admin_name":"Punjab","capital":"","population":85000},{"city":"Hövsan","city_ascii":"Hovsan","lat":40.3744,"lng":50.0853,"country":"Azerbaijan","iso2":"AZ","iso3":"AZE","admin_name":"Bakı","capital":"","population":85000},{"city":"Luvungi","city_ascii":"Luvungi","lat":-2.86,"lng":29.03,"country":"Congo (Kinshasa)","iso2":"CD","iso3":"COD","admin_name":"Sud-Kivu","capital":"","population":85000},{"city":"Korgas","city_ascii":"Korgas","lat":44.2125,"lng":80.4097,"country":"China","iso2":"CN","iso3":"CHN","admin_name":"Xinjiang","capital":"","population":85000},{"city":"Melbourne","city_ascii":"Melbourne","lat":28.1086,"lng":-80.6627,"country":"United States","iso2":"US","iso3":"USA","admin_name":"Florida","capital":"","population":84982},{"city":"Atakpamé","city_ascii":"Atakpame","lat":7.5269,"lng":1.1267,"country":"Togo","iso2":"TG","iso3":"TGO","admin_name":"Plateaux","capital":"admin","population":84979},{"city":"Woolwich","city_ascii":"Woolwich","lat":51.488,"lng":0.063,"country":"United Kingdom","iso2":"GB","iso3":"GBR","admin_name":"Greenwich","capital":"","population":84959},{"city":"Longchuan","city_ascii":"Longchuan","lat":25.1945,"lng":101.2759,"country":"China","iso2":"CN","iso3":"CHN","admin_name":"Yunnan","capital":"minor","population":84955},{"city":"Brooklyn Park","city_ascii":"Brooklyn Park","lat":45.1112,"lng":-93.3505,"country":"United States","iso2":"US","iso3":"USA","admin_name":"Minnesota","capital":"","population":84951},{"city":"Karacabey","city_ascii":"Karacabey","lat":40.2167,"lng":28.35,"country":"Turkey","iso2":"TR","iso3":"TUR","admin_name":"Bursa","capital":"minor","population":84907},{"city":"Baabda","city_ascii":"Baabda","lat":33.8333,"lng":35.5333,"country":"Lebanon","iso2":"LB","iso3":"LBN","admin_name":"Mont-Liban","capital":"admin","population":84900},{"city":"Larnaca","city_ascii":"Larnaca","lat":34.9167,"lng":33.6333,"country":"Cyprus","iso2":"CY","iso3":"CYP","admin_name":"Lárnaka","capital":"admin","population":84900},{"city":"Prešov","city_ascii":"Presov","lat":49.0017,"lng":21.2394,"country":"Slovakia","iso2":"SK","iso3":"SVK","admin_name":"Prešov","capital":"admin","population":84824},{"city":"Bryan","city_ascii":"Bryan","lat":30.665,"lng":-96.3807,"country":"United States","iso2":"US","iso3":"USA","admin_name":"Texas","capital":"","population":84820},{"city":"Sayhāt","city_ascii":"Sayhat","lat":26.475,"lng":50.0417,"country":"Saudi Arabia","iso2":"SA","iso3":"SAU","admin_name":"Ash Sharqīyah","capital":"","population":84818},{"city":"Westland","city_ascii":"Westland","lat":42.3192,"lng":-83.3805,"country":"United States","iso2":"US","iso3":"USA","admin_name":"Michigan","capital":"","population":84806},{"city":"Ílion","city_ascii":"Ilion","lat":38.0333,"lng":23.7,"country":"Greece","iso2":"GR","iso3":"GRC","admin_name":"Attikí","capital":"minor","population":84793},{"city":"Peterborough","city_ascii":"Peterborough","lat":44.3,"lng":-78.3167,"country":"Canada","iso2":"CA","iso3":"CAN","admin_name":"Ontario","capital":"","population":84793},{"city":"Ciudad Mante","city_ascii":"Ciudad Mante","lat":22.7333,"lng":-98.95,"country":"Mexico","iso2":"MX","iso3":"MEX","admin_name":"Tamaulipas","capital":"minor","population":84787},{"city":"Konotop","city_ascii":"Konotop","lat":51.2167,"lng":33.2,"country":"Ukraine","iso2":"UA","iso3":"UKR","admin_name":"Sumska Oblast","capital":"minor","population":84787},{"city":"Pandacan","city_ascii":"Pandacan","lat":14.594,"lng":121.007,"country":"Philippines","iso2":"PH","iso3":"PHL","admin_name":"Manila","capital":"","population":84769},{"city":"Chirundu","city_ascii":"Chirundu","lat":-16.05,"lng":28.8333,"country":"Zambia","iso2":"ZM","iso3":"ZMB","admin_name":"Southern","capital":"","population":84750},{"city":"Túxpam de Rodríguez Cano","city_ascii":"Tuxpam de Rodriguez Cano","lat":20.95,"lng":-97.4,"country":"Mexico","iso2":"MX","iso3":"MEX","admin_name":"Veracruz","capital":"minor","population":84750},{"city":"Ijuí","city_ascii":"Ijui","lat":-28.3878,"lng":-53.915,"country":"Brazil","iso2":"BR","iso3":"BRA","admin_name":"Rio Grande do Sul","capital":"","population":84726},{"city":"Napa","city_ascii":"Napa","lat":38.2975,"lng":-122.301,"country":"United States","iso2":"US","iso3":"USA","admin_name":"California","capital":"","population":84703},{"city":"Mohammadia","city_ascii":"Mohammadia","lat":35.5833,"lng":0.0667,"country":"Algeria","iso2":"DZ","iso3":"DZA","admin_name":"Mascara","capital":"","population":84700},{"city":"Catanzaro","city_ascii":"Catanzaro","lat":38.9,"lng":16.6,"country":"Italy","iso2":"IT","iso3":"ITA","admin_name":"Calabria","capital":"admin","population":84670},{"city":"Sumenep","city_ascii":"Sumenep","lat":-7.0049,"lng":113.8496,"country":"Indonesia","iso2":"ID","iso3":"IDN","admin_name":"Jawa Timur","capital":"minor","population":84656},{"city":"Tshilenge","city_ascii":"Tshilenge","lat":-6.25,"lng":23.7667,"country":"Congo (Kinshasa)","iso2":"CD","iso3":"COD","admin_name":"Kasaï Oriental","capital":"","population":84651},{"city":"Worms","city_ascii":"Worms","lat":49.6319,"lng":8.3653,"country":"Germany","iso2":"DE","iso3":"DEU","admin_name":"Rhineland-Palatinate","capital":"minor","population":84646},{"city":"Pinheiro","city_ascii":"Pinheiro","lat":-2.5208,"lng":-45.0828,"country":"Brazil","iso2":"BR","iso3":"BRA","admin_name":"Maranhão","capital":"minor","population":84614},{"city":"Treviso","city_ascii":"Treviso","lat":45.6667,"lng":12.25,"country":"Italy","iso2":"IT","iso3":"ITA","admin_name":"Veneto","capital":"minor","population":84607},{"city":"Mādabā","city_ascii":"Madaba","lat":31.7167,"lng":35.8,"country":"Jordan","iso2":"JO","iso3":"JOR","admin_name":"Mādabā","capital":"admin","population":84600},{"city":"Khemis Miliana","city_ascii":"Khemis Miliana","lat":36.2667,"lng":2.2167,"country":"Algeria","iso2":"DZ","iso3":"DZA","admin_name":"Aïn Defla","capital":"","population":84574},{"city":"Yokotemachi","city_ascii":"Yokotemachi","lat":39.3113,"lng":140.5533,"country":"Japan","iso2":"JP","iso3":"JPN","admin_name":"Akita","capital":"","population":84556},{"city":"Dhorāji","city_ascii":"Dhoraji","lat":21.7337,"lng":70.4499,"country":"India","iso2":"IN","iso3":"IND","admin_name":"Gujarāt","capital":"","population":84545},{"city":"Rafḩā","city_ascii":"Rafha","lat":29.6386,"lng":43.5014,"country":"Saudi Arabia","iso2":"SA","iso3":"SAU","admin_name":"Al Ḩudūd ash Shamālīyah","capital":"","population":84536},{"city":"Honiara","city_ascii":"Honiara","lat":-9.4319,"lng":159.9556,"country":"Solomon Islands","iso2":"SB","iso3":"SLB","admin_name":"Honiara","capital":"primary","population":84520},{"city":"Ushiku","city_ascii":"Ushiku","lat":35.9794,"lng":140.1496,"country":"Japan","iso2":"JP","iso3":"JPN","admin_name":"Ibaraki","capital":"","population":84505},{"city":"Tire","city_ascii":"Tire","lat":38.0833,"lng":27.7333,"country":"Turkey","iso2":"TR","iso3":"TUR","admin_name":"İzmir","capital":"minor","population":84457},{"city":"Vīrappanchathiram","city_ascii":"Virappanchathiram","lat":11.3553,"lng":77.6678,"country":"India","iso2":"IN","iso3":"IND","admin_name":"Tamil Nādu","capital":"","population":84453},{"city":"Baytown","city_ascii":"Baytown","lat":29.7587,"lng":-94.9671,"country":"United States","iso2":"US","iso3":"USA","admin_name":"Texas","capital":"","population":84449},{"city":"Komae","city_ascii":"Komae","lat":35.6348,"lng":139.5787,"country":"Japan","iso2":"JP","iso3":"JPN","admin_name":"Tōkyō","capital":"","population":84437},{"city":"Santana do Livramento","city_ascii":"Santana do Livramento","lat":-30.8775,"lng":-55.5331,"country":"Brazil","iso2":"BR","iso3":"BRA","admin_name":"Rio Grande do Sul","capital":"","population":84421},{"city":"Sabanalarga","city_ascii":"Sabanalarga","lat":10.63,"lng":-74.9236,"country":"Colombia","iso2":"CO","iso3":"COL","admin_name":"Atlántico","capital":"minor","population":84410},{"city":"Dmitrov","city_ascii":"Dmitrov","lat":56.35,"lng":37.5333,"country":"Russia","iso2":"RU","iso3":"RUS","admin_name":"Moskovskaya Oblast’","capital":"minor","population":84408},{"city":"New Kru Town","city_ascii":"New Kru Town","lat":6.3733,"lng":-10.7928,"country":"Liberia","iso2":"LR","iso3":"LBR","admin_name":"Montserrado","capital":"","population":84399},{"city":"Carpina","city_ascii":"Carpina","lat":-7.8508,"lng":-35.2547,"country":"Brazil","iso2":"BR","iso3":"BRA","admin_name":"Pernambuco","capital":"minor","population":84395},{"city":"Kaizuka","city_ascii":"Kaizuka","lat":34.4333,"lng":135.3667,"country":"Japan","iso2":"JP","iso3":"JPN","admin_name":"Ōsaka","capital":"","population":84356},{"city":"Nabunturan","city_ascii":"Nabunturan","lat":7.6008,"lng":125.9656,"country":"Philippines","iso2":"PH","iso3":"PHL","admin_name":"Davao de Oro","capital":"admin","population":84340},{"city":"Marl","city_ascii":"Marl","lat":51.6667,"lng":7.1167,"country":"Germany","iso2":"DE","iso3":"DEU","admin_name":"North Rhine-Westphalia","capital":"","population":84331},{"city":"Suceava","city_ascii":"Suceava","lat":47.6514,"lng":26.2556,"country":"Romania","iso2":"RO","iso3":"ROU","admin_name":"Suceava","capital":"admin","population":84322},{"city":"Bais","city_ascii":"Bais","lat":9.5907,"lng":123.1213,"country":"Philippines","iso2":"PH","iso3":"PHL","admin_name":"Negros Oriental","capital":"","population":84317},{"city":"Villa Altagracia","city_ascii":"Villa Altagracia","lat":18.6667,"lng":-70.1667,"country":"Dominican Republic","iso2":"DO","iso3":"DOM","admin_name":"Valdesia","capital":"","population":84312},{"city":"Science City of Muñoz","city_ascii":"Science City of Munoz","lat":15.7153,"lng":120.9039,"country":"Philippines","iso2":"PH","iso3":"PHL","admin_name":"Nueva Ecija","capital":"","population":84308},{"city":"Athurugiriya","city_ascii":"Athurugiriya","lat":6.8922,"lng":79.9428,"country":"Sri Lanka","iso2":"LK","iso3":"LKA","admin_name":"Western","capital":"","population":84278},{"city":"Higashiyamato","city_ascii":"Higashiyamato","lat":35.7454,"lng":139.4265,"country":"Japan","iso2":"JP","iso3":"JPN","admin_name":"Saitama","capital":"","population":84260},{"city":"Ayase","city_ascii":"Ayase","lat":35.4333,"lng":139.4333,"country":"Japan","iso2":"JP","iso3":"JPN","admin_name":"Kanagawa","capital":"","population":84257},{"city":"Bilwi","city_ascii":"Bilwi","lat":14.0281,"lng":-83.3808,"country":"Nicaragua","iso2":"NI","iso3":"NIC","admin_name":"Costa Caribe Norte","capital":"admin","population":84189},{"city":"Cicero","city_ascii":"Cicero","lat":41.8445,"lng":-87.7593,"country":"United States","iso2":"US","iso3":"USA","admin_name":"Illinois","capital":"","population":84189},{"city":"Chigorodó","city_ascii":"Chigorodo","lat":7.6675,"lng":-76.6808,"country":"Colombia","iso2":"CO","iso3":"COL","admin_name":"Antioquia","capital":"minor","population":84183},{"city":"Quixadá","city_ascii":"Quixada","lat":-4.969,"lng":-39.013,"country":"Brazil","iso2":"BR","iso3":"BRA","admin_name":"Ceará","capital":"minor","population":84165},{"city":"Concepción Tutuapa","city_ascii":"Concepcion Tutuapa","lat":15.2833,"lng":-91.7833,"country":"Guatemala","iso2":"GT","iso3":"GTM","admin_name":"San Marcos","capital":"minor","population":84138},{"city":"Wakō","city_ascii":"Wako","lat":35.7812,"lng":139.6057,"country":"Japan","iso2":"JP","iso3":"JPN","admin_name":"Saitama","capital":"","population":84120},{"city":"Al Hindīyah","city_ascii":"Al Hindiyah","lat":32.5442,"lng":44.2197,"country":"Iraq","iso2":"IQ","iso3":"IRQ","admin_name":"Karbalā’","capital":"minor","population":84100},{"city":"Luancheng","city_ascii":"Luancheng","lat":37.9003,"lng":114.6483,"country":"China","iso2":"CN","iso3":"CHN","admin_name":"Hebei","capital":"minor","population":84068},{"city":"Dārayyā","city_ascii":"Darayya","lat":33.45,"lng":36.25,"country":"Syria","iso2":"SY","iso3":"SYR","admin_name":"Rīf Dimashq","capital":"minor","population":84044},{"city":"Sambava","city_ascii":"Sambava","lat":-14.2667,"lng":50.1667,"country":"Madagascar","iso2":"MG","iso3":"MDG","admin_name":"Antsiranana","capital":"minor","population":84039},{"city":"Kitakōriyamachō","city_ascii":"Kitakoriyamacho","lat":34.65,"lng":135.7833,"country":"Japan","iso2":"JP","iso3":"JPN","admin_name":"Nara","capital":"","population":84007},{"city":"Heṭauḍā","city_ascii":"Hetauda","lat":27.4167,"lng":85.0333,"country":"Nepal","iso2":"NP","iso3":"NPL","admin_name":"Bāgmatī","capital":"admin","population":84000},{"city":"Ath Thawrah","city_ascii":"Ath Thawrah","lat":35.8367,"lng":38.5481,"country":"Syria","iso2":"SY","iso3":"SYR","admin_name":"Ar Raqqah","capital":"minor","population":84000},{"city":"Lāharpur","city_ascii":"Laharpur","lat":27.72,"lng":80.9,"country":"India","iso2":"IN","iso3":"IND","admin_name":"Uttar Pradesh","capital":"","population":84000},{"city":"Diphu","city_ascii":"Diphu","lat":25.83,"lng":93.43,"country":"India","iso2":"IN","iso3":"IND","admin_name":"Assam","capital":"","population":84000},{"city":"Bolinao","city_ascii":"Bolinao","lat":16.3881,"lng":119.8947,"country":"Philippines","iso2":"PH","iso3":"PHL","admin_name":"Pangasinan","capital":"","population":83979},{"city":"Arujá","city_ascii":"Aruja","lat":-23.3967,"lng":-46.3211,"country":"Brazil","iso2":"BR","iso3":"BRA","admin_name":"São Paulo","capital":"","population":83939},{"city":"El Milia","city_ascii":"El Milia","lat":36.75,"lng":6.2667,"country":"Algeria","iso2":"DZ","iso3":"DZA","admin_name":"Jijel","capital":"","population":83931},{"city":"Channapatna","city_ascii":"Channapatna","lat":12.6514,"lng":77.2067,"country":"India","iso2":"IN","iso3":"IND","admin_name":"Karnātaka","capital":"","population":83921},{"city":"San Baudilio de Llobregat","city_ascii":"San Baudilio de Llobregat","lat":41.336,"lng":2.043,"country":"Spain","iso2":"ES","iso3":"ESP","admin_name":"Catalonia","capital":"","population":83919},{"city":"Chita","city_ascii":"Chita","lat":35,"lng":136.8667,"country":"Japan","iso2":"JP","iso3":"JPN","admin_name":"Aichi","capital":"","population":83881},{"city":"Anderson","city_ascii":"Anderson","lat":40.0891,"lng":-85.6892,"country":"United States","iso2":"US","iso3":"USA","admin_name":"Indiana","capital":"","population":83875},{"city":"Keşan","city_ascii":"Kesan","lat":40.85,"lng":26.6333,"country":"Turkey","iso2":"TR","iso3":"TUR","admin_name":"Edirne","capital":"minor","population":83874},{"city":"Kineshma","city_ascii":"Kineshma","lat":57.4333,"lng":42.1333,"country":"Russia","iso2":"RU","iso3":"RUS","admin_name":"Ivanovskaya Oblast’","capital":"minor","population":83871},{"city":"Ermelo","city_ascii":"Ermelo","lat":-26.5333,"lng":29.9833,"country":"South Africa","iso2":"ZA","iso3":"ZAF","admin_name":"Mpumalanga","capital":"","population":83865},{"city":"Zheleznogorsk","city_ascii":"Zheleznogorsk","lat":56.25,"lng":93.5333,"country":"Russia","iso2":"RU","iso3":"RUS","admin_name":"Krasnoyarskiy Kray","capital":"","population":83857},{"city":"Xishancun","city_ascii":"Xishancun","lat":23.2589,"lng":116.2388,"country":"China","iso2":"CN","iso3":"CHN","admin_name":"Guangdong","capital":"","population":83822},{"city":"Acayucan","city_ascii":"Acayucan","lat":17.9422,"lng":-94.9103,"country":"Mexico","iso2":"MX","iso3":"MEX","admin_name":"Veracruz","capital":"minor","population":83817},{"city":"Lucas do Rio Verde","city_ascii":"Lucas do Rio Verde","lat":-13.0719,"lng":-55.9192,"country":"Brazil","iso2":"BR","iso3":"BRA","admin_name":"Mato Grosso","capital":"minor","population":83798},{"city":"Dolisie","city_ascii":"Dolisie","lat":-4.2006,"lng":12.6792,"country":"Congo (Brazzaville)","iso2":"CG","iso3":"COG","admin_name":"Niari","capital":"admin","population":83798},{"city":"Bhawānipatna","city_ascii":"Bhawanipatna","lat":19.91,"lng":83.128,"country":"India","iso2":"IN","iso3":"IND","admin_name":"Odisha","capital":"","population":83756},{"city":"Pilkhua","city_ascii":"Pilkhua","lat":28.712,"lng":77.6545,"country":"India","iso2":"IN","iso3":"IND","admin_name":"Uttar Pradesh","capital":"","population":83736},{"city":"Samadiāla","city_ascii":"Samadiala","lat":21.337,"lng":71.31,"country":"India","iso2":"IN","iso3":"IND","admin_name":"Gujarāt","capital":"","population":83720},{"city":"Ho","city_ascii":"Ho","lat":6.6119,"lng":0.4703,"country":"Ghana","iso2":"GH","iso3":"GHA","admin_name":"Volta","capital":"admin","population":83715},{"city":"Haskovo","city_ascii":"Haskovo","lat":41.9333,"lng":25.5667,"country":"Bulgaria","iso2":"BG","iso3":"BGR","admin_name":"Haskovo","capital":"admin","population":83682},{"city":"Yeysk","city_ascii":"Yeysk","lat":46.7111,"lng":38.2733,"country":"Russia","iso2":"RU","iso3":"RUS","admin_name":"Krasnodarskiy Kray","capital":"minor","population":83665},{"city":"Franklin","city_ascii":"Franklin","lat":35.92,"lng":-86.8516,"country":"United States","iso2":"US","iso3":"USA","admin_name":"Tennessee","capital":"","population":83630},{"city":"Matão","city_ascii":"Matao","lat":-21.6028,"lng":-48.3658,"country":"Brazil","iso2":"BR","iso3":"BRA","admin_name":"São Paulo","capital":"","population":83626},{"city":"Barahona","city_ascii":"Barahona","lat":18.2,"lng":-71.1,"country":"Dominican Republic","iso2":"DO","iso3":"DOM","admin_name":"Enriquillo","capital":"admin","population":83619},{"city":"Tiruppattūr","city_ascii":"Tiruppattur","lat":12.4915,"lng":78.5684,"country":"India","iso2":"IN","iso3":"IND","admin_name":"Tamil Nādu","capital":"","population":83612},{"city":"Hamma Bouziane","city_ascii":"Hamma Bouziane","lat":36.5333,"lng":6.7167,"country":"Algeria","iso2":"DZ","iso3":"DZA","admin_name":"Constantine","capital":"","population":83603},{"city":"Versailles","city_ascii":"Versailles","lat":48.8053,"lng":2.135,"country":"France","iso2":"FR","iso3":"FRA","admin_name":"Île-de-France","capital":"minor","population":83587},{"city":"Moriyama","city_ascii":"Moriyama","lat":35.0586,"lng":135.9942,"country":"Japan","iso2":"JP","iso3":"JPN","admin_name":"Shiga","capital":"","population":83567},{"city":"Farmington Hills","city_ascii":"Farmington Hills","lat":42.486,"lng":-83.3771,"country":"United States","iso2":"US","iso3":"USA","admin_name":"Michigan","capital":"","population":83562},{"city":"Nizwá","city_ascii":"Nizwa","lat":22.9333,"lng":57.5333,"country":"Oman","iso2":"OM","iso3":"OMN","admin_name":"Ad Dākhilīyah","capital":"admin","population":83544},{"city":"Buena Park","city_ascii":"Buena Park","lat":33.8572,"lng":-118.0046,"country":"United States","iso2":"US","iso3":"USA","admin_name":"California","capital":"","population":83542},{"city":"Foumban","city_ascii":"Foumban","lat":5.7167,"lng":10.9167,"country":"Cameroon","iso2":"CM","iso3":"CMR","admin_name":"Ouest","capital":"","population":83522},{"city":"Talavera de la Reina","city_ascii":"Talavera de la Reina","lat":39.9583,"lng":-4.8328,"country":"Spain","iso2":"ES","iso3":"ESP","admin_name":"Castille-La Mancha","capital":"","population":83477},{"city":"Lafey","city_ascii":"Lafey","lat":3.1508,"lng":41.1864,"country":"Kenya","iso2":"KE","iso3":"KEN","admin_name":"Mandera","capital":"","population":83457},{"city":"Galway","city_ascii":"Galway","lat":53.2719,"lng":-9.0489,"country":"Ireland","iso2":"IE","iso3":"IRL","admin_name":"Galway","capital":"admin","population":83456},{"city":"Albany","city_ascii":"Albany","lat":31.5776,"lng":-84.1762,"country":"United States","iso2":"US","iso3":"USA","admin_name":"Georgia","capital":"","population":83447},{"city":"Aylesbury","city_ascii":"Aylesbury","lat":51.8168,"lng":-0.8124,"country":"United Kingdom","iso2":"GB","iso3":"GBR","admin_name":"Buckinghamshire","capital":"","population":83407},{"city":"Atambua","city_ascii":"Atambua","lat":-9.1061,"lng":124.8925,"country":"Indonesia","iso2":"ID","iso3":"IDN","admin_name":"Nusa Tenggara Timur","capital":"minor","population":83405},{"city":"Nazareth","city_ascii":"Nazareth","lat":32.7019,"lng":35.3033,"country":"Israel","iso2":"IL","iso3":"ISR","admin_name":"Northern","capital":"admin","population":83400},{"city":"Taytay","city_ascii":"Taytay","lat":10.82,"lng":119.52,"country":"Philippines","iso2":"PH","iso3":"PHL","admin_name":"Palawan","capital":"","population":83357},{"city":"Phúc Yên","city_ascii":"Phuc Yen","lat":21.2333,"lng":105.7,"country":"Vietnam","iso2":"VN","iso3":"VNM","admin_name":"Vĩnh Phúc","capital":"minor","population":83352},{"city":"Reşiţa","city_ascii":"Resita","lat":45.3008,"lng":21.8892,"country":"Romania","iso2":"RO","iso3":"ROU","admin_name":"Caraş-Severin","capital":"admin","population":83324},{"city":"La Piedad","city_ascii":"La Piedad","lat":20.3333,"lng":-102.0167,"country":"Mexico","iso2":"MX","iso3":"MEX","admin_name":"Michoacán","capital":"minor","population":83323},{"city":"Gokulgarh","city_ascii":"Gokulgarh","lat":28.2468,"lng":76.6176,"country":"India","iso2":"IN","iso3":"IND","admin_name":"Haryāna","capital":"","population":83310},{"city":"São Bento do Sul","city_ascii":"Sao Bento do Sul","lat":-26.25,"lng":-49.3833,"country":"Brazil","iso2":"BR","iso3":"BRA","admin_name":"Santa Catarina","capital":"","population":83275},{"city":"Serrinha","city_ascii":"Serrinha","lat":-11.661,"lng":-39.007,"country":"Brazil","iso2":"BR","iso3":"BRA","admin_name":"Bahia","capital":"minor","population":83275},{"city":"Maco","city_ascii":"Maco","lat":7.3619,"lng":125.8553,"country":"Philippines","iso2":"PH","iso3":"PHL","admin_name":"Davao de Oro","capital":"","population":83237},{"city":"Lqoliaa","city_ascii":"Lqoliaa","lat":30.2908,"lng":-9.4661,"country":"Morocco","iso2":"MA","iso3":"MAR","admin_name":"Souss-Massa","capital":"","population":83235},{"city":"Pine Hills","city_ascii":"Pine Hills","lat":28.5818,"lng":-81.4692,"country":"United States","iso2":"US","iso3":"USA","admin_name":"Florida","capital":"","population":83221},{"city":"Ashford","city_ascii":"Ashford","lat":51.1465,"lng":0.8676,"country":"United Kingdom","iso2":"GB","iso3":"GBR","admin_name":"Kent","capital":"","population":83213},{"city":"Sirsilla","city_ascii":"Sirsilla","lat":18.38,"lng":78.83,"country":"India","iso2":"IN","iso3":"IND","admin_name":"Telangāna","capital":"","population":83186},{"city":"Como","city_ascii":"Como","lat":45.8167,"lng":9.0833,"country":"Italy","iso2":"IT","iso3":"ITA","admin_name":"Lombardy","capital":"minor","population":83184},{"city":"State College","city_ascii":"State College","lat":40.7909,"lng":-77.8567,"country":"United States","iso2":"US","iso3":"USA","admin_name":"Pennsylvania","capital":"","population":83170},{"city":"Boukoumbé","city_ascii":"Boukoumbe","lat":10.1833,"lng":1.1,"country":"Benin","iso2":"BJ","iso3":"BEN","admin_name":"Atacora","capital":"","population":83147},{"city":"Habiganj","city_ascii":"Habiganj","lat":24.3808,"lng":91.4144,"country":"Bangladesh","iso2":"BD","iso3":"BGD","admin_name":"Sylhet","capital":"","population":83114},{"city":"Lakshmīpur","city_ascii":"Lakshmipur","lat":22.94,"lng":90.833,"country":"Bangladesh","iso2":"BD","iso3":"BGD","admin_name":"Chattogram","capital":"","population":83112},{"city":"La Trinidad","city_ascii":"La Trinidad","lat":15.9833,"lng":-91.8667,"country":"Mexico","iso2":"MX","iso3":"MEX","admin_name":"Chiapas","capital":"","population":83111},{"city":"Picos","city_ascii":"Picos","lat":-7.0769,"lng":-41.4669,"country":"Brazil","iso2":"BR","iso3":"BRA","admin_name":"Piauí","capital":"minor","population":83090},{"city":"Siaton","city_ascii":"Siaton","lat":9.07,"lng":123.03,"country":"Philippines","iso2":"PH","iso3":"PHL","admin_name":"Negros Oriental","capital":"","population":83082},{"city":"Redwood City","city_ascii":"Redwood City","lat":37.5025,"lng":-122.2253,"country":"United States","iso2":"US","iso3":"USA","admin_name":"California","capital":"","population":83077},{"city":"Minden","city_ascii":"Minden","lat":52.2883,"lng":8.9167,"country":"Germany","iso2":"DE","iso3":"DEU","admin_name":"North Rhine-Westphalia","capital":"minor","population":83076},{"city":"Kampong Trach","city_ascii":"Kampong Trach","lat":10.55,"lng":104.4667,"country":"Cambodia","iso2":"KH","iso3":"KHM","admin_name":"Kampot","capital":"minor","population":83061},{"city":"San Antonio","city_ascii":"San Antonio","lat":15.3078,"lng":120.8533,"country":"Philippines","iso2":"PH","iso3":"PHL","admin_name":"Nueva Ecija","capital":"","population":83060},{"city":"Moju","city_ascii":"Moju","lat":-1.89,"lng":-48.7661,"country":"Brazil","iso2":"BR","iso3":"BRA","admin_name":"Pará","capital":"","population":83039},{"city":"Ciudad de Ceuta","city_ascii":"Ciudad de Ceuta","lat":35.8883,"lng":-5.3156,"country":"Spain","iso2":"ES","iso3":"ESP","admin_name":"Ceuta","capital":"","population":83039},{"city":"Lelystad","city_ascii":"Lelystad","lat":52.5,"lng":5.4833,"country":"Netherlands","iso2":"NL","iso3":"NLD","admin_name":"Flevoland","capital":"admin","population":83033},{"city":"La Lima","city_ascii":"La Lima","lat":15.433,"lng":-87.917,"country":"Honduras","iso2":"HN","iso3":"HND","admin_name":"Cortés","capital":"","population":83032},{"city":"San Fernando","city_ascii":"San Fernando","lat":10.2833,"lng":-61.4667,"country":"Trinidad and Tobago","iso2":"TT","iso3":"TTO","admin_name":"San Fernando","capital":"admin","population":82997},{"city":"Wutiancun","city_ascii":"Wutiancun","lat":23.1852,"lng":116.4757,"country":"China","iso2":"CN","iso3":"CHN","admin_name":"Guangdong","capital":"","population":82986},{"city":"Mingxing","city_ascii":"Mingxing","lat":37.4264,"lng":112.5442,"country":"China","iso2":"CN","iso3":"CHN","admin_name":"Shanxi","capital":"minor","population":82981},{"city":"Mazatenango","city_ascii":"Mazatenango","lat":14.5333,"lng":-91.5,"country":"Guatemala","iso2":"GT","iso3":"GTM","admin_name":"Suchitepéquez","capital":"admin","population":82969},{"city":"Mānsa","city_ascii":"Mansa","lat":29.9906,"lng":75.3996,"country":"India","iso2":"IN","iso3":"IND","admin_name":"Punjab","capital":"","population":82956},{"city":"Mabinay","city_ascii":"Mabinay","lat":9.73,"lng":122.92,"country":"Philippines","iso2":"PH","iso3":"PHL","admin_name":"Negros Oriental","capital":"","population":82953},{"city":"Busto Arsizio","city_ascii":"Busto Arsizio","lat":45.6119,"lng":8.85,"country":"Italy","iso2":"IT","iso3":"ITA","admin_name":"Lombardy","capital":"","population":82951},{"city":"Nantingcun","city_ascii":"Nantingcun","lat":20.804,"lng":110.0826,"country":"China","iso2":"CN","iso3":"CHN","admin_name":"Guangdong","capital":"","population":82944},{"city":"David","city_ascii":"David","lat":8.4333,"lng":-82.4333,"country":"Panama","iso2":"PA","iso3":"PAN","admin_name":"Chiriquí","capital":"admin","population":82907},{"city":"Al Ḩayy","city_ascii":"Al Hayy","lat":32.1667,"lng":46.05,"country":"Iraq","iso2":"IQ","iso3":"IRQ","admin_name":"Wāsiţ","capital":"minor","population":82900},{"city":"Louga","city_ascii":"Louga","lat":15.6167,"lng":-16.2167,"country":"Senegal","iso2":"SN","iso3":"SEN","admin_name":"Louga","capital":"admin","population":82884},{"city":"Ufeyn","city_ascii":"Ufeyn","lat":10.65,"lng":49.75,"country":"Somalia","iso2":"SO","iso3":"SOM","admin_name":"Bari","capital":"","population":82850},{"city":"Ji’an","city_ascii":"Ji'an","lat":23.95,"lng":121.5722,"country":"Taiwan","iso2":"TW","iso3":"TWN","admin_name":"Hualien","capital":"","population":82840},{"city":"Wadala Sandhuan","city_ascii":"Wadala Sandhuan","lat":32.1833,"lng":74.4,"country":"Pakistan","iso2":"PK","iso3":"PAK","admin_name":"Punjab","capital":"","population":82835},{"city":"Warwick","city_ascii":"Warwick","lat":41.7062,"lng":-71.4334,"country":"United States","iso2":"US","iso3":"USA","admin_name":"Rhode Island","capital":"","population":82783},{"city":"Jackson","city_ascii":"Jackson","lat":42.2431,"lng":-84.4038,"country":"United States","iso2":"US","iso3":"USA","admin_name":"Michigan","capital":"","population":82775},{"city":"Bayeux","city_ascii":"Bayeux","lat":-7.1333,"lng":-34.9333,"country":"Brazil","iso2":"BR","iso3":"BRA","admin_name":"Paraíba","capital":"minor","population":82742},{"city":"Stockton-on-Tees","city_ascii":"Stockton-on-Tees","lat":54.57,"lng":-1.32,"country":"United Kingdom","iso2":"GB","iso3":"GBR","admin_name":"Stockton-on-Tees","capital":"","population":82729},{"city":"Nakatsu","city_ascii":"Nakatsu","lat":33.5983,"lng":131.1883,"country":"Japan","iso2":"JP","iso3":"JPN","admin_name":"Fukuoka","capital":"","population":82714},{"city":"Brindisi","city_ascii":"Brindisi","lat":40.6333,"lng":17.9333,"country":"Italy","iso2":"IT","iso3":"ITA","admin_name":"Puglia","capital":"minor","population":82694},{"city":"Cranston","city_ascii":"Cranston","lat":41.7658,"lng":-71.4858,"country":"United States","iso2":"US","iso3":"USA","admin_name":"Rhode Island","capital":"","population":82691},{"city":"Shīrvān","city_ascii":"Shirvan","lat":37.4006,"lng":57.9278,"country":"Iran","iso2":"IR","iso3":"IRN","admin_name":"Khorāsān-e Shomālī","capital":"minor","population":82689},{"city":"Tanjay","city_ascii":"Tanjay","lat":9.52,"lng":123.16,"country":"Philippines","iso2":"PH","iso3":"PHL","admin_name":"Negros Oriental","capital":"","population":82642},{"city":"Chingleput","city_ascii":"Chingleput","lat":12.6918,"lng":79.9766,"country":"India","iso2":"IN","iso3":"IND","admin_name":"Tamil Nādu","capital":"","population":82608},{"city":"Jacobina","city_ascii":"Jacobina","lat":-11.1808,"lng":-40.5178,"country":"Brazil","iso2":"BR","iso3":"BRA","admin_name":"Bahia","capital":"minor","population":82590},{"city":"Mian Channun","city_ascii":"Mian Channun","lat":30.45,"lng":72.3667,"country":"Pakistan","iso2":"PK","iso3":"PAK","admin_name":"Punjab","capital":"","population":82586},{"city":"Manfalūţ","city_ascii":"Manfalut","lat":27.3167,"lng":30.9667,"country":"Egypt","iso2":"EG","iso3":"EGY","admin_name":"Asyūţ","capital":"","population":82585},{"city":"Rivadavia","city_ascii":"Rivadavia","lat":-31.5303,"lng":-68.5947,"country":"Argentina","iso2":"AR","iso3":"ARG","admin_name":"San Juan","capital":"minor","population":82582},{"city":"Rivadavia","city_ascii":"Rivadavia","lat":-33.1833,"lng":-68.4667,"country":"Argentina","iso2":"AR","iso3":"ARG","admin_name":"Mendoza","capital":"minor","population":82582},{"city":"Cruzeiro","city_ascii":"Cruzeiro","lat":-22.5772,"lng":-44.9583,"country":"Brazil","iso2":"BR","iso3":"BRA","admin_name":"São Paulo","capital":"","population":82571},{"city":"Chelghoum el Aïd","city_ascii":"Chelghoum el Aid","lat":36.1667,"lng":6.1667,"country":"Algeria","iso2":"DZ","iso3":"DZA","admin_name":"Mila","capital":"","population":82560},{"city":"Bhalwal","city_ascii":"Bhalwal","lat":32.2656,"lng":72.8994,"country":"Pakistan","iso2":"PK","iso3":"PAK","admin_name":"Punjab","capital":"","population":82556},{"city":"Largo","city_ascii":"Largo","lat":27.9088,"lng":-82.7712,"country":"United States","iso2":"US","iso3":"USA","admin_name":"Florida","capital":"","population":82541},{"city":"Calatrava","city_ascii":"Calatrava","lat":10.6,"lng":123.48,"country":"Philippines","iso2":"PH","iso3":"PHL","admin_name":"Negros Occidental","capital":"","population":82540},{"city":"Pontevedra","city_ascii":"Pontevedra","lat":42.4333,"lng":-8.6333,"country":"Spain","iso2":"ES","iso3":"ESP","admin_name":"Galicia","capital":"minor","population":82535},{"city":"Wuyi","city_ascii":"Wuyi","lat":37.7965,"lng":115.892,"country":"China","iso2":"CN","iso3":"CHN","admin_name":"Hebei","capital":"minor","population":82526},{"city":"Chulucanas","city_ascii":"Chulucanas","lat":-5.0961,"lng":-80.1647,"country":"Peru","iso2":"PE","iso3":"PER","admin_name":"Piura","capital":"","population":82521},{"city":"El Estor","city_ascii":"El Estor","lat":15.5333,"lng":-89.35,"country":"Guatemala","iso2":"GT","iso3":"GTM","admin_name":"Izabal","capital":"minor","population":82491},{"city":"Edmonton","city_ascii":"Edmonton","lat":51.6154,"lng":-0.0708,"country":"United Kingdom","iso2":"GB","iso3":"GBR","admin_name":"Enfield","capital":"","population":82472},{"city":"Velbert","city_ascii":"Velbert","lat":51.3333,"lng":7.05,"country":"Germany","iso2":"DE","iso3":"DEU","admin_name":"North Rhine-Westphalia","capital":"","population":82445},{"city":"Cukai","city_ascii":"Cukai","lat":4.2332,"lng":103.4479,"country":"Malaysia","iso2":"MY","iso3":"MYS","admin_name":"Terengganu","capital":"","population":82425},{"city":"Miami Beach","city_ascii":"Miami Beach","lat":25.8171,"lng":-80.1396,"country":"United States","iso2":"US","iso3":"USA","admin_name":"Florida","capital":"","population":82400},{"city":"Chaykovskiy","city_ascii":"Chaykovskiy","lat":56.7667,"lng":54.15,"country":"Russia","iso2":"RU","iso3":"RUS","admin_name":"Permskiy Kray","capital":"","population":82382},{"city":"Sabaneta","city_ascii":"Sabaneta","lat":6.15,"lng":-75.6,"country":"Colombia","iso2":"CO","iso3":"COL","admin_name":"Antioquia","capital":"minor","population":82375},{"city":"Oleksandriia","city_ascii":"Oleksandriia","lat":48.6667,"lng":33.1167,"country":"Ukraine","iso2":"UA","iso3":"UKR","admin_name":"Kirovohradska Oblast","capital":"minor","population":82345},{"city":"Owariasahi","city_ascii":"Owariasahi","lat":35.2165,"lng":137.0354,"country":"Japan","iso2":"JP","iso3":"JPN","admin_name":"Aichi","capital":"","population":82336},{"city":"Shikokuchūō","city_ascii":"Shikokuchuo","lat":33.9833,"lng":133.55,"country":"Japan","iso2":"JP","iso3":"JPN","admin_name":"Ehime","capital":"","population":82320},{"city":"Alhambra","city_ascii":"Alhambra","lat":34.084,"lng":-118.1355,"country":"United States","iso2":"US","iso3":"USA","admin_name":"California","capital":"","population":82295},{"city":"Kuznetsk","city_ascii":"Kuznetsk","lat":53.1167,"lng":46.6,"country":"Russia","iso2":"RU","iso3":"RUS","admin_name":"Penzenskaya Oblast’","capital":"","population":82276},{"city":"Deurne","city_ascii":"Deurne","lat":51.2247,"lng":4.4625,"country":"Belgium","iso2":"BE","iso3":"BEL","admin_name":"Flanders","capital":"","population":82270},{"city":"Ōmihachiman","city_ascii":"Omihachiman","lat":35.1283,"lng":136.0981,"country":"Japan","iso2":"JP","iso3":"JPN","admin_name":"Shiga","capital":"","population":82233},{"city":"Johns Creek","city_ascii":"Johns Creek","lat":34.0333,"lng":-84.2027,"country":"United States","iso2":"US","iso3":"USA","admin_name":"Georgia","capital":"","population":82230},{"city":"Puerto Iguazú","city_ascii":"Puerto Iguazu","lat":-25.6,"lng":-54.5667,"country":"Argentina","iso2":"AR","iso3":"ARG","admin_name":"Misiones","capital":"","population":82227},{"city":"Nueva Concepción","city_ascii":"Nueva Concepcion","lat":14.1997,"lng":-91.2997,"country":"Guatemala","iso2":"GT","iso3":"GTM","admin_name":"Escuintla","capital":"minor","population":82216},{"city":"Macaíba","city_ascii":"Macaiba","lat":-5.8578,"lng":-35.3539,"country":"Brazil","iso2":"BR","iso3":"BRA","admin_name":"Rio Grande do Norte","capital":"minor","population":82212},{"city":"Uman","city_ascii":"Uman","lat":48.75,"lng":30.2167,"country":"Ukraine","iso2":"UA","iso3":"UKR","admin_name":"Cherkaska Oblast","capital":"minor","population":82154},{"city":"Saint Albans","city_ascii":"Saint Albans","lat":51.755,"lng":-0.336,"country":"United Kingdom","iso2":"GB","iso3":"GBR","admin_name":"Hertfordshire","capital":"","population":82146},{"city":"Mountain View","city_ascii":"Mountain View","lat":37.4001,"lng":-122.0796,"country":"United States","iso2":"US","iso3":"USA","admin_name":"California","capital":"","population":82132},{"city":"Quixeramobim","city_ascii":"Quixeramobim","lat":-5.2,"lng":-39.2833,"country":"Brazil","iso2":"BR","iso3":"BRA","admin_name":"Ceará","capital":"minor","population":82122},{"city":"Bekobod","city_ascii":"Bekobod","lat":40.2167,"lng":69.2167,"country":"Uzbekistan","iso2":"UZ","iso3":"UZB","admin_name":"Toshkent","capital":"","population":82082},{"city":"Tacaná","city_ascii":"Tacana","lat":15.2414,"lng":-92.0683,"country":"Guatemala","iso2":"GT","iso3":"GTM","admin_name":"San Marcos","capital":"minor","population":82079},{"city":"Harlow","city_ascii":"Harlow","lat":51.779,"lng":0.128,"country":"United Kingdom","iso2":"GB","iso3":"GBR","admin_name":"Essex","capital":"","population":82059},{"city":"Carmen","city_ascii":"Carmen","lat":7.3606,"lng":125.7064,"country":"Philippines","iso2":"PH","iso3":"PHL","admin_name":"Davao del Norte","capital":"","population":82018},{"city":"Burnley","city_ascii":"Burnley","lat":53.789,"lng":-2.248,"country":"United Kingdom","iso2":"GB","iso3":"GBR","admin_name":"Lancashire","capital":"","population":82002},{"city":"Ust’-Ilimsk","city_ascii":"Ust'-Ilimsk","lat":58,"lng":102.6667,"country":"Russia","iso2":"RU","iso3":"RUS","admin_name":"Irkutskaya Oblast’","capital":"","population":81976},{"city":"Salisbury","city_ascii":"Salisbury","lat":38.3756,"lng":-75.5865,"country":"United States","iso2":"US","iso3":"USA","admin_name":"Maryland","capital":"","population":81921},{"city":"Jepara","city_ascii":"Jepara","lat":-6.5333,"lng":110.6667,"country":"Indonesia","iso2":"ID","iso3":"IDN","admin_name":"Jawa Tengah","capital":"minor","population":81920},{"city":"Redditch","city_ascii":"Redditch","lat":52.3,"lng":-1.9333,"country":"United Kingdom","iso2":"GB","iso3":"GBR","admin_name":"Worcestershire","capital":"","population":81919},{"city":"Saunda","city_ascii":"Saunda","lat":23.66,"lng":85.35,"country":"India","iso2":"IN","iso3":"IND","admin_name":"Jhārkhand","capital":"","population":81915},{"city":"Morgantown","city_ascii":"Morgantown","lat":39.6383,"lng":-79.9464,"country":"United States","iso2":"US","iso3":"USA","admin_name":"West Virginia","capital":"","population":81912},{"city":"Kongjiazhuangcun","city_ascii":"Kongjiazhuangcun","lat":40.7536,"lng":114.7237,"country":"China","iso2":"CN","iso3":"CHN","admin_name":"Hebei","capital":"","population":81909},{"city":"Norderstedt","city_ascii":"Norderstedt","lat":53.7064,"lng":10.0103,"country":"Germany","iso2":"DE","iso3":"DEU","admin_name":"Schleswig-Holstein","capital":"","population":81880},{"city":"Ashoknagar","city_ascii":"Ashoknagar","lat":24.58,"lng":77.73,"country":"India","iso2":"IN","iso3":"IND","admin_name":"Madhya Pradesh","capital":"","population":81828},{"city":"Silver Spring","city_ascii":"Silver Spring","lat":39.0028,"lng":-77.0207,"country":"United States","iso2":"US","iso3":"USA","admin_name":"Maryland","capital":"","population":81808},{"city":"Ubay","city_ascii":"Ubay","lat":10.056,"lng":124.4729,"country":"Philippines","iso2":"PH","iso3":"PHL","admin_name":"Bohol","capital":"","population":81799},{"city":"Yurga","city_ascii":"Yurga","lat":55.7231,"lng":84.8861,"country":"Russia","iso2":"RU","iso3":"RUS","admin_name":"Kemerovskaya Oblast’","capital":"","population":81759},{"city":"Bhaktapur","city_ascii":"Bhaktapur","lat":27.6722,"lng":85.4278,"country":"Nepal","iso2":"NP","iso3":"NPL","admin_name":"","capital":"","population":81748},{"city":"Banco Filipino International Village","city_ascii":"Banco Filipino International Village","lat":14.4499,"lng":120.9996,"country":"Philippines","iso2":"PH","iso3":"PHL","admin_name":"Las Piñas","capital":"","population":81739},{"city":"Layton","city_ascii":"Layton","lat":41.077,"lng":-111.962,"country":"United States","iso2":"US","iso3":"USA","admin_name":"Utah","capital":"","population":81726},{"city":"Bilecik","city_ascii":"Bilecik","lat":40.1431,"lng":29.9792,"country":"Turkey","iso2":"TR","iso3":"TUR","admin_name":"Bilecik","capital":"admin","population":81723},{"city":"Yıldız","city_ascii":"Yildiz","lat":41.6344,"lng":32.3375,"country":"Turkey","iso2":"TR","iso3":"TUR","admin_name":"Bartın","capital":"","population":81692},{"city":"Gürgenpınarı","city_ascii":"Gurgenpinari","lat":41.6344,"lng":32.3375,"country":"Turkey","iso2":"TR","iso3":"TUR","admin_name":"Bartın","capital":"","population":81692},{"city":"Uzungöz","city_ascii":"Uzungoz","lat":41.6344,"lng":32.3375,"country":"Turkey","iso2":"TR","iso3":"TUR","admin_name":"Bartın","capital":"","population":81692},{"city":"Lucerne","city_ascii":"Lucerne","lat":47.05,"lng":8.3,"country":"Switzerland","iso2":"CH","iso3":"CHE","admin_name":"Luzern","capital":"admin","population":81691},{"city":"Siasi","city_ascii":"Siasi","lat":5.5462,"lng":120.8145,"country":"Philippines","iso2":"PH","iso3":"PHL","admin_name":"Sulu","capital":"","population":81689},{"city":"Concórdia","city_ascii":"Concordia","lat":-27.2339,"lng":-52.0278,"country":"Brazil","iso2":"BR","iso3":"BRA","admin_name":"Santa Catarina","capital":"","population":81646},{"city":"Watampone","city_ascii":"Watampone","lat":-4.5386,"lng":120.3297,"country":"Indonesia","iso2":"ID","iso3":"IDN","admin_name":"Sulawesi Selatan","capital":"minor","population":81629},{"city":"Springfield","city_ascii":"Springfield","lat":39.93,"lng":-83.7959,"country":"United States","iso2":"US","iso3":"USA","admin_name":"Ohio","capital":"","population":81620},{"city":"Kātoya","city_ascii":"Katoya","lat":23.65,"lng":88.13,"country":"India","iso2":"IN","iso3":"IND","admin_name":"West Bengal","capital":"","population":81615},{"city":"An Khê","city_ascii":"An Khe","lat":13.9531,"lng":108.6569,"country":"Vietnam","iso2":"VN","iso3":"VNM","admin_name":"Gia Lai","capital":"","population":81600},{"city":"Paranavaí","city_ascii":"Paranavai","lat":-23.0728,"lng":-52.465,"country":"Brazil","iso2":"BR","iso3":"BRA","admin_name":"Paraná","capital":"","population":81590},{"city":"Muroran","city_ascii":"Muroran","lat":42.3167,"lng":140.9667,"country":"Japan","iso2":"JP","iso3":"JPN","admin_name":"Hokkaidō","capital":"","population":81580},{"city":"Timóteo","city_ascii":"Timoteo","lat":-19.5828,"lng":-42.6439,"country":"Brazil","iso2":"BR","iso3":"BRA","admin_name":"Minas Gerais","capital":"","population":81579},{"city":"Apizaco","city_ascii":"Apizaco","lat":19.4167,"lng":-98.1333,"country":"Mexico","iso2":"MX","iso3":"MEX","admin_name":"Tlaxcala","capital":"minor","population":81565},{"city":"Hukou","city_ascii":"Hukou","lat":24.9,"lng":121.05,"country":"Taiwan","iso2":"TW","iso3":"TWN","admin_name":"Hsinchu","capital":"","population":81550},{"city":"São Sebastião","city_ascii":"Sao Sebastiao","lat":-23.8078,"lng":-45.4027,"country":"Brazil","iso2":"BR","iso3":"BRA","admin_name":"São Paulo","capital":"","population":81540},{"city":"Courbevoic","city_ascii":"Courbevoic","lat":48.8978,"lng":2.2531,"country":"France","iso2":"FR","iso3":"FRA","admin_name":"Île-de-France","capital":"","population":81516},{"city":"Purmerend","city_ascii":"Purmerend","lat":52.5,"lng":4.95,"country":"Netherlands","iso2":"NL","iso3":"NLD","admin_name":"Noord-Holland","capital":"minor","population":81515},{"city":"Dar el Beïda","city_ascii":"Dar el Beida","lat":36.7142,"lng":3.2125,"country":"Algeria","iso2":"DZ","iso3":"DZA","admin_name":"Alger","capital":"","population":81509},{"city":"Imam Qasim","city_ascii":"Imam Qasim","lat":32.3014,"lng":44.6892,"country":"Iraq","iso2":"IQ","iso3":"IRQ","admin_name":"Bābil","capital":"","population":81500},{"city":"Lakewood","city_ascii":"Lakewood","lat":33.8471,"lng":-118.1222,"country":"United States","iso2":"US","iso3":"USA","admin_name":"California","capital":"","population":81499},{"city":"Kentaū","city_ascii":"Kentau","lat":43.5167,"lng":68.5167,"country":"Kazakhstan","iso2":"KZ","iso3":"KAZ","admin_name":"Türkistan","capital":"minor","population":81484},{"city":"Remedios de Escalada","city_ascii":"Remedios de Escalada","lat":-34.7167,"lng":-58.4,"country":"Argentina","iso2":"AR","iso3":"ARG","admin_name":"Buenos Aires","capital":"","population":81465},{"city":"Xicotepec de Juárez","city_ascii":"Xicotepec de Juarez","lat":20.3,"lng":-97.9667,"country":"Mexico","iso2":"MX","iso3":"MEX","admin_name":"Puebla","capital":"","population":81455},{"city":"Anapa","city_ascii":"Anapa","lat":44.8944,"lng":37.3167,"country":"Russia","iso2":"RU","iso3":"RUS","admin_name":"Krasnodarskiy Kray","capital":"minor","population":81447},{"city":"Fiumicino","city_ascii":"Fiumicino","lat":41.7667,"lng":12.2333,"country":"Italy","iso2":"IT","iso3":"ITA","admin_name":"Lazio","capital":"","population":81426},{"city":"Afşin","city_ascii":"Afsin","lat":38.2464,"lng":36.9186,"country":"Turkey","iso2":"TR","iso3":"TUR","admin_name":"Kahramanmaraş","capital":"minor","population":81423},{"city":"Shuibian","city_ascii":"Shuibian","lat":24.1263,"lng":112.7668,"country":"China","iso2":"CN","iso3":"CHN","admin_name":"Guangdong","capital":"","population":81413},{"city":"Kadi","city_ascii":"Kadi","lat":23.3009,"lng":72.3322,"country":"India","iso2":"IN","iso3":"IND","admin_name":"Gujarāt","capital":"","population":81404},{"city":"Valdemoro","city_ascii":"Valdemoro","lat":40.1908,"lng":-3.6742,"country":"Spain","iso2":"ES","iso3":"ESP","admin_name":"Madrid","capital":"","population":81394},{"city":"Chapadinha","city_ascii":"Chapadinha","lat":-3.7419,"lng":-43.36,"country":"Brazil","iso2":"BR","iso3":"BRA","admin_name":"Maranhão","capital":"minor","population":81386},{"city":"Xiedian","city_ascii":"Xiedian","lat":35.419,"lng":110.8281,"country":"China","iso2":"CN","iso3":"CHN","admin_name":"Shanxi","capital":"minor","population":81386},{"city":"Matalam","city_ascii":"Matalam","lat":7.08,"lng":124.9,"country":"Philippines","iso2":"PH","iso3":"PHL","admin_name":"Cotabato","capital":"","population":81355},{"city":"Kimitsu","city_ascii":"Kimitsu","lat":35.3304,"lng":139.9027,"country":"Japan","iso2":"JP","iso3":"JPN","admin_name":"Chiba","capital":"","population":81355},{"city":"Grosseto","city_ascii":"Grosseto","lat":42.7667,"lng":11.1,"country":"Italy","iso2":"IT","iso3":"ITA","admin_name":"Tuscany","capital":"minor","population":81321},{"city":"Buhi","city_ascii":"Buhi","lat":13.4347,"lng":123.5167,"country":"Philippines","iso2":"PH","iso3":"PHL","admin_name":"Camarines Sur","capital":"","population":81306},{"city":"Athi River","city_ascii":"Athi River","lat":-1.45,"lng":36.9833,"country":"Kenya","iso2":"KE","iso3":"KEN","admin_name":"Machakos","capital":"","population":81302},{"city":"Nowy Sącz","city_ascii":"Nowy Sacz","lat":49.6239,"lng":20.6972,"country":"Poland","iso2":"PL","iso3":"POL","admin_name":"Małopolskie","capital":"minor","population":81281},{"city":"Florence","city_ascii":"Florence","lat":34.8303,"lng":-87.6655,"country":"United States","iso2":"US","iso3":"USA","admin_name":"Alabama","capital":"","population":81268},{"city":"San José de las Lajas","city_ascii":"San Jose de las Lajas","lat":22.9678,"lng":-82.1558,"country":"Cuba","iso2":"CU","iso3":"CUB","admin_name":"Mayabeque","capital":"admin","population":81261},{"city":"Pacatuba","city_ascii":"Pacatuba","lat":-3.9839,"lng":-38.62,"country":"Brazil","iso2":"BR","iso3":"BRA","admin_name":"Ceará","capital":"minor","population":81238},{"city":"Lambunao","city_ascii":"Lambunao","lat":11.05,"lng":122.48,"country":"Philippines","iso2":"PH","iso3":"PHL","admin_name":"Iloilo","capital":"","population":81236},{"city":"Bulacan","city_ascii":"Bulacan","lat":14.7928,"lng":120.8789,"country":"Philippines","iso2":"PH","iso3":"PHL","admin_name":"Bulacan","capital":"","population":81232},{"city":"Novouralsk","city_ascii":"Novouralsk","lat":57.25,"lng":60.0833,"country":"Russia","iso2":"RU","iso3":"RUS","admin_name":"Sverdlovskaya Oblast’","capital":"","population":81202},{"city":"Mannārgudi","city_ascii":"Mannargudi","lat":10.6653,"lng":79.4521,"country":"India","iso2":"IN","iso3":"IND","admin_name":"Tamil Nādu","capital":"","population":81150},{"city":"Port of Spain","city_ascii":"Port of Spain","lat":10.6667,"lng":-61.5167,"country":"Trinidad and Tobago","iso2":"TT","iso3":"TTO","admin_name":"Port of Spain","capital":"primary","population":81142},{"city":"Orhangazi","city_ascii":"Orhangazi","lat":40.4889,"lng":29.3083,"country":"Turkey","iso2":"TR","iso3":"TUR","admin_name":"Bursa","capital":"minor","population":81110},{"city":"Hengkou","city_ascii":"Hengkou","lat":32.7378,"lng":108.7695,"country":"China","iso2":"CN","iso3":"CHN","admin_name":"Shaanxi","capital":"","population":81086},{"city":"Itá","city_ascii":"Ita","lat":-25.4833,"lng":-57.35,"country":"Paraguay","iso2":"PY","iso3":"PRY","admin_name":"Central","capital":"","population":81084},{"city":"Folsom","city_ascii":"Folsom","lat":38.6668,"lng":-121.1422,"country":"United States","iso2":"US","iso3":"USA","admin_name":"California","capital":"","population":81077},{"city":"Kapalong","city_ascii":"Kapalong","lat":7.5854,"lng":125.7052,"country":"Philippines","iso2":"PH","iso3":"PHL","admin_name":"Davao del Norte","capital":"","population":81068},{"city":"Salina Cruz","city_ascii":"Salina Cruz","lat":16.1833,"lng":-95.2,"country":"Mexico","iso2":"MX","iso3":"MEX","admin_name":"Oaxaca","capital":"","population":81063},{"city":"Panzos","city_ascii":"Panzos","lat":15.4,"lng":-89.6667,"country":"Guatemala","iso2":"GT","iso3":"GTM","admin_name":"Alta Verapaz","capital":"minor","population":81063},{"city":"Tecate","city_ascii":"Tecate","lat":32.5722,"lng":-116.6403,"country":"Mexico","iso2":"MX","iso3":"MEX","admin_name":"Baja California","capital":"minor","population":81059},{"city":"Balrāmpur","city_ascii":"Balrampur","lat":27.43,"lng":82.18,"country":"India","iso2":"IN","iso3":"IND","admin_name":"Uttar Pradesh","capital":"","population":81054},{"city":"Baalbek","city_ascii":"Baalbek","lat":34.0063,"lng":36.2073,"country":"Lebanon","iso2":"LB","iso3":"LBN","admin_name":"Baalbek-Hermel","capital":"admin","population":81052},{"city":"Hengelo","city_ascii":"Hengelo","lat":52.2653,"lng":6.7931,"country":"Netherlands","iso2":"NL","iso3":"NLD","admin_name":"Overijssel","capital":"minor","population":81049},{"city":"Kashiwazaki","city_ascii":"Kashiwazaki","lat":37.3719,"lng":138.559,"country":"Japan","iso2":"JP","iso3":"JPN","admin_name":"Niigata","capital":"","population":81027},{"city":"Tallaght","city_ascii":"Tallaght","lat":53.2886,"lng":-6.3572,"country":"Ireland","iso2":"IE","iso3":"IRL","admin_name":"South Dublin","capital":"admin","population":81022},{"city":"Khamānon Kalān","city_ascii":"Khamanon Kalan","lat":30.82,"lng":76.35,"country":"India","iso2":"IN","iso3":"IND","admin_name":"Punjab","capital":"","population":80991},{"city":"La Louvière","city_ascii":"La Louviere","lat":50.4667,"lng":4.1833,"country":"Belgium","iso2":"BE","iso3":"BEL","admin_name":"Wallonia","capital":"","population":80986},{"city":"Launceston","city_ascii":"Launceston","lat":-41.4419,"lng":147.145,"country":"Australia","iso2":"AU","iso3":"AUS","admin_name":"Tasmania","capital":"","population":80943},{"city":"Madera","city_ascii":"Madera","lat":36.963,"lng":-120.0778,"country":"United States","iso2":"US","iso3":"USA","admin_name":"California","capital":"","population":80937},{"city":"Dera Allahyar","city_ascii":"Dera Allahyar","lat":28.3769,"lng":68.3506,"country":"Pakistan","iso2":"PK","iso3":"PAK","admin_name":"Balochistan","capital":"minor","population":80908},{"city":"Gonder","city_ascii":"Gonder","lat":12.6075,"lng":37.4592,"country":"Ethiopia","iso2":"ET","iso3":"ETH","admin_name":"Āmara","capital":"","population":80886},{"city":"Campo Limpo","city_ascii":"Campo Limpo","lat":-23.2064,"lng":-46.7844,"country":"Brazil","iso2":"BR","iso3":"BRA","admin_name":"São Paulo","capital":"","population":80847},{"city":"Gaoliying Ercun","city_ascii":"Gaoliying Ercun","lat":40.1578,"lng":116.4933,"country":"China","iso2":"CN","iso3":"CHN","admin_name":"Beijing","capital":"","population":80840},{"city":"New Rochelle","city_ascii":"New Rochelle","lat":40.9304,"lng":-73.7836,"country":"United States","iso2":"US","iso3":"USA","admin_name":"New York","capital":"","population":80828},{"city":"Rafaḩ","city_ascii":"Rafah","lat":31.2808,"lng":34.2414,"country":"Egypt","iso2":"EG","iso3":"EGY","admin_name":"Shamāl Sīnā’","capital":"minor","population":80823},{"city":"Ahenkro","city_ascii":"Ahenkro","lat":7.1164,"lng":0.3242,"country":"Ghana","iso2":"GH","iso3":"GHA","admin_name":"Oti","capital":"","population":80813},{"city":"Yonezawa","city_ascii":"Yonezawa","lat":37.9222,"lng":140.1168,"country":"Japan","iso2":"JP","iso3":"JPN","admin_name":"Yamagata","capital":"","population":80795},{"city":"Orihuela","city_ascii":"Orihuela","lat":38.0856,"lng":-0.9469,"country":"Spain","iso2":"ES","iso3":"ESP","admin_name":"Valencia","capital":"","population":80784},{"city":"Shiji","city_ascii":"Shiji","lat":23.5607,"lng":112.963,"country":"China","iso2":"CN","iso3":"CHN","admin_name":"Guangdong","capital":"","population":80773},{"city":"Gobernador Gálvez","city_ascii":"Gobernador Galvez","lat":-33.0256,"lng":-60.6336,"country":"Argentina","iso2":"AR","iso3":"ARG","admin_name":"Santa Fe","capital":"","population":80769},{"city":"San Francisco","city_ascii":"San Francisco","lat":8.51,"lng":125.98,"country":"Philippines","iso2":"PH","iso3":"PHL","admin_name":"Agusan del Sur","capital":"","population":80760},{"city":"Malapatan","city_ascii":"Malapatan","lat":5.97,"lng":125.28,"country":"Philippines","iso2":"PH","iso3":"PHL","admin_name":"Sarangani","capital":"","population":80741},{"city":"Balçova","city_ascii":"Balcova","lat":38.3856,"lng":27.0581,"country":"Turkey","iso2":"TR","iso3":"TUR","admin_name":"İzmir","capital":"","population":80721},{"city":"Barili","city_ascii":"Barili","lat":10.12,"lng":123.53,"country":"Philippines","iso2":"PH","iso3":"PHL","admin_name":"Cebu","capital":"","population":80715},{"city":"Wujindian","city_ascii":"Wujindian","lat":31.9839,"lng":112.7703,"country":"China","iso2":"CN","iso3":"CHN","admin_name":"Hubei","capital":"","population":80714},{"city":"Meybod","city_ascii":"Meybod","lat":32.2444,"lng":54.0186,"country":"Iran","iso2":"IR","iso3":"IRN","admin_name":"Yazd","capital":"minor","population":80712},{"city":"Yanggao","city_ascii":"Yanggao","lat":21.3298,"lng":109.9177,"country":"China","iso2":"CN","iso3":"CHN","admin_name":"Guangdong","capital":"","population":80681},{"city":"Bargarh","city_ascii":"Bargarh","lat":21.3333,"lng":83.6167,"country":"India","iso2":"IN","iso3":"IND","admin_name":"Odisha","capital":"","population":80625},{"city":"Curvelo","city_ascii":"Curvelo","lat":-18.7558,"lng":-44.4308,"country":"Brazil","iso2":"BR","iso3":"BRA","admin_name":"Minas Gerais","capital":"","population":80616},{"city":"San Cristóbal Verapaz","city_ascii":"San Cristobal Verapaz","lat":15.365,"lng":-90.4792,"country":"Guatemala","iso2":"GT","iso3":"GTM","admin_name":"Alta Verapaz","capital":"minor","population":80613},{"city":"Comitancillo","city_ascii":"Comitancillo","lat":15.0833,"lng":-91.7167,"country":"Guatemala","iso2":"GT","iso3":"GTM","admin_name":"San Marcos","capital":"minor","population":80612},{"city":"Seropédica","city_ascii":"Seropedica","lat":-22.7439,"lng":-43.7078,"country":"Brazil","iso2":"BR","iso3":"BRA","admin_name":"Rio de Janeiro","capital":"","population":80596},{"city":"Parma","city_ascii":"Parma","lat":41.3843,"lng":-81.7286,"country":"United States","iso2":"US","iso3":"USA","admin_name":"Ohio","capital":"","population":80587},{"city":"Terre Haute","city_ascii":"Terre Haute","lat":39.466,"lng":-87.3751,"country":"United States","iso2":"US","iso3":"USA","admin_name":"Indiana","capital":"","population":80567},{"city":"San Ramón","city_ascii":"San Ramon","lat":10.2182,"lng":-84.5992,"country":"Costa Rica","iso2":"CR","iso3":"CRI","admin_name":"Alajuela","capital":"","population":80566},{"city":"Bulanık","city_ascii":"Bulanik","lat":39.095,"lng":42.2667,"country":"Turkey","iso2":"TR","iso3":"TUR","admin_name":"Muş","capital":"minor","population":80540},{"city":"Samā’il","city_ascii":"Sama'il","lat":23.3,"lng":57.9833,"country":"Oman","iso2":"OM","iso3":"OMN","admin_name":"Ad Dākhilīyah","capital":"","population":80538},{"city":"Dahegām","city_ascii":"Dahegam","lat":23.17,"lng":72.82,"country":"India","iso2":"IN","iso3":"IND","admin_name":"Gujarāt","capital":"","population":80532},{"city":"Torre del Greco","city_ascii":"Torre del Greco","lat":40.7833,"lng":14.3667,"country":"Italy","iso2":"IT","iso3":"ITA","admin_name":"Campania","capital":"","population":80508},{"city":"Randfontein","city_ascii":"Randfontein","lat":-26.1797,"lng":27.7042,"country":"South Africa","iso2":"ZA","iso3":"ZAF","admin_name":"Gauteng","capital":"","population":80492},{"city":"Batley","city_ascii":"Batley","lat":53.7167,"lng":-1.6356,"country":"United Kingdom","iso2":"GB","iso3":"GBR","admin_name":"Kirklees","capital":"","population":80485},{"city":"Somerville","city_ascii":"Somerville","lat":42.3908,"lng":-71.1014,"country":"United States","iso2":"US","iso3":"USA","admin_name":"Massachusetts","capital":"","population":80464},{"city":"Ādīgala","city_ascii":"Adigala","lat":10.4236,"lng":42.2333,"country":"Ethiopia","iso2":"ET","iso3":"ETH","admin_name":"Sumalē","capital":"","population":80440},{"city":"Azov","city_ascii":"Azov","lat":47.1083,"lng":39.4181,"country":"Russia","iso2":"RU","iso3":"RUS","admin_name":"Rostovskaya Oblast’","capital":"minor","population":80428},{"city":"Nagaoka","city_ascii":"Nagaoka","lat":34.9269,"lng":135.6958,"country":"Japan","iso2":"JP","iso3":"JPN","admin_name":"Kyōto","capital":"","population":80423},{"city":"Calandala","city_ascii":"Calandala","lat":-9.0667,"lng":17.9,"country":"Angola","iso2":"AO","iso3":"AGO","admin_name":"Lunda-Norte","capital":"","population":80415},{"city":"Panjgur","city_ascii":"Panjgur","lat":26.9683,"lng":64.1014,"country":"Pakistan","iso2":"PK","iso3":"PAK","admin_name":"Balochistan","capital":"minor","population":80411},{"city":"Butterworth","city_ascii":"Butterworth","lat":5.3942,"lng":100.3664,"country":"Malaysia","iso2":"MY","iso3":"MYS","admin_name":"Pulau Pinang","capital":"","population":80378},{"city":"Tala","city_ascii":"Tala","lat":20.6667,"lng":-103.7,"country":"Mexico","iso2":"MX","iso3":"MEX","admin_name":"Jalisco","capital":"minor","population":80365},{"city":"Antehiroka","city_ascii":"Antehiroka","lat":-18.85,"lng":47.4833,"country":"Madagascar","iso2":"MG","iso3":"MDG","admin_name":"Antananarivo","capital":"","population":80360},{"city":"Oum el Bouaghi","city_ascii":"Oum el Bouaghi","lat":35.8775,"lng":7.1136,"country":"Algeria","iso2":"DZ","iso3":"DZA","admin_name":"Oum el Bouaghi","capital":"admin","population":80359},{"city":"Cabadbaran","city_ascii":"Cabadbaran","lat":9.12,"lng":125.53,"country":"Philippines","iso2":"PH","iso3":"PHL","admin_name":"Agusan del Norte","capital":"admin","population":80354},{"city":"Béziers","city_ascii":"Beziers","lat":43.3476,"lng":3.219,"country":"France","iso2":"FR","iso3":"FRA","admin_name":"Occitanie","capital":"minor","population":80341},{"city":"Tagoloan","city_ascii":"Tagoloan","lat":8.53,"lng":124.75,"country":"Philippines","iso2":"PH","iso3":"PHL","admin_name":"Misamis Oriental","capital":"","population":80319},{"city":"Kāmāreddipet","city_ascii":"Kamareddipet","lat":18.3205,"lng":78.337,"country":"India","iso2":"IN","iso3":"IND","admin_name":"Telangāna","capital":"","population":80315},{"city":"Zuwārah","city_ascii":"Zuwarah","lat":32.9333,"lng":12.0833,"country":"Libya","iso2":"LY","iso3":"LBY","admin_name":"An Nuqāţ al Khams","capital":"admin","population":80310},{"city":"Bafut","city_ascii":"Bafut","lat":6.0833,"lng":10.1,"country":"Cameroon","iso2":"CM","iso3":"CMR","admin_name":"North-West","capital":"","population":80305},{"city":"Tākestān","city_ascii":"Takestan","lat":36.0672,"lng":49.6958,"country":"Iran","iso2":"IR","iso3":"IRN","admin_name":"Qazvīn","capital":"minor","population":80299},{"city":"Arni","city_ascii":"Arni","lat":12.6677,"lng":79.2853,"country":"India","iso2":"IN","iso3":"IND","admin_name":"Tamil Nādu","capital":"","population":80275},{"city":"Echizen","city_ascii":"Echizen","lat":35.9035,"lng":136.1687,"country":"Japan","iso2":"JP","iso3":"JPN","admin_name":"Fukui","capital":"","population":80264},{"city":"Maravatío de Ocampo","city_ascii":"Maravatio de Ocampo","lat":19.8976,"lng":-100.45,"country":"Mexico","iso2":"MX","iso3":"MEX","admin_name":"Michoacán","capital":"minor","population":80258},{"city":"Lívingston","city_ascii":"Livingston","lat":15.83,"lng":-88.75,"country":"Guatemala","iso2":"GT","iso3":"GTM","admin_name":"Izabal","capital":"minor","population":80249},{"city":"Aquiraz","city_ascii":"Aquiraz","lat":-3.9,"lng":-38.3831,"country":"Brazil","iso2":"BR","iso3":"BRA","admin_name":"Ceará","capital":"minor","population":80243},{"city":"Kumbo","city_ascii":"Kumbo","lat":6.205,"lng":10.685,"country":"Cameroon","iso2":"CM","iso3":"CMR","admin_name":"North-West","capital":"","population":80212},{"city":"Bolpur","city_ascii":"Bolpur","lat":23.67,"lng":87.72,"country":"India","iso2":"IN","iso3":"IND","admin_name":"West Bengal","capital":"","population":80210},{"city":"Peruvancha","city_ascii":"Peruvancha","lat":17.1719,"lng":80.5839,"country":"India","iso2":"IN","iso3":"IND","admin_name":"Telangāna","capital":"","population":80199},{"city":"Sint-Niklaas","city_ascii":"Sint-Niklaas","lat":51.1667,"lng":4.1333,"country":"Belgium","iso2":"BE","iso3":"BEL","admin_name":"Flanders","capital":"minor","population":80167},{"city":"Flagstaff","city_ascii":"Flagstaff","lat":35.1872,"lng":-111.6194,"country":"United States","iso2":"US","iso3":"USA","admin_name":"Arizona","capital":"","population":80167},{"city":"Taroudannt","city_ascii":"Taroudannt","lat":30.471,"lng":-8.8806,"country":"Morocco","iso2":"MA","iso3":"MAR","admin_name":"Souss-Massa","capital":"","population":80149},{"city":"Namsan","city_ascii":"Namsan","lat":42.2275,"lng":129.2541,"country":"Korea, North","iso2":"KP","iso3":"PRK","admin_name":"Hambuk","capital":"minor","population":80146},{"city":"Gumlā","city_ascii":"Gumla","lat":23.0444,"lng":84.5417,"country":"India","iso2":"IN","iso3":"IND","admin_name":"Jhārkhand","capital":"","population":80129},{"city":"Simdega","city_ascii":"Simdega","lat":22.62,"lng":84.52,"country":"India","iso2":"IN","iso3":"IND","admin_name":"Jhārkhand","capital":"","population":80129},{"city":"San Andrés Cholula","city_ascii":"San Andres Cholula","lat":19.05,"lng":-98.3,"country":"Mexico","iso2":"MX","iso3":"MEX","admin_name":"Puebla","capital":"","population":80118},{"city":"Qŭnghirot","city_ascii":"Qunghirot","lat":43.0758,"lng":58.9067,"country":"Uzbekistan","iso2":"UZ","iso3":"UZB","admin_name":"Qoraqalpog‘iston","capital":"","population":80090},{"city":"Cachoeira do Sul","city_ascii":"Cachoeira do Sul","lat":-30.0392,"lng":-52.8939,"country":"Brazil","iso2":"BR","iso3":"BRA","admin_name":"Rio Grande do Sul","capital":"","population":80070},{"city":"Boynton Beach","city_ascii":"Boynton Beach","lat":26.5281,"lng":-80.0811,"country":"United States","iso2":"US","iso3":"USA","admin_name":"Florida","capital":"","population":80068},{"city":"Gamagōri","city_ascii":"Gamagori","lat":34.8431,"lng":137.2196,"country":"Japan","iso2":"JP","iso3":"JPN","admin_name":"Aichi","capital":"","population":80063},{"city":"Manmād","city_ascii":"Manmad","lat":20.251,"lng":74.439,"country":"India","iso2":"IN","iso3":"IND","admin_name":"Mahārāshtra","capital":"","population":80058},{"city":"Goiana","city_ascii":"Goiana","lat":-7.5608,"lng":-35.0028,"country":"Brazil","iso2":"BR","iso3":"BRA","admin_name":"Pernambuco","capital":"minor","population":80055},{"city":"Rubí","city_ascii":"Rubi","lat":41.4933,"lng":2.0325,"country":"Spain","iso2":"ES","iso3":"ESP","admin_name":"Catalonia","capital":"","population":80044},{"city":"Nabatîyé","city_ascii":"Nabatiye","lat":33.3833,"lng":35.45,"country":"Lebanon","iso2":"LB","iso3":"LBN","admin_name":"Nabatîyé","capital":"admin","population":80000},{"city":"Masallātah","city_ascii":"Masallatah","lat":32.5822,"lng":14.04,"country":"Libya","iso2":"LY","iso3":"LBY","admin_name":"Al Marqab","capital":"","population":80000},{"city":"Andahuaylas","city_ascii":"Andahuaylas","lat":-13.6575,"lng":-73.3833,"country":"Peru","iso2":"PE","iso3":"PER","admin_name":"Apurímac","capital":"","population":80000},{"city":"Kathri","city_ascii":"Kathri","lat":26.4583,"lng":68.3192,"country":"Pakistan","iso2":"PK","iso3":"PAK","admin_name":"Sindh","capital":"","population":80000},{"city":"Jamshoro","city_ascii":"Jamshoro","lat":25.4244,"lng":68.2811,"country":"Pakistan","iso2":"PK","iso3":"PAK","admin_name":"Sindh","capital":"minor","population":80000},{"city":"Khewra","city_ascii":"Khewra","lat":32.65,"lng":73.0167,"country":"Pakistan","iso2":"PK","iso3":"PAK","admin_name":"Punjab","capital":"","population":80000},{"city":"Zarzis","city_ascii":"Zarzis","lat":33.5,"lng":11.1167,"country":"Tunisia","iso2":"TN","iso3":"TUN","admin_name":"Médenine","capital":"","population":80000},{"city":"Puerto Ayacucho","city_ascii":"Puerto Ayacucho","lat":5.6631,"lng":-67.6264,"country":"Venezuela","iso2":"VE","iso3":"VEN","admin_name":"Amazonas","capital":"admin","population":80000},{"city":"San Carlos del Zulia","city_ascii":"San Carlos del Zulia","lat":9,"lng":-71.9333,"country":"Venezuela","iso2":"VE","iso3":"VEN","admin_name":"Zulia","capital":"minor","population":80000},{"city":"Koktokay","city_ascii":"Koktokay","lat":47.0004,"lng":89.4666,"country":"China","iso2":"CN","iso3":"CHN","admin_name":"Xinjiang","capital":"minor","population":80000},{"city":"Piro","city_ascii":"Piro","lat":25.33,"lng":84.42,"country":"India","iso2":"IN","iso3":"IND","admin_name":"Bihār","capital":"","population":80000},{"city":"Tall ‘Afar","city_ascii":"Tall `Afar","lat":36.3742,"lng":42.4433,"country":"Iraq","iso2":"IQ","iso3":"IRQ","admin_name":"Nīnawá","capital":"minor","population":80000},{"city":"Homestead","city_ascii":"Homestead","lat":25.4665,"lng":-80.4472,"country":"United States","iso2":"US","iso3":"USA","admin_name":"Florida","capital":"","population":79996},{"city":"Scunthorpe","city_ascii":"Scunthorpe","lat":53.5809,"lng":-0.6502,"country":"United Kingdom","iso2":"GB","iso3":"GBR","admin_name":"North Lincolnshire","capital":"","population":79977},{"city":"Polatsk","city_ascii":"Polatsk","lat":55.4833,"lng":28.8,"country":"Belarus","iso2":"BY","iso3":"BLR","admin_name":"Vitsyebskaya Voblasts’","capital":"minor","population":79960},{"city":"Newark","city_ascii":"Newark","lat":40.0706,"lng":-82.425,"country":"United States","iso2":"US","iso3":"USA","admin_name":"Ohio","capital":"","population":79959},{"city":"Mīt Salsīl","city_ascii":"Mit Salsil","lat":31.1667,"lng":31.8,"country":"Egypt","iso2":"EG","iso3":"EGY","admin_name":"Ad Daqahlīyah","capital":"","population":79957},{"city":"Bamberg","city_ascii":"Bamberg","lat":49.8914,"lng":10.8869,"country":"Germany","iso2":"DE","iso3":"DEU","admin_name":"Bavaria","capital":"minor","population":79935},{"city":"Plymouth","city_ascii":"Plymouth","lat":45.0225,"lng":-93.4617,"country":"United States","iso2":"US","iso3":"USA","admin_name":"Minnesota","capital":"","population":79918},{"city":"Turhal","city_ascii":"Turhal","lat":40.39,"lng":36.09,"country":"Turkey","iso2":"TR","iso3":"TUR","admin_name":"Tokat","capital":"minor","population":79916},{"city":"Ben Gardane","city_ascii":"Ben Gardane","lat":33.1389,"lng":11.2167,"country":"Tunisia","iso2":"TN","iso3":"TUN","admin_name":"Médenine","capital":"","population":79912},{"city":"Sefrou","city_ascii":"Sefrou","lat":33.83,"lng":-4.83,"country":"Morocco","iso2":"MA","iso3":"MAR","admin_name":"Fès-Meknès","capital":"","population":79887},{"city":"Kırklareli","city_ascii":"Kirklareli","lat":41.7347,"lng":27.2253,"country":"Turkey","iso2":"TR","iso3":"TUR","admin_name":"Kırklareli","capital":"admin","population":79884},{"city":"Pátzcuaro","city_ascii":"Patzcuaro","lat":19.5164,"lng":-101.6097,"country":"Mexico","iso2":"MX","iso3":"MEX","admin_name":"Michoacán","capital":"minor","population":79868},{"city":"San Jose","city_ascii":"San Jose","lat":13.8772,"lng":121.105,"country":"Philippines","iso2":"PH","iso3":"PHL","admin_name":"Batangas","capital":"","population":79868},{"city":"Drobeta-Turnu Severin","city_ascii":"Drobeta-Turnu Severin","lat":44.6333,"lng":22.65,"country":"Romania","iso2":"RO","iso3":"ROU","admin_name":"Mehedinţi","capital":"admin","population":79865},{"city":"Sokcho","city_ascii":"Sokcho","lat":38.2069,"lng":128.5919,"country":"Korea, South","iso2":"KR","iso3":"KOR","admin_name":"Gangwon","capital":"minor","population":79846},{"city":"Paco","city_ascii":"Paco","lat":14.583,"lng":120.983,"country":"Philippines","iso2":"PH","iso3":"PHL","admin_name":"Manila","capital":"","population":79839},{"city":"Kottagūdem","city_ascii":"Kottagudem","lat":17.55,"lng":80.63,"country":"India","iso2":"IN","iso3":"IND","admin_name":"Telangāna","capital":"","population":79819},{"city":"Idah","city_ascii":"Idah","lat":7.0978,"lng":6.7433,"country":"Nigeria","iso2":"NG","iso3":"NGA","admin_name":"Kogi","capital":"minor","population":79815},{"city":"Marsala","city_ascii":"Marsala","lat":37.7981,"lng":12.4342,"country":"Italy","iso2":"IT","iso3":"ITA","admin_name":"Sicilia","capital":"","population":79809},{"city":"Poblacion","city_ascii":"Poblacion","lat":6.8,"lng":124.63,"country":"Philippines","iso2":"PH","iso3":"PHL","admin_name":"Sultan Kudarat","capital":"minor","population":79739},{"city":"Anniston","city_ascii":"Anniston","lat":33.6712,"lng":-85.8135,"country":"United States","iso2":"US","iso3":"USA","admin_name":"Alabama","capital":"","population":79717},{"city":"Piatra Neamţ","city_ascii":"Piatra Neamt","lat":46.9275,"lng":26.3708,"country":"Romania","iso2":"RO","iso3":"ROU","admin_name":"Neamţ","capital":"admin","population":79679},{"city":"Ciudad Lerdo","city_ascii":"Ciudad Lerdo","lat":25.55,"lng":-103.5167,"country":"Mexico","iso2":"MX","iso3":"MEX","admin_name":"Durango","capital":"minor","population":79669},{"city":"Dessau-Rosslau","city_ascii":"","lat":51.8333,"lng":12.2333,"country":"Germany","iso2":"DE","iso3":"DEU","admin_name":"Saxony-Anhalt","capital":"minor","population":79655},{"city":"Tissamaharama","city_ascii":"Tissamaharama","lat":6.2833,"lng":81.2833,"country":"Sri Lanka","iso2":"LK","iso3":"LKA","admin_name":"Southern","capital":"","population":79618},{"city":"Akiruno","city_ascii":"Akiruno","lat":35.7289,"lng":139.2941,"country":"Japan","iso2":"JP","iso3":"JPN","admin_name":"Tōkyō","capital":"","population":79600},{"city":"Texarkana","city_ascii":"Texarkana","lat":33.45,"lng":-94.0847,"country":"United States","iso2":"US","iso3":"USA","admin_name":"Texas","capital":"","population":79570},{"city":"Patikul","city_ascii":"Patikul","lat":6.07,"lng":121.1,"country":"Philippines","iso2":"PH","iso3":"PHL","admin_name":"Sulu","capital":"","population":79564},{"city":"Ezpeleta","city_ascii":"Ezpeleta","lat":-34.7517,"lng":-58.2344,"country":"Argentina","iso2":"AR","iso3":"ARG","admin_name":"Buenos Aires","capital":"","population":79557},{"city":"Banī Mazār","city_ascii":"Bani Mazar","lat":28.5,"lng":30.8,"country":"Egypt","iso2":"EG","iso3":"EGY","admin_name":"Al Minyā","capital":"","population":79553},{"city":"Mahdia","city_ascii":"Mahdia","lat":35.5,"lng":11.0667,"country":"Tunisia","iso2":"TN","iso3":"TUN","admin_name":"Mahdia","capital":"admin","population":79545},{"city":"Vila do Conde","city_ascii":"Vila do Conde","lat":41.3528,"lng":-8.7444,"country":"Portugal","iso2":"PT","iso3":"PRT","admin_name":"Porto","capital":"minor","population":79533},{"city":"Krasnyi Luch","city_ascii":"Krasnyi Luch","lat":48.1333,"lng":38.9333,"country":"Ukraine","iso2":"UA","iso3":"UKR","admin_name":"Luhanska Oblast","capital":"","population":79533},{"city":"Cianorte","city_ascii":"Cianorte","lat":-23.6167,"lng":-52.6167,"country":"Brazil","iso2":"BR","iso3":"BRA","admin_name":"Paraná","capital":"","population":79527},{"city":"Tustin","city_ascii":"Tustin","lat":33.7311,"lng":-117.8107,"country":"United States","iso2":"US","iso3":"USA","admin_name":"California","capital":"","population":79514},{"city":"Belo Jardim","city_ascii":"Belo Jardim","lat":-8.3358,"lng":-36.4239,"country":"Brazil","iso2":"BR","iso3":"BRA","admin_name":"Pernambuco","capital":"","population":79507},{"city":"Neumünster","city_ascii":"Neumunster","lat":54.0714,"lng":9.99,"country":"Germany","iso2":"DE","iso3":"DEU","admin_name":"Schleswig-Holstein","capital":"minor","population":79502},{"city":"Xai","city_ascii":"Xai","lat":20.6914,"lng":101.9861,"country":"Laos","iso2":"LA","iso3":"LAO","admin_name":"Oudômxai","capital":"admin","population":79500},{"city":"Viana","city_ascii":"Viana","lat":-20.39,"lng":-40.3625,"country":"Brazil","iso2":"BR","iso3":"BRA","admin_name":"Espírito Santo","capital":"","population":79500},{"city":"Eséka","city_ascii":"Eseka","lat":3.65,"lng":10.7667,"country":"Cameroon","iso2":"CM","iso3":"CMR","admin_name":"Centre","capital":"","population":79500},{"city":"Döşemealtı","city_ascii":"Dosemealti","lat":37.0236,"lng":30.6011,"country":"Turkey","iso2":"TR","iso3":"TUR","admin_name":"Antalya","capital":"minor","population":79495},{"city":"Robles","city_ascii":"Robles","lat":10.35,"lng":123.07,"country":"Philippines","iso2":"PH","iso3":"PHL","admin_name":"Negros Occidental","capital":"","population":79492},{"city":"San Martín","city_ascii":"San Martin","lat":-33.0806,"lng":-68.4706,"country":"Argentina","iso2":"AR","iso3":"ARG","admin_name":"Mendoza","capital":"minor","population":79476},{"city":"Torres Vedras","city_ascii":"Torres Vedras","lat":39.0833,"lng":-9.2667,"country":"Portugal","iso2":"PT","iso3":"PRT","admin_name":"Lisboa","capital":"minor","population":79465},{"city":"Langarūd","city_ascii":"Langarud","lat":37.1956,"lng":50.1517,"country":"Iran","iso2":"IR","iso3":"IRN","admin_name":"Gīlān","capital":"minor","population":79445},{"city":"Pharr","city_ascii":"Pharr","lat":26.1685,"lng":-98.1904,"country":"United States","iso2":"US","iso3":"USA","admin_name":"Texas","capital":"","population":79434},{"city":"Senhor do Bonfim","city_ascii":"Senhor do Bonfim","lat":-10.45,"lng":-40.1833,"country":"Brazil","iso2":"BR","iso3":"BRA","admin_name":"Bahia","capital":"","population":79424},{"city":"Afgooye","city_ascii":"Afgooye","lat":2.1413,"lng":45.1169,"country":"Somalia","iso2":"SO","iso3":"SOM","admin_name":"Shabeellaha Hoose","capital":"minor","population":79400},{"city":"Klin","city_ascii":"Klin","lat":56.3333,"lng":36.7333,"country":"Russia","iso2":"RU","iso3":"RUS","admin_name":"Moskovskaya Oblast’","capital":"minor","population":79387},{"city":"Dudley","city_ascii":"Dudley","lat":52.508,"lng":-2.089,"country":"United Kingdom","iso2":"GB","iso3":"GBR","admin_name":"Dudley","capital":"","population":79379},{"city":"San Isidro","city_ascii":"San Isidro","lat":14.4685,"lng":121.0118,"country":"Philippines","iso2":"PH","iso3":"PHL","admin_name":"Parañaque","capital":"","population":79372},{"city":"Port Huron","city_ascii":"Port Huron","lat":42.9821,"lng":-82.4388,"country":"United States","iso2":"US","iso3":"USA","admin_name":"Michigan","capital":"","population":79363},{"city":"Iwamizawa","city_ascii":"Iwamizawa","lat":43.2,"lng":141.7833,"country":"Japan","iso2":"JP","iso3":"JPN","admin_name":"Hokkaidō","capital":"","population":79361},{"city":"Yenakiieve","city_ascii":"Yenakiieve","lat":48.2167,"lng":38.2,"country":"Ukraine","iso2":"UA","iso3":"UKR","admin_name":"Donetska Oblast","capital":"","population":79348},{"city":"Mangatarem","city_ascii":"Mangatarem","lat":15.7874,"lng":120.2921,"country":"Philippines","iso2":"PH","iso3":"PHL","admin_name":"Pangasinan","capital":"","population":79323},{"city":"Ban Talat Rangsit","city_ascii":"Ban Talat Rangsit","lat":13.9833,"lng":100.6167,"country":"Thailand","iso2":"TH","iso3":"THA","admin_name":"Pathum Thani","capital":"","population":79319},{"city":"Sorgun","city_ascii":"Sorgun","lat":39.8144,"lng":35.1903,"country":"Turkey","iso2":"TR","iso3":"TUR","admin_name":"Yozgat","capital":"minor","population":79314},{"city":"Caçador","city_ascii":"Cacador","lat":-26.775,"lng":-51.015,"country":"Brazil","iso2":"BR","iso3":"BRA","admin_name":"Santa Catarina","capital":"","population":79313},{"city":"Turlock","city_ascii":"Turlock","lat":37.5053,"lng":-120.8588,"country":"United States","iso2":"US","iso3":"USA","admin_name":"California","capital":"","population":79301},{"city":"Owendo","city_ascii":"Owendo","lat":0.2833,"lng":9.5,"country":"Gabon","iso2":"GA","iso3":"GAB","admin_name":"Estuaire","capital":"","population":79300},{"city":"Schiedam","city_ascii":"Schiedam","lat":51.9167,"lng":4.4,"country":"Netherlands","iso2":"NL","iso3":"NLD","admin_name":"Zuid-Holland","capital":"minor","population":79279},{"city":"Yalta","city_ascii":"Yalta","lat":44.4994,"lng":34.17,"country":"Ukraine","iso2":"UA","iso3":"UKR","admin_name":"Krym, Avtonomna Respublika","capital":"","population":79272},{"city":"Ban Nong Prue","city_ascii":"Ban Nong Prue","lat":12.9228,"lng":100.9375,"country":"Thailand","iso2":"TH","iso3":"THA","admin_name":"Chon Buri","capital":"","population":79258},{"city":"Drummondville","city_ascii":"Drummondville","lat":45.8833,"lng":-72.4833,"country":"Canada","iso2":"CA","iso3":"CAN","admin_name":"Quebec","capital":"","population":79258},{"city":"Natori-shi","city_ascii":"Natori-shi","lat":38.1715,"lng":140.8918,"country":"Japan","iso2":"JP","iso3":"JPN","admin_name":"Miyagi","capital":"","population":79250},{"city":"Kawartha Lakes","city_ascii":"Kawartha Lakes","lat":44.35,"lng":-78.75,"country":"Canada","iso2":"CA","iso3":"CAN","admin_name":"Ontario","capital":"","population":79247},{"city":"Lisala","city_ascii":"Lisala","lat":2.1486,"lng":21.5136,"country":"Congo (Kinshasa)","iso2":"CD","iso3":"COD","admin_name":"Mongala","capital":"admin","population":79235},{"city":"Évosmos","city_ascii":"Evosmos","lat":40.6689,"lng":22.9083,"country":"Greece","iso2":"GR","iso3":"GRC","admin_name":"Kentrikí Makedonía","capital":"minor","population":79221},{"city":"Juventino Rosas","city_ascii":"Juventino Rosas","lat":20.65,"lng":-101,"country":"Mexico","iso2":"MX","iso3":"MEX","admin_name":"Guanajuato","capital":"minor","population":79214},{"city":"Ciudad Lázaro Cárdenas","city_ascii":"Ciudad Lazaro Cardenas","lat":17.9561,"lng":-102.1922,"country":"Mexico","iso2":"MX","iso3":"MEX","admin_name":"Michoacán","capital":"","population":79200},{"city":"Jaen","city_ascii":"Jaen","lat":15.3392,"lng":120.9069,"country":"Philippines","iso2":"PH","iso3":"PHL","admin_name":"Nueva Ecija","capital":"","population":79189},{"city":"Dobni Para","city_ascii":"Dobni Para","lat":22.8347,"lng":74.2556,"country":"India","iso2":"IN","iso3":"IND","admin_name":"Madhya Pradesh","capital":"","population":79185},{"city":"Hannō","city_ascii":"Hanno","lat":35.8557,"lng":139.3277,"country":"Japan","iso2":"JP","iso3":"JPN","admin_name":"Saitama","capital":"","population":79169},{"city":"Carmen","city_ascii":"Carmen","lat":7.2,"lng":124.78,"country":"Philippines","iso2":"PH","iso3":"PHL","admin_name":"Cotabato","capital":"","population":79140},{"city":"Rancho Cordova","city_ascii":"Rancho Cordova","lat":38.5737,"lng":-121.2527,"country":"United States","iso2":"US","iso3":"USA","admin_name":"California","capital":"","population":79128},{"city":"Gokāk","city_ascii":"Gokak","lat":16.1667,"lng":74.8333,"country":"India","iso2":"IN","iso3":"IND","admin_name":"Karnātaka","capital":"","population":79121},{"city":"Ceará-Mirim","city_ascii":"Ceara-Mirim","lat":-5.6333,"lng":-35.4333,"country":"Brazil","iso2":"BR","iso3":"BRA","admin_name":"Rio Grande do Norte","capital":"minor","population":79115},{"city":"The Villages","city_ascii":"The Villages","lat":28.9034,"lng":-81.9887,"country":"United States","iso2":"US","iso3":"USA","admin_name":"Florida","capital":"","population":79108},{"city":"Tīkamgarh","city_ascii":"Tikamgarh","lat":24.7472,"lng":78.85,"country":"India","iso2":"IN","iso3":"IND","admin_name":"Madhya Pradesh","capital":"","population":79106},{"city":"Ikom","city_ascii":"Ikom","lat":6.0833,"lng":8.6167,"country":"Nigeria","iso2":"NG","iso3":"NGA","admin_name":"Cross River","capital":"minor","population":79103},{"city":"Milpitas","city_ascii":"Milpitas","lat":37.4336,"lng":-121.8921,"country":"United States","iso2":"US","iso3":"USA","admin_name":"California","capital":"","population":79092},{"city":"Ozërsk","city_ascii":"Ozersk","lat":55.75,"lng":60.7167,"country":"Russia","iso2":"RU","iso3":"RUS","admin_name":"Chelyabinskaya Oblast’","capital":"","population":79069},{"city":"Būmahen","city_ascii":"Bumahen","lat":35.7314,"lng":51.8675,"country":"Iran","iso2":"IR","iso3":"IRN","admin_name":"Tehrān","capital":"","population":79034},{"city":"Ubon Ratchathani","city_ascii":"Ubon Ratchathani","lat":15.2281,"lng":104.8594,"country":"Thailand","iso2":"TH","iso3":"THA","admin_name":"Ubon Ratchathani","capital":"admin","population":79023},{"city":"Bahārestān","city_ascii":"Baharestan","lat":32.4867,"lng":51.7808,"country":"Iran","iso2":"IR","iso3":"IRN","admin_name":"Eşfahān","capital":"","population":79023},{"city":"Arāria","city_ascii":"Araria","lat":26.15,"lng":87.52,"country":"India","iso2":"IN","iso3":"IND","admin_name":"Bihār","capital":"","population":79021},{"city":"Cuamba","city_ascii":"Cuamba","lat":-14.8167,"lng":36.55,"country":"Mozambique","iso2":"MZ","iso3":"MOZ","admin_name":"Niassa","capital":"","population":79013},{"city":"Huaral","city_ascii":"Huaral","lat":-11.5,"lng":-77.2,"country":"Peru","iso2":"PE","iso3":"PER","admin_name":"Lima","capital":"","population":79011},{"city":"Madīnat as Sādāt","city_ascii":"Madinat as Sadat","lat":30.3811,"lng":30.5266,"country":"Egypt","iso2":"EG","iso3":"EGY","admin_name":"Al Buḩayrah","capital":"","population":79000},{"city":"Pèrèrè","city_ascii":"Perere","lat":9.7994,"lng":2.9928,"country":"Benin","iso2":"BJ","iso3":"BEN","admin_name":"Borgou","capital":"","population":78988},{"city":"Alfenas","city_ascii":"Alfenas","lat":-21.4333,"lng":-45.95,"country":"Brazil","iso2":"BR","iso3":"BRA","admin_name":"Minas Gerais","capital":"","population":78970},{"city":"Sougueur","city_ascii":"Sougueur","lat":35.1833,"lng":1.5,"country":"Algeria","iso2":"DZ","iso3":"DZA","admin_name":"Tiaret","capital":"","population":78956},{"city":"Nakatsugawa","city_ascii":"Nakatsugawa","lat":35.4876,"lng":137.5006,"country":"Japan","iso2":"JP","iso3":"JPN","admin_name":"Gifu","capital":"","population":78930},{"city":"New Westminster","city_ascii":"New Westminster","lat":49.2069,"lng":-122.9111,"country":"Canada","iso2":"CA","iso3":"CAN","admin_name":"British Columbia","capital":"","population":78916},{"city":"Tiko","city_ascii":"Tiko","lat":4.075,"lng":9.36,"country":"Cameroon","iso2":"CM","iso3":"CMR","admin_name":"South-West","capital":"","population":78885},{"city":"Sesto San Giovanni","city_ascii":"Sesto San Giovanni","lat":45.5333,"lng":9.2333,"country":"Italy","iso2":"IT","iso3":"ITA","admin_name":"Lombardy","capital":"","population":78884},{"city":"Perris","city_ascii":"Perris","lat":33.7898,"lng":-117.2233,"country":"United States","iso2":"US","iso3":"USA","admin_name":"California","capital":"","population":78881},{"city":"Bistriţa","city_ascii":"Bistrita","lat":47.1333,"lng":24.5,"country":"Romania","iso2":"RO","iso3":"ROU","admin_name":"Bistriţa-Năsăud","capital":"admin","population":78877},{"city":"Manresa","city_ascii":"Manresa","lat":41.7294,"lng":1.8272,"country":"Spain","iso2":"ES","iso3":"ESP","admin_name":"Catalonia","capital":"","population":78877},{"city":"Daugavpils","city_ascii":"Daugavpils","lat":55.875,"lng":26.5356,"country":"Latvia","iso2":"LV","iso3":"LVA","admin_name":"Augšdaugava","capital":"admin","population":78850},{"city":"Upland","city_ascii":"Upland","lat":34.1178,"lng":-117.6604,"country":"United States","iso2":"US","iso3":"USA","admin_name":"California","capital":"","population":78847},{"city":"Subulussalam","city_ascii":"Subulussalam","lat":2.6422,"lng":98.0042,"country":"Indonesia","iso2":"ID","iso3":"IDN","admin_name":"Aceh","capital":"","population":78801},{"city":"Tambacounda","city_ascii":"Tambacounda","lat":13.7689,"lng":-13.6672,"country":"Senegal","iso2":"SN","iso3":"SEN","admin_name":"Tambacounda","capital":"admin","population":78800},{"city":"Dome","city_ascii":"Dome","lat":5.655,"lng":-0.235,"country":"Ghana","iso2":"GH","iso3":"GHA","admin_name":"Greater Accra","capital":"","population":78785},{"city":"Nakhon Pathom","city_ascii":"Nakhon Pathom","lat":13.8206,"lng":100.0625,"country":"Thailand","iso2":"TH","iso3":"THA","admin_name":"Nakhon Pathom","capital":"admin","population":78780},{"city":"Toboali","city_ascii":"Toboali","lat":-2.9997,"lng":106.4656,"country":"Indonesia","iso2":"ID","iso3":"IDN","admin_name":"Kepulauan Bangka Belitung","capital":"","population":78780},{"city":"Tierralta","city_ascii":"Tierralta","lat":7.9167,"lng":-76.1667,"country":"Colombia","iso2":"CO","iso3":"COL","admin_name":"Córdoba","capital":"minor","population":78770},{"city":"Maizuru","city_ascii":"Maizuru","lat":35.4667,"lng":135.3833,"country":"Japan","iso2":"JP","iso3":"JPN","admin_name":"Kyōto","capital":"","population":78730},{"city":"Bury","city_ascii":"Bury","lat":53.593,"lng":-2.298,"country":"United Kingdom","iso2":"GB","iso3":"GBR","admin_name":"Bury","capital":"","population":78729},{"city":"Alton","city_ascii":"Alton","lat":38.9037,"lng":-90.152,"country":"United States","iso2":"US","iso3":"USA","admin_name":"Illinois","capital":"","population":78729},{"city":"Eastleigh","city_ascii":"Eastleigh","lat":50.9667,"lng":-1.35,"country":"United Kingdom","iso2":"GB","iso3":"GBR","admin_name":"Hampshire","capital":"","population":78716},{"city":"Elbasan","city_ascii":"Elbasan","lat":41.1111,"lng":20.0806,"country":"Albania","iso2":"AL","iso3":"ALB","admin_name":"Elbasan","capital":"admin","population":78703},{"city":"Pagbilao","city_ascii":"Pagbilao","lat":13.972,"lng":121.687,"country":"Philippines","iso2":"PH","iso3":"PHL","admin_name":"Quezon","capital":"","population":78700},{"city":"Villa Celina","city_ascii":"Villa Celina","lat":-34.7167,"lng":-58.4833,"country":"Argentina","iso2":"AR","iso3":"ARG","admin_name":"Buenos Aires, Ciudad Autónoma de","capital":"","population":78699},{"city":"Ra’s al Khafjī","city_ascii":"Ra's al Khafji","lat":28.4211,"lng":48.4956,"country":"Saudi Arabia","iso2":"SA","iso3":"SAU","admin_name":"Ash Sharqīyah","capital":"","population":78691},{"city":"Pleasanton","city_ascii":"Pleasanton","lat":37.6663,"lng":-121.8805,"country":"United States","iso2":"US","iso3":"USA","admin_name":"California","capital":"","population":78691},{"city":"Alīgūdarz","city_ascii":"Aligudarz","lat":33.4025,"lng":49.6903,"country":"Iran","iso2":"IR","iso3":"IRN","admin_name":"Lorestān","capital":"minor","population":78690},