[{"city":"Richmond Heights","city_ascii":"Richmond Heights","lat":38.6309,"lng":-90.3332,"country":"United States","iso2":"US","iso3":"USA","admin_name":"Missouri","capital":"","population":9186},{"city":"Santa María Ajoloapan","city_ascii":"Santa Maria Ajoloapan","lat":19.9692,"lng":-99.0353,"country":"Mexico","iso2":"MX","iso3":"MEX","admin_name":"México","capital":"","population":9185},{"city":"Capbreton","city_ascii":"Capbreton","lat":43.6431,"lng":-1.4311,"country":"France","iso2":"FR","iso3":"FRA","admin_name":"Nouvelle-Aquitaine","capital":"","population":9185},{"city":"Tilehurst","city_ascii":"Tilehurst","lat":51.4579,"lng":-1.0406,"country":"United Kingdom","iso2":"GB","iso3":"GBR","admin_name":"Reading","capital":"","population":9185},{"city":"Chikkāla","city_ascii":"Chikkala","lat":16.9698,"lng":81.5922,"country":"India","iso2":"IN","iso3":"IND","admin_name":"Andhra Pradesh","capital":"","population":9185},{"city":"Sewa","city_ascii":"Sewa","lat":24.8753,"lng":86.3257,"country":"India","iso2":"IN","iso3":"IND","admin_name":"Bihār","capital":"","population":9185},{"city":"Aberbargoed","city_ascii":"Aberbargoed","lat":51.6968,"lng":-3.224,"country":"United Kingdom","iso2":"GB","iso3":"GBR","admin_name":"Caerphilly","capital":"","population":9184},{"city":"Olds","city_ascii":"Olds","lat":51.7928,"lng":-114.1067,"country":"Canada","iso2":"CA","iso3":"CAN","admin_name":"Alberta","capital":"","population":9184},{"city":"Suwannaphum","city_ascii":"Suwannaphum","lat":15.6078,"lng":103.8,"country":"Thailand","iso2":"TH","iso3":"THA","admin_name":"Roi Et","capital":"minor","population":9183},{"city":"Jagannādapuram","city_ascii":"Jagannadapuram","lat":13.2745,"lng":80.1802,"country":"India","iso2":"IN","iso3":"IND","admin_name":"Tamil Nādu","capital":"","population":9183},{"city":"Himmatpura","city_ascii":"Himmatpura","lat":30.5271,"lng":75.3627,"country":"India","iso2":"IN","iso3":"IND","admin_name":"Punjab","capital":"","population":9183},{"city":"Rājepur","city_ascii":"Rajepur","lat":25.5377,"lng":85.6228,"country":"India","iso2":"IN","iso3":"IND","admin_name":"Bihār","capital":"","population":9183},{"city":"Sukkāmpatti","city_ascii":"Sukkampatti","lat":10.5267,"lng":78.1728,"country":"India","iso2":"IN","iso3":"IND","admin_name":"Tamil Nādu","capital":"","population":9183},{"city":"Roux","city_ascii":"Roux","lat":50.4412,"lng":4.3926,"country":"Belgium","iso2":"BE","iso3":"BEL","admin_name":"Wallonia","capital":"","population":9182},{"city":"Canela Baja","city_ascii":"Canela Baja","lat":-31.3989,"lng":-71.4561,"country":"Chile","iso2":"CL","iso3":"CHL","admin_name":"Coquimbo","capital":"","population":9182},{"city":"Cistérniga","city_ascii":"Cisterniga","lat":41.6167,"lng":-4.6833,"country":"Spain","iso2":"ES","iso3":"ESP","admin_name":"Castille-Leon","capital":"","population":9182},{"city":"Tiptree","city_ascii":"Tiptree","lat":51.81,"lng":0.75,"country":"United Kingdom","iso2":"GB","iso3":"GBR","admin_name":"Essex","capital":"","population":9182},{"city":"Conshohocken","city_ascii":"Conshohocken","lat":40.0772,"lng":-75.3034,"country":"United States","iso2":"US","iso3":"USA","admin_name":"Pennsylvania","capital":"","population":9182},{"city":"Salisbury","city_ascii":"Salisbury","lat":42.8465,"lng":-70.8616,"country":"United States","iso2":"US","iso3":"USA","admin_name":"Massachusetts","capital":"","population":9182},{"city":"Sidi Bou Othmane","city_ascii":"Sidi Bou Othmane","lat":31.9033,"lng":-7.9422,"country":"Morocco","iso2":"MA","iso3":"MAR","admin_name":"Marrakech-Safi","capital":"","population":9181},{"city":"Hirehalli","city_ascii":"Hirehalli","lat":14.5255,"lng":76.6634,"country":"India","iso2":"IN","iso3":"IND","admin_name":"Karnātaka","capital":"","population":9181},{"city":"Maidencreek","city_ascii":"Maidencreek","lat":40.4618,"lng":-75.8927,"country":"United States","iso2":"US","iso3":"USA","admin_name":"Pennsylvania","capital":"","population":9180},{"city":"Guntramsdorf","city_ascii":"Guntramsdorf","lat":48.05,"lng":16.3167,"country":"Austria","iso2":"AT","iso3":"AUT","admin_name":"Niederösterreich","capital":"","population":9179},{"city":"Harpur Bhindi","city_ascii":"Harpur Bhindi","lat":25.7746,"lng":85.6563,"country":"India","iso2":"IN","iso3":"IND","admin_name":"Bihār","capital":"","population":9179},{"city":"Vega Alta","city_ascii":"Vega Alta","lat":18.4151,"lng":-66.3211,"country":"Puerto Rico","iso2":"PR","iso3":"PRI","admin_name":"Puerto Rico","capital":"","population":9179},{"city":"Cêrro Grande","city_ascii":"Cerro Grande","lat":-30.59,"lng":-51.7389,"country":"Brazil","iso2":"BR","iso3":"BRA","admin_name":"Rio Grande do Sul","capital":"","population":9178},{"city":"Alsbach-Hähnlein","city_ascii":"Alsbach-Hahnlein","lat":49.7333,"lng":8.6,"country":"Germany","iso2":"DE","iso3":"DEU","admin_name":"Hesse","capital":"","population":9178},{"city":"Douar El Mellaliyine","city_ascii":"Douar El Mellaliyine","lat":35.6264,"lng":-5.3414,"country":"Morocco","iso2":"MA","iso3":"MAR","admin_name":"Tanger-Tétouan-Al Hoceïma","capital":"","population":9177},{"city":"Arceburgo","city_ascii":"Arceburgo","lat":-21.3639,"lng":-46.94,"country":"Brazil","iso2":"BR","iso3":"BRA","admin_name":"Minas Gerais","capital":"","population":9177},{"city":"Galten","city_ascii":"Galten","lat":56.1533,"lng":9.9069,"country":"Denmark","iso2":"DK","iso3":"DNK","admin_name":"Midtjylland","capital":"","population":9177},{"city":"Mādepalli","city_ascii":"Madepalli","lat":12.5491,"lng":78.34,"country":"India","iso2":"IN","iso3":"IND","admin_name":"Tamil Nādu","capital":"","population":9177},{"city":"Nelali","city_ascii":"Nelali","lat":10.9282,"lng":77.4832,"country":"India","iso2":"IN","iso3":"IND","admin_name":"Tamil Nādu","capital":"","population":9177},{"city":"Ḩorr-e Rīāḩī","city_ascii":"Horr-e Riahi","lat":32.1444,"lng":48.3906,"country":"Iran","iso2":"IR","iso3":"IRN","admin_name":"Khūzestān","capital":"","population":9177},{"city":"Grants","city_ascii":"Grants","lat":35.1538,"lng":-107.8335,"country":"United States","iso2":"US","iso3":"USA","admin_name":"New Mexico","capital":"","population":9177},{"city":"Ahuimanu","city_ascii":"Ahuimanu","lat":21.4379,"lng":-157.8404,"country":"United States","iso2":"US","iso3":"USA","admin_name":"Hawaii","capital":"","population":9177},{"city":"Willowbrook","city_ascii":"Willowbrook","lat":41.7641,"lng":-87.9454,"country":"United States","iso2":"US","iso3":"USA","admin_name":"Illinois","capital":"","population":9177},{"city":"Elze","city_ascii":"Elze","lat":52.1167,"lng":9.7333,"country":"Germany","iso2":"DE","iso3":"DEU","admin_name":"Lower Saxony","capital":"","population":9176},{"city":"Hacine","city_ascii":"Hacine","lat":35.4569,"lng":-0.0025,"country":"Algeria","iso2":"DZ","iso3":"DZA","admin_name":"Mascara","capital":"","population":9176},{"city":"Yatton","city_ascii":"Yatton","lat":51.3855,"lng":-2.8256,"country":"United Kingdom","iso2":"GB","iso3":"GBR","admin_name":"North Somerset","capital":"","population":9176},{"city":"Budhma","city_ascii":"Budhma","lat":25.6451,"lng":86.8317,"country":"India","iso2":"IN","iso3":"IND","admin_name":"Bihār","capital":"","population":9176},{"city":"Nashtīfān","city_ascii":"Nashtifan","lat":34.435,"lng":60.1811,"country":"Iran","iso2":"IR","iso3":"IRN","admin_name":"Khorāsān-e Raẕavī","capital":"","population":9176},{"city":"Obukhivka","city_ascii":"Obukhivka","lat":48.5433,"lng":34.8589,"country":"Ukraine","iso2":"UA","iso3":"UKR","admin_name":"Dnipropetrovska Oblast","capital":"","population":9175},{"city":"Itapebi","city_ascii":"Itapebi","lat":-15.9333,"lng":-39.5333,"country":"Brazil","iso2":"BR","iso3":"BRA","admin_name":"Bahia","capital":"","population":9174},{"city":"Yaxley","city_ascii":"Yaxley","lat":52.52,"lng":-0.26,"country":"United Kingdom","iso2":"GB","iso3":"GBR","admin_name":"Cambridgeshire","capital":"","population":9174},{"city":"Ivins","city_ascii":"Ivins","lat":37.1742,"lng":-113.6809,"country":"United States","iso2":"US","iso3":"USA","admin_name":"Utah","capital":"","population":9174},{"city":"Rockingham","city_ascii":"Rockingham","lat":34.9386,"lng":-79.7608,"country":"United States","iso2":"US","iso3":"USA","admin_name":"North Carolina","capital":"","population":9174},{"city":"Maków Mazowiecki","city_ascii":"Makow Mazowiecki","lat":52.8667,"lng":21.1,"country":"Poland","iso2":"PL","iso3":"POL","admin_name":"Mazowieckie","capital":"minor","population":9173},{"city":"Murfatlar","city_ascii":"Murfatlar","lat":44.1736,"lng":28.4083,"country":"Romania","iso2":"RO","iso3":"ROU","admin_name":"Constanţa","capital":"","population":9173},{"city":"Tuskegee","city_ascii":"Tuskegee","lat":32.4409,"lng":-85.7131,"country":"United States","iso2":"US","iso3":"USA","admin_name":"Alabama","capital":"","population":9173},{"city":"Binisalem","city_ascii":"Binisalem","lat":39.6886,"lng":2.8422,"country":"Spain","iso2":"ES","iso3":"ESP","admin_name":"Balearic Islands","capital":"","population":9172},{"city":"Onchan","city_ascii":"Onchan","lat":54.175,"lng":-4.455,"country":"Isle of Man","iso2":"IM","iso3":"IMN","admin_name":"","capital":"","population":9172},{"city":"Gūdalūr","city_ascii":"Gudalur","lat":10.7898,"lng":78.1285,"country":"India","iso2":"IN","iso3":"IND","admin_name":"Tamil Nādu","capital":"","population":9172},{"city":"Waiuku","city_ascii":"Waiuku","lat":-37.249,"lng":174.73,"country":"New Zealand","iso2":"NZ","iso3":"NZL","admin_name":"Auckland","capital":"","population":9171},{"city":"Ban Wat Chan","city_ascii":"Ban Wat Chan","lat":16.8033,"lng":100.2351,"country":"Thailand","iso2":"TH","iso3":"THA","admin_name":"Phitsanulok","capital":"","population":9171},{"city":"Jerez de los Caballeros","city_ascii":"Jerez de los Caballeros","lat":38.3203,"lng":-6.7714,"country":"Spain","iso2":"ES","iso3":"ESP","admin_name":"Extremadura","capital":"","population":9171},{"city":"Solsona","city_ascii":"Solsona","lat":41.9978,"lng":1.5208,"country":"Spain","iso2":"ES","iso3":"ESP","admin_name":"Catalonia","capital":"","population":9171},{"city":"Sarkad","city_ascii":"Sarkad","lat":46.75,"lng":21.3833,"country":"Hungary","iso2":"HU","iso3":"HUN","admin_name":"Békés","capital":"minor","population":9171},{"city":"Ban Yaeng","city_ascii":"Ban Yaeng","lat":16.8833,"lng":100.8,"country":"Thailand","iso2":"TH","iso3":"THA","admin_name":"Phitsanulok","capital":"","population":9170},{"city":"Trittau","city_ascii":"Trittau","lat":53.6167,"lng":10.4,"country":"Germany","iso2":"DE","iso3":"DEU","admin_name":"Schleswig-Holstein","capital":"","population":9170},{"city":"Biblis","city_ascii":"Biblis","lat":49.7,"lng":8.4667,"country":"Germany","iso2":"DE","iso3":"DEU","admin_name":"Hesse","capital":"","population":9170},{"city":"Dörverden","city_ascii":"Dorverden","lat":52.85,"lng":9.2333,"country":"Germany","iso2":"DE","iso3":"DEU","admin_name":"Lower Saxony","capital":"","population":9170},{"city":"Marale","city_ascii":"Marale","lat":14.9167,"lng":-87.035,"country":"Honduras","iso2":"HN","iso3":"HND","admin_name":"Francisco Morazán","capital":"","population":9170},{"city":"Bangaon","city_ascii":"Bangaon","lat":26.3081,"lng":87.8833,"country":"India","iso2":"IN","iso3":"IND","admin_name":"Bihār","capital":"","population":9170},{"city":"Matelica","city_ascii":"Matelica","lat":43.2566,"lng":13.0096,"country":"Italy","iso2":"IT","iso3":"ITA","admin_name":"Marche","capital":"","population":9170},{"city":"Verdejante","city_ascii":"Verdejante","lat":-7.9167,"lng":-38.9833,"country":"Brazil","iso2":"BR","iso3":"BRA","admin_name":"Pernambuco","capital":"","population":9169},{"city":"Xiangping","city_ascii":"Xiangping","lat":24.5892,"lng":112.1237,"country":"China","iso2":"CN","iso3":"CHN","admin_name":"Guangdong","capital":"","population":9169},{"city":"Ville-la-Grand","city_ascii":"Ville-la-Grand","lat":46.2031,"lng":6.2475,"country":"France","iso2":"FR","iso3":"FRA","admin_name":"Auvergne-Rhône-Alpes","capital":"","population":9169},{"city":"Woodbury","city_ascii":"Woodbury","lat":40.8176,"lng":-73.4703,"country":"United States","iso2":"US","iso3":"USA","admin_name":"New York","capital":"","population":9169},{"city":"Littleport","city_ascii":"Littleport","lat":52.4568,"lng":0.3046,"country":"United Kingdom","iso2":"GB","iso3":"GBR","admin_name":"Cambridgeshire","capital":"","population":9168},{"city":"Monte Rico","city_ascii":"Monte Rico","lat":-24.4514,"lng":-65.1667,"country":"Argentina","iso2":"AR","iso3":"ARG","admin_name":"Jujuy","capital":"","population":9167},{"city":"Boekenhouthoek","city_ascii":"Boekenhouthoek","lat":-25.303,"lng":29.015,"country":"South Africa","iso2":"ZA","iso3":"ZAF","admin_name":"Mpumalanga","capital":"","population":9166},{"city":"Foammulah","city_ascii":"Foammulah","lat":-0.2932,"lng":73.4236,"country":"Maldives","iso2":"MV","iso3":"MDV","admin_name":"Fuvammulah","capital":"admin","population":9166},{"city":"Pencoed","city_ascii":"Pencoed","lat":51.5228,"lng":-3.5047,"country":"United Kingdom","iso2":"GB","iso3":"GBR","admin_name":"Bridgend","capital":"","population":9166},{"city":"West Manheim","city_ascii":"West Manheim","lat":39.7458,"lng":-76.9431,"country":"United States","iso2":"US","iso3":"USA","admin_name":"Pennsylvania","capital":"","population":9166},{"city":"Wa","city_ascii":"Wa","lat":13.7,"lng":-4.4,"country":"Mali","iso2":"ML","iso3":"MLI","admin_name":"Ségou","capital":"","population":9165},{"city":"Dommasandra","city_ascii":"Dommasandra","lat":12.8781,"lng":77.7543,"country":"India","iso2":"IN","iso3":"IND","admin_name":"Karnātaka","capital":"","population":9165},{"city":"Waterford","city_ascii":"Waterford","lat":37.6429,"lng":-120.7553,"country":"United States","iso2":"US","iso3":"USA","admin_name":"California","capital":"","population":9165},{"city":"Corumbaíba","city_ascii":"Corumbaiba","lat":-18.1472,"lng":-48.5503,"country":"Brazil","iso2":"BR","iso3":"BRA","admin_name":"Goiás","capital":"","population":9164},{"city":"Waldfeucht","city_ascii":"Waldfeucht","lat":51.0714,"lng":5.9831,"country":"Germany","iso2":"DE","iso3":"DEU","admin_name":"North Rhine-Westphalia","capital":"","population":9164},{"city":"Micco","city_ascii":"Micco","lat":27.8683,"lng":-80.51,"country":"United States","iso2":"US","iso3":"USA","admin_name":"Florida","capital":"","population":9164},{"city":"Flanders","city_ascii":"Flanders","lat":40.8412,"lng":-74.7102,"country":"United States","iso2":"US","iso3":"USA","admin_name":"New Jersey","capital":"","population":9164},{"city":"Irshava","city_ascii":"Irshava","lat":48.3,"lng":23.05,"country":"Ukraine","iso2":"UA","iso3":"UKR","admin_name":"Zakarpatska Oblast","capital":"minor","population":9163},{"city":"Yvoir","city_ascii":"Yvoir","lat":50.3333,"lng":4.8833,"country":"Belgium","iso2":"BE","iso3":"BEL","admin_name":"Wallonia","capital":"","population":9163},{"city":"Abalessa","city_ascii":"Abalessa","lat":22.89,"lng":4.8472,"country":"Algeria","iso2":"DZ","iso3":"DZA","admin_name":"Tamanrasset","capital":"","population":9163},{"city":"Incline Village","city_ascii":"Incline Village","lat":39.2639,"lng":-119.9455,"country":"United States","iso2":"US","iso3":"USA","admin_name":"Nevada","capital":"","population":9163},{"city":"Springs","city_ascii":"Springs","lat":41.0212,"lng":-72.1584,"country":"United States","iso2":"US","iso3":"USA","admin_name":"New York","capital":"","population":9162},{"city":"Žabalj","city_ascii":"Zabalj","lat":45.3667,"lng":20.0667,"country":"Serbia","iso2":"RS","iso3":"SRB","admin_name":"Žabalj","capital":"admin","population":9161},{"city":"Gədəbəy","city_ascii":"Gadabay","lat":40.5656,"lng":45.8161,"country":"Azerbaijan","iso2":"AZ","iso3":"AZE","admin_name":"Gədəbəy","capital":"admin","population":9161},{"city":"Palomares del Río","city_ascii":"Palomares del Rio","lat":37.3167,"lng":-6.05,"country":"Spain","iso2":"ES","iso3":"ESP","admin_name":"Andalusia","capital":"","population":9161},{"city":"Reggiolo","city_ascii":"Reggiolo","lat":44.9167,"lng":10.8167,"country":"Italy","iso2":"IT","iso3":"ITA","admin_name":"Emilia-Romagna","capital":"","population":9161},{"city":"Beauraing","city_ascii":"Beauraing","lat":50.1092,"lng":4.9567,"country":"Belgium","iso2":"BE","iso3":"BEL","admin_name":"Wallonia","capital":"","population":9160},{"city":"Ifigha","city_ascii":"Ifigha","lat":36.6667,"lng":4.4167,"country":"Algeria","iso2":"DZ","iso3":"DZA","admin_name":"Tizi Ouzou","capital":"","population":9160},{"city":"Op","city_ascii":"Op","lat":25.2092,"lng":85.3019,"country":"India","iso2":"IN","iso3":"IND","admin_name":"Bihār","capital":"","population":9160},{"city":"Ussel","city_ascii":"Ussel","lat":45.5489,"lng":2.31,"country":"France","iso2":"FR","iso3":"FRA","admin_name":"Nouvelle-Aquitaine","capital":"minor","population":9159},{"city":"Banbhāg","city_ascii":"Banbhag","lat":25.7919,"lng":87.414,"country":"India","iso2":"IN","iso3":"IND","admin_name":"Bihār","capital":"","population":9159},{"city":"Bariariya Tola Rājpur","city_ascii":"Bariariya Tola Rajpur","lat":26.4567,"lng":84.7043,"country":"India","iso2":"IN","iso3":"IND","admin_name":"Bihār","capital":"","population":9159},{"city":"Entre Ijuís","city_ascii":"Entre Ijuis","lat":-28.36,"lng":-54.2678,"country":"Brazil","iso2":"BR","iso3":"BRA","admin_name":"Rio Grande do Sul","capital":"","population":9158},{"city":"Beauchamp","city_ascii":"Beauchamp","lat":49.0144,"lng":2.1906,"country":"France","iso2":"FR","iso3":"FRA","admin_name":"Île-de-France","capital":"","population":9158},{"city":"Halgeri","city_ascii":"Halgeri","lat":14.5551,"lng":75.6099,"country":"India","iso2":"IN","iso3":"IND","admin_name":"Karnātaka","capital":"","population":9158},{"city":"Santo Domingo Petapa","city_ascii":"Santo Domingo Petapa","lat":16.8167,"lng":-95.1333,"country":"Mexico","iso2":"MX","iso3":"MEX","admin_name":"Oaxaca","capital":"","population":9157},{"city":"Gualaquiza","city_ascii":"Gualaquiza","lat":-3.38,"lng":-78.58,"country":"Ecuador","iso2":"EC","iso3":"ECU","admin_name":"Morona-Santiago","capital":"","population":9157},{"city":"San Fructuoso de Bagés","city_ascii":"San Fructuoso de Bages","lat":41.752,"lng":1.8745,"country":"Spain","iso2":"ES","iso3":"ESP","admin_name":"Catalonia","capital":"","population":9156},{"city":"Sungal","city_ascii":"Sungal","lat":32.9392,"lng":74.6935,"country":"India","iso2":"IN","iso3":"IND","admin_name":"Jammu and Kashmīr","capital":"","population":9156},{"city":"Pilikōdu","city_ascii":"Pilikodu","lat":12.1903,"lng":75.1667,"country":"India","iso2":"IN","iso3":"IND","admin_name":"Kerala","capital":"","population":9156},{"city":"Wysokie Mazowieckie","city_ascii":"Wysokie Mazowieckie","lat":52.9192,"lng":22.5144,"country":"Poland","iso2":"PL","iso3":"POL","admin_name":"Podlaskie","capital":"minor","population":9155},{"city":"Yeşilyurt","city_ascii":"Yesilyurt","lat":40,"lng":36.22,"country":"Turkey","iso2":"TR","iso3":"TUR","admin_name":"Tokat","capital":"minor","population":9154},{"city":"Fateh Nangal","city_ascii":"Fateh Nangal","lat":31.9453,"lng":75.3191,"country":"India","iso2":"IN","iso3":"IND","admin_name":"Punjab","capital":"","population":9154},{"city":"Mikhaylovka","city_ascii":"Mikhaylovka","lat":43.9283,"lng":132.0061,"country":"Russia","iso2":"RU","iso3":"RUS","admin_name":"Primorskiy Kray","capital":"","population":9153},{"city":"Zörbig","city_ascii":"Zorbig","lat":51.6167,"lng":12.1167,"country":"Germany","iso2":"DE","iso3":"DEU","admin_name":"Saxony-Anhalt","capital":"","population":9153},{"city":"Županja","city_ascii":"Zupanja","lat":45.07,"lng":18.7,"country":"Croatia","iso2":"HR","iso3":"HRV","admin_name":"Vukovarsko-Srijemska Županija","capital":"minor","population":9153},{"city":"Imotski","city_ascii":"Imotski","lat":43.45,"lng":17.2167,"country":"Croatia","iso2":"HR","iso3":"HRV","admin_name":"Splitsko-Dalmatinska Županija","capital":"minor","population":9153},{"city":"Piripá","city_ascii":"Piripa","lat":-14.9333,"lng":-41.7167,"country":"Brazil","iso2":"BR","iso3":"BRA","admin_name":"Bahia","capital":"","population":9152},{"city":"Grünheide","city_ascii":"Grunheide","lat":52.4167,"lng":13.8167,"country":"Germany","iso2":"DE","iso3":"DEU","admin_name":"Brandenburg","capital":"","population":9152},{"city":"Kyritz","city_ascii":"Kyritz","lat":52.95,"lng":12.4,"country":"Germany","iso2":"DE","iso3":"DEU","admin_name":"Brandenburg","capital":"","population":9152},{"city":"Morubāgalu","city_ascii":"Morubagalu","lat":13.9702,"lng":77.0411,"country":"India","iso2":"IN","iso3":"IND","admin_name":"Andhra Pradesh","capital":"","population":9152},{"city":"Anjūr","city_ascii":"Anjur","lat":10.5992,"lng":76.1553,"country":"India","iso2":"IN","iso3":"IND","admin_name":"Kerala","capital":"","population":9152},{"city":"Nārāyanpur","city_ascii":"Narayanpur","lat":17.8589,"lng":76.9733,"country":"India","iso2":"IN","iso3":"IND","admin_name":"Karnātaka","capital":"","population":9152},{"city":"Cachoeira dos Índios","city_ascii":"Cachoeira dos Indios","lat":-6.9269,"lng":-38.6739,"country":"Brazil","iso2":"BR","iso3":"BRA","admin_name":"Paraíba","capital":"minor","population":9151},{"city":"Vallendar","city_ascii":"Vallendar","lat":50.3971,"lng":7.622,"country":"Germany","iso2":"DE","iso3":"DEU","admin_name":"Rhineland-Palatinate","capital":"","population":9151},{"city":"Belakvādi","city_ascii":"Belakvadi","lat":12.255,"lng":77.1225,"country":"India","iso2":"IN","iso3":"IND","admin_name":"Karnātaka","capital":"","population":9151},{"city":"Ražanj","city_ascii":"Razanj","lat":43.6667,"lng":21.55,"country":"Serbia","iso2":"RS","iso3":"SRB","admin_name":"Ražanj","capital":"admin","population":9150},{"city":"Buenópolis","city_ascii":"Buenopolis","lat":-17.8742,"lng":-44.1767,"country":"Brazil","iso2":"BR","iso3":"BRA","admin_name":"Minas Gerais","capital":"","population":9150},{"city":"Chinnāyagūdem","city_ascii":"Chinnayagudem","lat":17.047,"lng":81.481,"country":"India","iso2":"IN","iso3":"IND","admin_name":"Andhra Pradesh","capital":"","population":9150},{"city":"Felino","city_ascii":"Felino","lat":44.6936,"lng":10.242,"country":"Italy","iso2":"IT","iso3":"ITA","admin_name":"Emilia-Romagna","capital":"","population":9150},{"city":"Lavis","city_ascii":"Lavis","lat":46.1333,"lng":11.1167,"country":"Italy","iso2":"IT","iso3":"ITA","admin_name":"Trentino-Alto Adige","capital":"","population":9150},{"city":"Al Bardīyah","city_ascii":"Al Bardiyah","lat":31.76,"lng":25.075,"country":"Libya","iso2":"LY","iso3":"LBY","admin_name":"Al Buţnān","capital":"","population":9149},{"city":"Sângeorgiu de Mureş","city_ascii":"Sangeorgiu de Mures","lat":46.55,"lng":24.4667,"country":"Romania","iso2":"RO","iso3":"ROU","admin_name":"Mureş","capital":"","population":9149},{"city":"Sabie","city_ascii":"Sabie","lat":-25.0978,"lng":30.7792,"country":"South Africa","iso2":"ZA","iso3":"ZAF","admin_name":"Mpumalanga","capital":"","population":9148},{"city":"Gondizalves","city_ascii":"Gondizalves","lat":41.536,"lng":-8.44,"country":"Portugal","iso2":"PT","iso3":"PRT","admin_name":"Braga","capital":"","population":9148},{"city":"Ust’-Nera","city_ascii":"Ust'-Nera","lat":64.5666,"lng":143.2,"country":"Russia","iso2":"RU","iso3":"RUS","admin_name":"Sakha (Yakutiya)","capital":"","population":9148},{"city":"Kondūru","city_ascii":"Konduru","lat":16.678,"lng":80.573,"country":"India","iso2":"IN","iso3":"IND","admin_name":"Andhra Pradesh","capital":"","population":9148},{"city":"Sansa","city_ascii":"Sansa","lat":25.0291,"lng":84.4597,"country":"India","iso2":"IN","iso3":"IND","admin_name":"Bihār","capital":"","population":9148},{"city":"Veinticinco de Diciembre","city_ascii":"Veinticinco de Diciembre","lat":-24.7,"lng":-56.55,"country":"Paraguay","iso2":"PY","iso3":"PRY","admin_name":"San Pedro","capital":"","population":9147},{"city":"Mangasamudram","city_ascii":"Mangasamudram","lat":13.2291,"lng":79.0909,"country":"India","iso2":"IN","iso3":"IND","admin_name":"Andhra Pradesh","capital":"","population":9146},{"city":"Bichura","city_ascii":"Bichura","lat":50.5897,"lng":107.5961,"country":"Russia","iso2":"RU","iso3":"RUS","admin_name":"Buryatiya","capital":"","population":9145},{"city":"Sauzal","city_ascii":"Sauzal","lat":28.4778,"lng":-16.4361,"country":"Spain","iso2":"ES","iso3":"ESP","admin_name":"Canary Islands","capital":"","population":9145},{"city":"Brandon","city_ascii":"Brandon","lat":52.4474,"lng":0.6242,"country":"United Kingdom","iso2":"GB","iso3":"GBR","admin_name":"Suffolk","capital":"","population":9145},{"city":"Maserada sul Piave","city_ascii":"Maserada sul Piave","lat":45.75,"lng":12.3167,"country":"Italy","iso2":"IT","iso3":"ITA","admin_name":"Veneto","capital":"","population":9145},{"city":"Japurá","city_ascii":"Japura","lat":-23.47,"lng":-52.5528,"country":"Brazil","iso2":"BR","iso3":"BRA","admin_name":"Paraná","capital":"","population":9144},{"city":"Chesterfield","city_ascii":"Chesterfield","lat":40.1166,"lng":-74.6459,"country":"United States","iso2":"US","iso3":"USA","admin_name":"New Jersey","capital":"","population":9144},{"city":"Santa Lucia di Piave","city_ascii":"Santa Lucia di Piave","lat":45.85,"lng":12.2833,"country":"Italy","iso2":"IT","iso3":"ITA","admin_name":"Veneto","capital":"","population":9143},{"city":"Kaithāhi","city_ascii":"Kaithahi","lat":26.3488,"lng":86.1521,"country":"India","iso2":"IN","iso3":"IND","admin_name":"Bihār","capital":"","population":9142},{"city":"Bir Tam Tam","city_ascii":"Bir Tam Tam","lat":33.9833,"lng":-4.6333,"country":"Morocco","iso2":"MA","iso3":"MAR","admin_name":"Fès-Meknès","capital":"","population":9141},{"city":"Dāmu","city_ascii":"Damu","lat":26.5461,"lng":85.982,"country":"India","iso2":"IN","iso3":"IND","admin_name":"Bihār","capital":"","population":9141},{"city":"Sibkund","city_ascii":"Sibkund","lat":25.3041,"lng":86.399,"country":"India","iso2":"IN","iso3":"IND","admin_name":"Bihār","capital":"","population":9141},{"city":"Nerinjippettai","city_ascii":"Nerinjippettai","lat":11.6543,"lng":77.7586,"country":"India","iso2":"IN","iso3":"IND","admin_name":"Tamil Nādu","capital":"","population":9141},{"city":"Seven Corners","city_ascii":"Seven Corners","lat":38.8658,"lng":-77.1445,"country":"United States","iso2":"US","iso3":"USA","admin_name":"Virginia","capital":"","population":9141},{"city":"Audubon","city_ascii":"Audubon","lat":40.1304,"lng":-75.428,"country":"United States","iso2":"US","iso3":"USA","admin_name":"Pennsylvania","capital":"","population":9141},{"city":"Helotes","city_ascii":"Helotes","lat":29.5687,"lng":-98.696,"country":"United States","iso2":"US","iso3":"USA","admin_name":"Texas","capital":"","population":9140},{"city":"Des Peres","city_ascii":"Des Peres","lat":38.5973,"lng":-90.448,"country":"United States","iso2":"US","iso3":"USA","admin_name":"Missouri","capital":"","population":9140},{"city":"Cajvana","city_ascii":"Cajvana","lat":47.7044,"lng":25.9694,"country":"Romania","iso2":"RO","iso3":"ROU","admin_name":"Suceava","capital":"","population":9139},{"city":"Chadan","city_ascii":"Chadan","lat":51.2833,"lng":91.5833,"country":"Russia","iso2":"RU","iso3":"RUS","admin_name":"Tyva","capital":"","population":9139},{"city":"Caluco","city_ascii":"Caluco","lat":13.7167,"lng":-89.65,"country":"El Salvador","iso2":"SV","iso3":"SLV","admin_name":"Sonsonate","capital":"","population":9139},{"city":"Solita","city_ascii":"Solita","lat":0.8667,"lng":-75.65,"country":"Colombia","iso2":"CO","iso3":"COL","admin_name":"Caquetá","capital":"minor","population":9139},{"city":"Oakland","city_ascii":"Oakland","lat":35.2256,"lng":-89.5372,"country":"United States","iso2":"US","iso3":"USA","admin_name":"Tennessee","capital":"","population":9139},{"city":"Copceac","city_ascii":"Copceac","lat":45.85,"lng":28.6944,"country":"Moldova","iso2":"MD","iso3":"MDA","admin_name":"Găgăuzia","capital":"","population":9138},{"city":"Lagbé","city_ascii":"Lagbe","lat":6.6833,"lng":2.6833,"country":"Benin","iso2":"BJ","iso3":"BEN","admin_name":"Plateau","capital":"","population":9138},{"city":"Pleternica","city_ascii":"Pleternica","lat":45.2833,"lng":17.8,"country":"Croatia","iso2":"HR","iso3":"HRV","admin_name":"Požeško-Slavonska Županija","capital":"minor","population":9138},{"city":"Dihri","city_ascii":"Dihri","lat":25.3796,"lng":85.5376,"country":"India","iso2":"IN","iso3":"IND","admin_name":"Bihār","capital":"","population":9138},{"city":"Bhargaon","city_ascii":"Bhargaon","lat":26.075,"lng":87.1483,"country":"India","iso2":"IN","iso3":"IND","admin_name":"Bihār","capital":"","population":9138},{"city":"Forestdale","city_ascii":"Forestdale","lat":33.5737,"lng":-86.9,"country":"United States","iso2":"US","iso3":"USA","admin_name":"Alabama","capital":"","population":9138},{"city":"Huron East","city_ascii":"Huron East","lat":43.63,"lng":-81.28,"country":"Canada","iso2":"CA","iso3":"CAN","admin_name":"Ontario","capital":"","population":9138},{"city":"Stryzhavka","city_ascii":"Stryzhavka","lat":49.3103,"lng":28.4808,"country":"Ukraine","iso2":"UA","iso3":"UKR","admin_name":"Vinnytska Oblast","capital":"","population":9137},{"city":"Delta","city_ascii":"Delta","lat":38.756,"lng":-108.0772,"country":"United States","iso2":"US","iso3":"USA","admin_name":"Colorado","capital":"","population":9137},{"city":"Bilenke","city_ascii":"Bilenke","lat":48.7664,"lng":37.6314,"country":"Ukraine","iso2":"UA","iso3":"UKR","admin_name":"Donetska Oblast","capital":"","population":9136},{"city":"Laufenburg (Baden)","city_ascii":"Laufenburg (Baden)","lat":47.5656,"lng":8.0647,"country":"Germany","iso2":"DE","iso3":"DEU","admin_name":"Baden-Württemberg","capital":"","population":9136},{"city":"Pepillo Salcedo","city_ascii":"Pepillo Salcedo","lat":19.7,"lng":-71.75,"country":"Dominican Republic","iso2":"DO","iso3":"DOM","admin_name":"Cibao Noroeste","capital":"","population":9136},{"city":"Guano","city_ascii":"Guano","lat":-1.5833,"lng":-78.6333,"country":"Ecuador","iso2":"EC","iso3":"ECU","admin_name":"Chimborazo","capital":"","population":9136},{"city":"Gavirate","city_ascii":"Gavirate","lat":45.85,"lng":8.7167,"country":"Italy","iso2":"IT","iso3":"ITA","admin_name":"Lombardy","capital":"","population":9136},{"city":"Ipuiúna","city_ascii":"Ipuiuna","lat":-22.1,"lng":-46.1833,"country":"Brazil","iso2":"BR","iso3":"BRA","admin_name":"Minas Gerais","capital":"","population":9135},{"city":"Smithville","city_ascii":"Smithville","lat":39.4929,"lng":-74.4801,"country":"United States","iso2":"US","iso3":"USA","admin_name":"New Jersey","capital":"","population":9135},{"city":"Tecoh","city_ascii":"Tecoh","lat":20.7419,"lng":-89.4744,"country":"Mexico","iso2":"MX","iso3":"MEX","admin_name":"Yucatán","capital":"","population":9134},{"city":"Ban Wang Krachae","city_ascii":"Ban Wang Krachae","lat":14.2333,"lng":98.8667,"country":"Thailand","iso2":"TH","iso3":"THA","admin_name":"Kanchanaburi","capital":"","population":9134},{"city":"Nagykálló","city_ascii":"Nagykallo","lat":47.8833,"lng":21.85,"country":"Hungary","iso2":"HU","iso3":"HUN","admin_name":"Szabolcs-Szatmár-Bereg","capital":"minor","population":9134},{"city":"Tafersit","city_ascii":"Tafersit","lat":35.0167,"lng":-3.5333,"country":"Morocco","iso2":"MA","iso3":"MAR","admin_name":"Oriental","capital":"","population":9133},{"city":"Ciudad Insurgentes","city_ascii":"Ciudad Insurgentes","lat":25.2617,"lng":-111.7744,"country":"Mexico","iso2":"MX","iso3":"MEX","admin_name":"Baja California Sur","capital":"","population":9133},{"city":"Cajobi","city_ascii":"Cajobi","lat":-20.88,"lng":-48.8089,"country":"Brazil","iso2":"BR","iso3":"BRA","admin_name":"São Paulo","capital":"","population":9133},{"city":"Mālingaon","city_ascii":"Malingaon","lat":26.356,"lng":87.9614,"country":"India","iso2":"IN","iso3":"IND","admin_name":"Bihār","capital":"","population":9132},{"city":"North Codorus","city_ascii":"North Codorus","lat":39.8646,"lng":-76.8189,"country":"United States","iso2":"US","iso3":"USA","admin_name":"Pennsylvania","capital":"","population":9131},{"city":"West Athens","city_ascii":"West Athens","lat":33.9235,"lng":-118.3033,"country":"United States","iso2":"US","iso3":"USA","admin_name":"California","capital":"","population":9131},{"city":"Dazhuangzi","city_ascii":"Dazhuangzi","lat":40.2321,"lng":99.0558,"country":"China","iso2":"CN","iso3":"CHN","admin_name":"Gansu","capital":"","population":9130},{"city":"Haddington","city_ascii":"Haddington","lat":55.956,"lng":-2.781,"country":"United Kingdom","iso2":"GB","iso3":"GBR","admin_name":"East Lothian","capital":"","population":9130},{"city":"Yenmangandla","city_ascii":"Yenmangandla","lat":16.8839,"lng":78.0332,"country":"India","iso2":"IN","iso3":"IND","admin_name":"Telangāna","capital":"","population":9130},{"city":"Govindapalle","city_ascii":"Govindapalle","lat":15.3525,"lng":78.5224,"country":"India","iso2":"IN","iso3":"IND","admin_name":"Andhra Pradesh","capital":"","population":9130},{"city":"Malalbergo","city_ascii":"Malalbergo","lat":44.7167,"lng":11.5333,"country":"Italy","iso2":"IT","iso3":"ITA","admin_name":"Emilia-Romagna","capital":"","population":9130},{"city":"Perkasie","city_ascii":"Perkasie","lat":40.372,"lng":-75.292,"country":"United States","iso2":"US","iso3":"USA","admin_name":"Pennsylvania","capital":"","population":9130},{"city":"Mwaline al Oued","city_ascii":"Mwaline al Oued","lat":33.4467,"lng":-7.3283,"country":"Morocco","iso2":"MA","iso3":"MAR","admin_name":"Casablanca-Settat","capital":"","population":9129},{"city":"Lanta","city_ascii":"Lanta","lat":7.1,"lng":1.8667,"country":"Benin","iso2":"BJ","iso3":"BEN","admin_name":"Couffo","capital":"","population":9129},{"city":"Bāsudebpur","city_ascii":"Basudebpur","lat":21.8256,"lng":87.619,"country":"India","iso2":"IN","iso3":"IND","admin_name":"West Bengal","capital":"","population":9129},{"city":"Mokri","city_ascii":"Mokri","lat":25.0184,"lng":83.5633,"country":"India","iso2":"IN","iso3":"IND","admin_name":"Bihār","capital":"","population":9129},{"city":"Mendig","city_ascii":"Mendig","lat":50.3744,"lng":7.2808,"country":"Germany","iso2":"DE","iso3":"DEU","admin_name":"Rhineland-Palatinate","capital":"","population":9128},{"city":"Jandola","city_ascii":"Jandola","lat":32.3317,"lng":70.1228,"country":"Pakistan","iso2":"PK","iso3":"PAK","admin_name":"Khyber Pakhtunkhwa","capital":"","population":9126},{"city":"San Manuel Chaparrón","city_ascii":"San Manuel Chaparron","lat":14.5167,"lng":-89.7667,"country":"Guatemala","iso2":"GT","iso3":"GTM","admin_name":"Jalapa","capital":"minor","population":9126},{"city":"Maserà di Padova","city_ascii":"Masera di Padova","lat":45.3167,"lng":11.8667,"country":"Italy","iso2":"IT","iso3":"ITA","admin_name":"Veneto","capital":"","population":9126},{"city":"Elsmere","city_ascii":"Elsmere","lat":38.9948,"lng":-84.6017,"country":"United States","iso2":"US","iso3":"USA","admin_name":"Kentucky","capital":"","population":9126},{"city":"Denekamp","city_ascii":"Denekamp","lat":52.3794,"lng":7.0089,"country":"Netherlands","iso2":"NL","iso3":"NLD","admin_name":"Overijssel","capital":"minor","population":9125},{"city":"Montoro","city_ascii":"Montoro","lat":38.0167,"lng":-4.3833,"country":"Spain","iso2":"ES","iso3":"ESP","admin_name":"Andalusia","capital":"","population":9125},{"city":"Umburetama","city_ascii":"Umburetama","lat":-7.6958,"lng":-35.6597,"country":"Brazil","iso2":"BR","iso3":"BRA","admin_name":"Pernambuco","capital":"","population":9124},{"city":"Crawford","city_ascii":"Crawford","lat":41.5685,"lng":-74.3169,"country":"United States","iso2":"US","iso3":"USA","admin_name":"New York","capital":"","population":9124},{"city":"Marlboro Village","city_ascii":"Marlboro Village","lat":38.8307,"lng":-76.7699,"country":"United States","iso2":"US","iso3":"USA","admin_name":"Maryland","capital":"","population":9124},{"city":"Amatlán de los Reyes","city_ascii":"Amatlan de los Reyes","lat":18.8457,"lng":-96.9149,"country":"Mexico","iso2":"MX","iso3":"MEX","admin_name":"Veracruz","capital":"minor","population":9123},{"city":"Hostivice","city_ascii":"Hostivice","lat":50.0814,"lng":14.2525,"country":"Czechia","iso2":"CZ","iso3":"CZE","admin_name":"Středočeský Kraj","capital":"","population":9123},{"city":"Shanklin","city_ascii":"Shanklin","lat":50.6333,"lng":-1.175,"country":"United Kingdom","iso2":"GB","iso3":"GBR","admin_name":"Isle of Wight","capital":"","population":9123},{"city":"Middlebury","city_ascii":"Middlebury","lat":44.0043,"lng":-73.1218,"country":"United States","iso2":"US","iso3":"USA","admin_name":"Vermont","capital":"","population":9123},{"city":"Chtiba","city_ascii":"Chtiba","lat":32.2,"lng":-7.3,"country":"Morocco","iso2":"MA","iso3":"MAR","admin_name":"Marrakech-Safi","capital":"","population":9122},{"city":"Peresecina","city_ascii":"Peresecina","lat":47.25,"lng":28.7667,"country":"Moldova","iso2":"MD","iso3":"MDA","admin_name":"Orhei","capital":"","population":9122},{"city":"Olesno","city_ascii":"Olesno","lat":50.875,"lng":18.4167,"country":"Poland","iso2":"PL","iso3":"POL","admin_name":"Opolskie","capital":"minor","population":9122},{"city":"Raipur","city_ascii":"Raipur","lat":25.4226,"lng":86.8498,"country":"India","iso2":"IN","iso3":"IND","admin_name":"Bihār","capital":"","population":9122},{"city":"Chitrāda","city_ascii":"Chitrada","lat":17.0802,"lng":82.2469,"country":"India","iso2":"IN","iso3":"IND","admin_name":"Andhra Pradesh","capital":"","population":9122},{"city":"Nandiyālam","city_ascii":"Nandiyalam","lat":12.9237,"lng":79.2635,"country":"India","iso2":"IN","iso3":"IND","admin_name":"Tamil Nādu","capital":"","population":9122},{"city":"Currumbin","city_ascii":"Currumbin","lat":-28.1575,"lng":153.4686,"country":"Australia","iso2":"AU","iso3":"AUS","admin_name":"Queensland","capital":"","population":9121},{"city":"Rothrist","city_ascii":"Rothrist","lat":47.3,"lng":7.8833,"country":"Switzerland","iso2":"CH","iso3":"CHE","admin_name":"Aargau","capital":"","population":9121},{"city":"Guatapé","city_ascii":"Guatape","lat":6.2333,"lng":-75.1667,"country":"Colombia","iso2":"CO","iso3":"COL","admin_name":"Antioquia","capital":"minor","population":9121},{"city":"Tettu","city_ascii":"Tettu","lat":13.6275,"lng":78.4322,"country":"India","iso2":"IN","iso3":"IND","admin_name":"Andhra Pradesh","capital":"","population":9121},{"city":"Temperance","city_ascii":"Temperance","lat":41.7653,"lng":-83.5755,"country":"United States","iso2":"US","iso3":"USA","admin_name":"Michigan","capital":"","population":9121},{"city":"Sunset Hills","city_ascii":"Sunset Hills","lat":38.531,"lng":-90.4087,"country":"United States","iso2":"US","iso3":"USA","admin_name":"Missouri","capital":"","population":9121},{"city":"Piranguinho","city_ascii":"Piranguinho","lat":-22.4008,"lng":-45.5319,"country":"Brazil","iso2":"BR","iso3":"BRA","admin_name":"Minas Gerais","capital":"","population":9120},{"city":"Palocabildo","city_ascii":"Palocabildo","lat":5.1333,"lng":-75.0333,"country":"Colombia","iso2":"CO","iso3":"COL","admin_name":"Tolima","capital":"minor","population":9120},{"city":"Groenlo","city_ascii":"Groenlo","lat":52.0411,"lng":6.6172,"country":"Netherlands","iso2":"NL","iso3":"NLD","admin_name":"Gelderland","capital":"","population":9119},{"city":"Dodji-Bata","city_ascii":"Dodji-Bata","lat":6.6833,"lng":2.2833,"country":"Benin","iso2":"BJ","iso3":"BEN","admin_name":"Atlantique","capital":"","population":9119},{"city":"Bamaiya Harlāl","city_ascii":"Bamaiya Harlal","lat":25.6664,"lng":85.8802,"country":"India","iso2":"IN","iso3":"IND","admin_name":"Bihār","capital":"","population":9119},{"city":"Killimangalam","city_ascii":"Killimangalam","lat":10.7167,"lng":76.35,"country":"India","iso2":"IN","iso3":"IND","admin_name":"Kerala","capital":"","population":9119},{"city":"Bad Schussenried","city_ascii":"Bad Schussenried","lat":48.0067,"lng":9.6586,"country":"Germany","iso2":"DE","iso3":"DEU","admin_name":"Baden-Württemberg","capital":"","population":9118},{"city":"Kongnolli","city_ascii":"Kongnolli","lat":16.42,"lng":74.58,"country":"India","iso2":"IN","iso3":"IND","admin_name":"Karnātaka","capital":"","population":9118},{"city":"East Grand Forks","city_ascii":"East Grand Forks","lat":47.9286,"lng":-97.0138,"country":"United States","iso2":"US","iso3":"USA","admin_name":"Minnesota","capital":"","population":9118},{"city":"Hurzuf","city_ascii":"Hurzuf","lat":44.5528,"lng":34.2875,"country":"Ukraine","iso2":"UA","iso3":"UKR","admin_name":"Krym, Avtonomna Respublika","capital":"","population":9117},{"city":"Alawandi","city_ascii":"Alawandi","lat":15.2303,"lng":75.9801,"country":"India","iso2":"IN","iso3":"IND","admin_name":"Karnātaka","capital":"","population":9117},{"city":"Kaglipur","city_ascii":"Kaglipur","lat":12.8006,"lng":77.5082,"country":"India","iso2":"IN","iso3":"IND","admin_name":"Karnātaka","capital":"","population":9117},{"city":"Koheda","city_ascii":"Koheda","lat":18.1709,"lng":79.0934,"country":"India","iso2":"IN","iso3":"IND","admin_name":"Telangāna","capital":"","population":9117},{"city":"Dospat","city_ascii":"Dospat","lat":41.65,"lng":24.1667,"country":"Bulgaria","iso2":"BG","iso3":"BGR","admin_name":"Smolyan","capital":"minor","population":9116},{"city":"San Jorge","city_ascii":"San Jorge","lat":13.4142,"lng":-88.3435,"country":"El Salvador","iso2":"SV","iso3":"SLV","admin_name":"San Miguel","capital":"","population":9115},{"city":"San Jorge","city_ascii":"San Jorge","lat":13.6833,"lng":-88.3833,"country":"El Salvador","iso2":"SV","iso3":"SLV","admin_name":"San Miguel","capital":"","population":9115},{"city":"Sauce","city_ascii":"Sauce","lat":-30.0667,"lng":-58.7667,"country":"Argentina","iso2":"AR","iso3":"ARG","admin_name":"Corrientes","capital":"minor","population":9115},{"city":"Phagu","city_ascii":"Phagu","lat":26.95,"lng":88.7,"country":"India","iso2":"IN","iso3":"IND","admin_name":"West Bengal","capital":"","population":9115},{"city":"Sihāli Jāgīr","city_ascii":"Sihali Jagir","lat":28.7997,"lng":78.2628,"country":"India","iso2":"IN","iso3":"IND","admin_name":"Uttar Pradesh","capital":"","population":9115},{"city":"Eshkanān","city_ascii":"Eshkanan","lat":27.2278,"lng":53.6072,"country":"Iran","iso2":"IR","iso3":"IRN","admin_name":"Fārs","capital":"","population":9115},{"city":"Miramar Beach","city_ascii":"Miramar Beach","lat":30.3854,"lng":-86.3442,"country":"United States","iso2":"US","iso3":"USA","admin_name":"Florida","capital":"","population":9115},{"city":"Tiburon","city_ascii":"Tiburon","lat":37.8854,"lng":-122.4637,"country":"United States","iso2":"US","iso3":"USA","admin_name":"California","capital":"","population":9115},{"city":"Kudūru","city_ascii":"Kuduru","lat":13.111,"lng":77.1479,"country":"India","iso2":"IN","iso3":"IND","admin_name":"Karnātaka","capital":"","population":9114},{"city":"Istrana","city_ascii":"Istrana","lat":45.6833,"lng":12.1,"country":"Italy","iso2":"IT","iso3":"ITA","admin_name":"Veneto","capital":"","population":9114},{"city":"Horodenka","city_ascii":"Horodenka","lat":48.6675,"lng":25.5003,"country":"Ukraine","iso2":"UA","iso3":"UKR","admin_name":"Ivano-Frankivska Oblast","capital":"minor","population":9113},{"city":"Mata Verde","city_ascii":"Mata Verde","lat":-15.6858,"lng":-40.7408,"country":"Brazil","iso2":"BR","iso3":"BRA","admin_name":"Minas Gerais","capital":"","population":9113},{"city":"Nechmeya","city_ascii":"Nechmeya","lat":36.6114,"lng":7.5133,"country":"Algeria","iso2":"DZ","iso3":"DZA","admin_name":"Annaba","capital":"","population":9113},{"city":"Dumri","city_ascii":"Dumri","lat":26.8648,"lng":84.3767,"country":"India","iso2":"IN","iso3":"IND","admin_name":"Bihār","capital":"","population":9113},{"city":"Pattīswaram","city_ascii":"Pattiswaram","lat":10.9253,"lng":79.3424,"country":"India","iso2":"IN","iso3":"IND","admin_name":"Tamil Nādu","capital":"","population":9113},{"city":"Stillwater","city_ascii":"Stillwater","lat":42.9701,"lng":-73.6885,"country":"United States","iso2":"US","iso3":"USA","admin_name":"New York","capital":"","population":9113},{"city":"Tunari","city_ascii":"Tunari","lat":44.55,"lng":26.1333,"country":"Romania","iso2":"RO","iso3":"ROU","admin_name":"Ilfov","capital":"","population":9112},{"city":"Zeydābād","city_ascii":"Zeydabad","lat":29.6008,"lng":55.5367,"country":"Iran","iso2":"IR","iso3":"IRN","admin_name":"Kermān","capital":"","population":9112},{"city":"Fujisawachō-niinuma","city_ascii":"Fujisawacho-niinuma","lat":38.867,"lng":141.35,"country":"Japan","iso2":"JP","iso3":"JPN","admin_name":"Iwate","capital":"","population":9112},{"city":"Nizhniy Odes","city_ascii":"Nizhniy Odes","lat":63.65,"lng":54.85,"country":"Russia","iso2":"RU","iso3":"RUS","admin_name":"Komi","capital":"","population":9111},{"city":"Montes Altos","city_ascii":"Montes Altos","lat":-5.8333,"lng":-47.0667,"country":"Brazil","iso2":"BR","iso3":"BRA","admin_name":"Maranhão","capital":"minor","population":9111},{"city":"Beuvry","city_ascii":"Beuvry","lat":50.5206,"lng":2.6803,"country":"France","iso2":"FR","iso3":"FRA","admin_name":"Hauts-de-France","capital":"","population":9111},{"city":"Hawthorn Woods","city_ascii":"Hawthorn Woods","lat":42.2313,"lng":-88.0624,"country":"United States","iso2":"US","iso3":"USA","admin_name":"Illinois","capital":"","population":9111},{"city":"Zarbdor Shaharchasi","city_ascii":"Zarbdor Shaharchasi","lat":40.0747,"lng":68.1683,"country":"Uzbekistan","iso2":"UZ","iso3":"UZB","admin_name":"Jizzax","capital":"minor","population":9110},{"city":"André Fernandes","city_ascii":"Andre Fernandes","lat":-15.9664,"lng":-41.4978,"country":"Brazil","iso2":"BR","iso3":"BRA","admin_name":"Minas Gerais","capital":"","population":9110},{"city":"Reinfeld","city_ascii":"Reinfeld","lat":53.8333,"lng":10.4833,"country":"Germany","iso2":"DE","iso3":"DEU","admin_name":"Schleswig-Holstein","capital":"","population":9110},{"city":"Miryal","city_ascii":"Miryal","lat":17.5661,"lng":78.8095,"country":"India","iso2":"IN","iso3":"IND","admin_name":"Telangāna","capital":"","population":9110},{"city":"Odayārpatti","city_ascii":"Odayarpatti","lat":11.6663,"lng":78.2144,"country":"India","iso2":"IN","iso3":"IND","admin_name":"Tamil Nādu","capital":"","population":9110},{"city":"Herenthout","city_ascii":"Herenthout","lat":51.15,"lng":4.7667,"country":"Belgium","iso2":"BE","iso3":"BEL","admin_name":"Flanders","capital":"","population":9109},{"city":"Carmen de Carupa","city_ascii":"Carmen de Carupa","lat":5.3503,"lng":-73.9053,"country":"Colombia","iso2":"CO","iso3":"COL","admin_name":"Cundinamarca","capital":"minor","population":9109},{"city":"Chotěboř","city_ascii":"Chotebor","lat":49.7208,"lng":15.6703,"country":"Czechia","iso2":"CZ","iso3":"CZE","admin_name":"Vysočina","capital":"","population":9109},{"city":"Prabhāt Pattan","city_ascii":"Prabhat Pattan","lat":21.6407,"lng":78.2722,"country":"India","iso2":"IN","iso3":"IND","admin_name":"Madhya Pradesh","capital":"","population":9109},{"city":"Fairless Hills","city_ascii":"Fairless Hills","lat":40.1783,"lng":-74.8524,"country":"United States","iso2":"US","iso3":"USA","admin_name":"Pennsylvania","capital":"","population":9109},{"city":"Flemington","city_ascii":"Flemington","lat":-33.868,"lng":151.0709,"country":"Australia","iso2":"AU","iso3":"AUS","admin_name":"New South Wales","capital":"","population":9108},{"city":"Brejolândia","city_ascii":"Brejolandia","lat":-12.4828,"lng":-43.9658,"country":"Brazil","iso2":"BR","iso3":"BRA","admin_name":"Bahia","capital":"","population":9108},{"city":"Loeches","city_ascii":"Loeches","lat":40.3833,"lng":-3.4,"country":"Spain","iso2":"ES","iso3":"ESP","admin_name":"Madrid","capital":"","population":9108},{"city":"Uchti","city_ascii":"Uchti","lat":25.9197,"lng":86.2544,"country":"India","iso2":"IN","iso3":"IND","admin_name":"Bihār","capital":"","population":9108},{"city":"Satghara","city_ascii":"Satghara","lat":26.3977,"lng":86.1678,"country":"India","iso2":"IN","iso3":"IND","admin_name":"Bihār","capital":"","population":9108},{"city":"Dallas","city_ascii":"Dallas","lat":41.3608,"lng":-75.9656,"country":"United States","iso2":"US","iso3":"USA","admin_name":"Pennsylvania","capital":"","population":9108},{"city":"Weare","city_ascii":"Weare","lat":43.0813,"lng":-71.7219,"country":"United States","iso2":"US","iso3":"USA","admin_name":"New Hampshire","capital":"","population":9108},{"city":"Embalse","city_ascii":"Embalse","lat":-32.1833,"lng":-64.4167,"country":"Argentina","iso2":"AR","iso3":"ARG","admin_name":"Córdoba","capital":"","population":9107},{"city":"San Zenón","city_ascii":"San Zenon","lat":9.245,"lng":-74.4992,"country":"Colombia","iso2":"CO","iso3":"COL","admin_name":"Magdalena","capital":"minor","population":9107},{"city":"Tekpanja","city_ascii":"Tekpanja","lat":22.2086,"lng":88.3122,"country":"India","iso2":"IN","iso3":"IND","admin_name":"West Bengal","capital":"","population":9107},{"city":"Steynsrus","city_ascii":"Steynsrus","lat":-27.95,"lng":27.5667,"country":"South Africa","iso2":"ZA","iso3":"ZAF","admin_name":"Free State","capital":"","population":9106},{"city":"Rebordosa","city_ascii":"Rebordosa","lat":41.22,"lng":-8.412,"country":"Portugal","iso2":"PT","iso3":"PRT","admin_name":"Porto","capital":"","population":9106},{"city":"Govindāpuram","city_ascii":"Govindapuram","lat":16.1548,"lng":80.1027,"country":"India","iso2":"IN","iso3":"IND","admin_name":"Andhra Pradesh","capital":"","population":9106},{"city":"Kod","city_ascii":"Kod","lat":22.885,"lng":75.1862,"country":"India","iso2":"IN","iso3":"IND","admin_name":"Madhya Pradesh","capital":"","population":9105},{"city":"Cresskill","city_ascii":"Cresskill","lat":40.9405,"lng":-73.9596,"country":"United States","iso2":"US","iso3":"USA","admin_name":"New Jersey","capital":"","population":9105},{"city":"Kottapālem","city_ascii":"Kottapalem","lat":17.436,"lng":82.495,"country":"India","iso2":"IN","iso3":"IND","admin_name":"Andhra Pradesh","capital":"","population":9104},{"city":"McFarland","city_ascii":"McFarland","lat":43.0203,"lng":-89.2828,"country":"United States","iso2":"US","iso3":"USA","admin_name":"Wisconsin","capital":"","population":9104},{"city":"Westampton","city_ascii":"Westampton","lat":40.0168,"lng":-74.8213,"country":"United States","iso2":"US","iso3":"USA","admin_name":"New Jersey","capital":"","population":9104},{"city":"Chaukhata","city_ascii":"Chaukhata","lat":25.0247,"lng":81.7375,"country":"India","iso2":"IN","iso3":"IND","admin_name":"Uttar Pradesh","capital":"","population":9103},{"city":"Belek","city_ascii":"Belek","lat":36.85,"lng":31.05,"country":"Turkey","iso2":"TR","iso3":"TUR","admin_name":"Antalya","capital":"","population":9102},{"city":"Datian","city_ascii":"Datian","lat":25.4379,"lng":87.8378,"country":"India","iso2":"IN","iso3":"IND","admin_name":"Bihār","capital":"","population":9102},{"city":"Rutland","city_ascii":"Rutland","lat":42.3848,"lng":-71.9673,"country":"United States","iso2":"US","iso3":"USA","admin_name":"Massachusetts","capital":"","population":9102},{"city":"Oborniki Śląskie","city_ascii":"Oborniki Slaskie","lat":51.2986,"lng":16.9017,"country":"Poland","iso2":"PL","iso3":"POL","admin_name":"Dolnośląskie","capital":"","population":9101},{"city":"Tarusa","city_ascii":"Tarusa","lat":54.7333,"lng":37.1833,"country":"Russia","iso2":"RU","iso3":"RUS","admin_name":"Kaluzhskaya Oblast’","capital":"minor","population":9101},{"city":"Cameron","city_ascii":"Cameron","lat":39.7444,"lng":-94.2329,"country":"United States","iso2":"US","iso3":"USA","admin_name":"Missouri","capital":"","population":9101},{"city":"Benton Harbor","city_ascii":"Benton Harbor","lat":42.1159,"lng":-86.4488,"country":"United States","iso2":"US","iso3":"USA","admin_name":"Michigan","capital":"","population":9101},{"city":"Iguidiy","city_ascii":"Iguidiy","lat":30.7467,"lng":-7.9267,"country":"Morocco","iso2":"MA","iso3":"MAR","admin_name":"Souss-Massa","capital":"","population":9100},{"city":"Hirske","city_ascii":"Hirske","lat":48.7519,"lng":38.495,"country":"Ukraine","iso2":"UA","iso3":"UKR","admin_name":"Luhanska Oblast","capital":"","population":9100},{"city":"Katakwi","city_ascii":"Katakwi","lat":1.915,"lng":33.955,"country":"Uganda","iso2":"UG","iso3":"UGA","admin_name":"Katakwi","capital":"admin","population":9100},{"city":"Nalbach","city_ascii":"Nalbach","lat":49.3667,"lng":6.7667,"country":"Germany","iso2":"DE","iso3":"DEU","admin_name":"Saarland","capital":"","population":9100},{"city":"Usworth","city_ascii":"Usworth","lat":54.94,"lng":-1.55,"country":"United Kingdom","iso2":"GB","iso3":"GBR","admin_name":"Sunderland","capital":"","population":9100},{"city":"Gok","city_ascii":"Gok","lat":27.1065,"lng":88.2459,"country":"India","iso2":"IN","iso3":"IND","admin_name":"West Bengal","capital":"","population":9100},{"city":"Orosi","city_ascii":"Orosi","lat":36.5433,"lng":-119.2914,"country":"United States","iso2":"US","iso3":"USA","admin_name":"California","capital":"","population":9100},{"city":"Kharovsk","city_ascii":"Kharovsk","lat":59.95,"lng":40.2,"country":"Russia","iso2":"RU","iso3":"RUS","admin_name":"Vologodskaya Oblast’","capital":"","population":9099},{"city":"Ouédémè","city_ascii":"Ouedeme","lat":6.7,"lng":1.6833,"country":"Benin","iso2":"BJ","iso3":"BEN","admin_name":"Couffo","capital":"","population":9099},{"city":"Consacá","city_ascii":"Consaca","lat":1.2,"lng":-77.4667,"country":"Colombia","iso2":"CO","iso3":"COL","admin_name":"Nariño","capital":"minor","population":9099},{"city":"Rivesaltes","city_ascii":"Rivesaltes","lat":42.7697,"lng":2.8747,"country":"France","iso2":"FR","iso3":"FRA","admin_name":"Occitanie","capital":"","population":9099},{"city":"Guryongpo","city_ascii":"Guryongpo","lat":35.9833,"lng":129.55,"country":"Korea, South","iso2":"KR","iso3":"KOR","admin_name":"Gyeongbuk","capital":"minor","population":9099},{"city":"Rada Tilly","city_ascii":"Rada Tilly","lat":-45.9333,"lng":-67.5333,"country":"Argentina","iso2":"AR","iso3":"ARG","admin_name":"Chubut","capital":"","population":9098},{"city":"Rincão","city_ascii":"Rincao","lat":-21.5869,"lng":-48.0708,"country":"Brazil","iso2":"BR","iso3":"BRA","admin_name":"São Paulo","capital":"","population":9098},{"city":"Park Ridge","city_ascii":"Park Ridge","lat":41.0352,"lng":-74.0423,"country":"United States","iso2":"US","iso3":"USA","admin_name":"New Jersey","capital":"","population":9098},{"city":"McCordsville","city_ascii":"McCordsville","lat":39.8966,"lng":-85.9208,"country":"United States","iso2":"US","iso3":"USA","admin_name":"Indiana","capital":"","population":9098},{"city":"Rondon","city_ascii":"Rondon","lat":-23.4108,"lng":-52.7608,"country":"Brazil","iso2":"BR","iso3":"BRA","admin_name":"Paraná","capital":"","population":9097},{"city":"Ambara","city_ascii":"Ambara","lat":22.1902,"lng":78.6708,"country":"India","iso2":"IN","iso3":"IND","admin_name":"Madhya Pradesh","capital":"","population":9097},{"city":"Springfield","city_ascii":"Springfield","lat":43.2907,"lng":-72.4809,"country":"United States","iso2":"US","iso3":"USA","admin_name":"Vermont","capital":"","population":9097},{"city":"Navoloki","city_ascii":"Navoloki","lat":57.4667,"lng":41.9667,"country":"Russia","iso2":"RU","iso3":"RUS","admin_name":"Ivanovskaya Oblast’","capital":"","population":9096},{"city":"Tineo","city_ascii":"Tineo","lat":43.3333,"lng":-6.4167,"country":"Spain","iso2":"ES","iso3":"ESP","admin_name":"Asturias","capital":"","population":9096},{"city":"Urbach","city_ascii":"Urbach","lat":48.8133,"lng":9.5789,"country":"Germany","iso2":"DE","iso3":"DEU","admin_name":"Baden-Württemberg","capital":"","population":9095},{"city":"Coatetelco","city_ascii":"Coatetelco","lat":18.7294,"lng":-99.3256,"country":"Mexico","iso2":"MX","iso3":"MEX","admin_name":"Morelos","capital":"","population":9094},{"city":"Fehrbellin","city_ascii":"Fehrbellin","lat":52.7997,"lng":12.7667,"country":"Germany","iso2":"DE","iso3":"DEU","admin_name":"Brandenburg","capital":"","population":9094},{"city":"Pithiviers","city_ascii":"Pithiviers","lat":48.1725,"lng":2.2525,"country":"France","iso2":"FR","iso3":"FRA","admin_name":"Centre-Val de Loire","capital":"minor","population":9094},{"city":"Sogām","city_ascii":"Sogam","lat":34.5014,"lng":74.3823,"country":"India","iso2":"IN","iso3":"IND","admin_name":"Jammu and Kashmīr","capital":"","population":9094},{"city":"Zeerust","city_ascii":"Zeerust","lat":-25.5333,"lng":26.0833,"country":"South Africa","iso2":"ZA","iso3":"ZAF","admin_name":"North West","capital":"","population":9093},{"city":"Kenār","city_ascii":"Kenar","lat":25.2916,"lng":85.7416,"country":"India","iso2":"IN","iso3":"IND","admin_name":"Bihār","capital":"","population":9093},{"city":"Riverside","city_ascii":"Riverside","lat":41.0318,"lng":-73.5827,"country":"United States","iso2":"US","iso3":"USA","admin_name":"Connecticut","capital":"","population":9093},{"city":"Bonnievale","city_ascii":"Bonnievale","lat":-33.9275,"lng":20.1006,"country":"South Africa","iso2":"ZA","iso3":"ZAF","admin_name":"Western Cape","capital":"","population":9092},{"city":"La Matanza de Acentejo","city_ascii":"La Matanza de Acentejo","lat":28.4528,"lng":-16.4556,"country":"Spain","iso2":"ES","iso3":"ESP","admin_name":"Canary Islands","capital":"","population":9092},{"city":"Dāvulūru","city_ascii":"Davuluru","lat":16.2625,"lng":80.7436,"country":"India","iso2":"IN","iso3":"IND","admin_name":"Andhra Pradesh","capital":"","population":9092},{"city":"Nagaoki","city_ascii":"Nagaoki","lat":33.0167,"lng":130.6167,"country":"Japan","iso2":"JP","iso3":"JPN","admin_name":"Kumamoto","capital":"","population":9092},{"city":"Bemarivo","city_ascii":"Bemarivo","lat":-17.6333,"lng":44.75,"country":"Madagascar","iso2":"MG","iso3":"MDG","admin_name":"Mahajanga","capital":"","population":9091},{"city":"Logatec","city_ascii":"Logatec","lat":45.9167,"lng":14.2297,"country":"Slovenia","iso2":"SI","iso3":"SVN","admin_name":"Logatec","capital":"admin","population":9091},{"city":"Campamento","city_ascii":"Campamento","lat":6.9789,"lng":-75.2964,"country":"Colombia","iso2":"CO","iso3":"COL","admin_name":"Antioquia","capital":"minor","population":9091},{"city":"Calamar","city_ascii":"Calamar","lat":1.9206,"lng":-72.5542,"country":"Colombia","iso2":"CO","iso3":"COL","admin_name":"Guaviare","capital":"minor","population":9091},{"city":"Suances","city_ascii":"Suances","lat":43.4333,"lng":-4.05,"country":"Spain","iso2":"ES","iso3":"ESP","admin_name":"Cantabria","capital":"","population":9091},{"city":"Chillicothe","city_ascii":"Chillicothe","lat":39.7953,"lng":-93.5499,"country":"United States","iso2":"US","iso3":"USA","admin_name":"Missouri","capital":"","population":9091},{"city":"Greytown","city_ascii":"Greytown","lat":-29.0667,"lng":30.5833,"country":"South Africa","iso2":"ZA","iso3":"ZAF","admin_name":"KwaZulu-Natal","capital":"","population":9090},{"city":"Ouarégou","city_ascii":"Ouaregou","lat":11.8,"lng":-0.7,"country":"Burkina Faso","iso2":"BF","iso3":"BFA","admin_name":"Centre-Est","capital":"","population":9090},{"city":"Portlethen","city_ascii":"Portlethen","lat":57.061,"lng":-2.13,"country":"United Kingdom","iso2":"GB","iso3":"GBR","admin_name":"Aberdeenshire","capital":"","population":9090},{"city":"Kiskunlacháza","city_ascii":"Kiskunlachaza","lat":47.2,"lng":19.0167,"country":"Hungary","iso2":"HU","iso3":"HUN","admin_name":"Pest","capital":"","population":9090},{"city":"Koila Belwā","city_ascii":"Koila Belwa","lat":26.3753,"lng":84.9986,"country":"India","iso2":"IN","iso3":"IND","admin_name":"Bihār","capital":"","population":9090},{"city":"Yeldūrti","city_ascii":"Yeldurti","lat":17.9074,"lng":78.3721,"country":"India","iso2":"IN","iso3":"IND","admin_name":"Telangāna","capital":"","population":9090},{"city":"Huntertown","city_ascii":"Huntertown","lat":41.2185,"lng":-85.1705,"country":"United States","iso2":"US","iso3":"USA","admin_name":"Indiana","capital":"","population":9090},{"city":"Marinka","city_ascii":"Marinka","lat":47.9419,"lng":37.5036,"country":"Ukraine","iso2":"UA","iso3":"UKR","admin_name":"Donetska Oblast","capital":"","population":9089},{"city":"August","city_ascii":"August","lat":37.9797,"lng":-121.2625,"country":"United States","iso2":"US","iso3":"USA","admin_name":"California","capital":"","population":9089},{"city":"Mendon","city_ascii":"Mendon","lat":42.9859,"lng":-77.5479,"country":"United States","iso2":"US","iso3":"USA","admin_name":"New York","capital":"","population":9089},{"city":"Dasaut","city_ascii":"Dasaut","lat":25.8997,"lng":86.0964,"country":"India","iso2":"IN","iso3":"IND","admin_name":"Bihār","capital":"","population":9088},{"city":"Umreth","city_ascii":"Umreth","lat":22.1262,"lng":78.7149,"country":"India","iso2":"IN","iso3":"IND","admin_name":"Madhya Pradesh","capital":"","population":9088},{"city":"Hokur Badasgom","city_ascii":"Hokur Badasgom","lat":33.6503,"lng":75.2359,"country":"India","iso2":"IN","iso3":"IND","admin_name":"Jammu and Kashmīr","capital":"","population":9088},{"city":"Haripura","city_ascii":"Haripura","lat":34.0601,"lng":74.7125,"country":"India","iso2":"IN","iso3":"IND","admin_name":"Jammu and Kashmīr","capital":"","population":9088},{"city":"Sidi Ouassay","city_ascii":"Sidi Ouassay","lat":30.05,"lng":-9.6833,"country":"Morocco","iso2":"MA","iso3":"MAR","admin_name":"Souss-Massa","capital":"","population":9087},{"city":"Paraparaumu Beach","city_ascii":"Paraparaumu Beach","lat":-40.8938,"lng":174.9794,"country":"New Zealand","iso2":"NZ","iso3":"NZL","admin_name":"Wellington","capital":"","population":9087},{"city":"Lynwood","city_ascii":"Lynwood","lat":41.5235,"lng":-87.551,"country":"United States","iso2":"US","iso3":"USA","admin_name":"Illinois","capital":"","population":9087},{"city":"New Scotland","city_ascii":"New Scotland","lat":42.6047,"lng":-73.9413,"country":"United States","iso2":"US","iso3":"USA","admin_name":"New York","capital":"","population":9087},{"city":"Kożuchów","city_ascii":"Kozuchow","lat":51.75,"lng":15.6,"country":"Poland","iso2":"PL","iso3":"POL","admin_name":"Lubuskie","capital":"","population":9086},{"city":"Bimāwān","city_ascii":"Bimawan","lat":25.5111,"lng":84.4946,"country":"India","iso2":"IN","iso3":"IND","admin_name":"Bihār","capital":"","population":9086},{"city":"Absecon","city_ascii":"Absecon","lat":39.4229,"lng":-74.4944,"country":"United States","iso2":"US","iso3":"USA","admin_name":"New Jersey","capital":"","population":9086},{"city":"Olalapādi","city_ascii":"Olalapadi","lat":10.7979,"lng":76.8923,"country":"India","iso2":"IN","iso3":"IND","admin_name":"Tamil Nādu","capital":"","population":9085},{"city":"Mauji","city_ascii":"Mauji","lat":25.6585,"lng":86.2313,"country":"India","iso2":"IN","iso3":"IND","admin_name":"Bihār","capital":"","population":9085},{"city":"Yui","city_ascii":"Yui","lat":35.1,"lng":138.5667,"country":"Japan","iso2":"JP","iso3":"JPN","admin_name":"Shizuoka","capital":"","population":9085},{"city":"Beecher","city_ascii":"Beecher","lat":43.0903,"lng":-83.7039,"country":"United States","iso2":"US","iso3":"USA","admin_name":"Michigan","capital":"","population":9085},{"city":"Gtarna","city_ascii":"Gtarna","lat":32.9724,"lng":-7.9645,"country":"Morocco","iso2":"MA","iso3":"MAR","admin_name":"Casablanca-Settat","capital":"","population":9084},{"city":"Majhaulia","city_ascii":"Majhaulia","lat":25.9635,"lng":85.5738,"country":"India","iso2":"IN","iso3":"IND","admin_name":"Bihār","capital":"","population":9084},{"city":"Periyamuttūr","city_ascii":"Periyamuttur","lat":12.463,"lng":78.1969,"country":"India","iso2":"IN","iso3":"IND","admin_name":"Tamil Nādu","capital":"","population":9084},{"city":"Little Falls","city_ascii":"Little Falls","lat":45.9862,"lng":-94.3586,"country":"United States","iso2":"US","iso3":"USA","admin_name":"Minnesota","capital":"","population":9084},{"city":"Hussepur","city_ascii":"Hussepur","lat":26.1801,"lng":84.9408,"country":"India","iso2":"IN","iso3":"IND","admin_name":"Bihār","capital":"","population":9082},{"city":"Dāita","city_ascii":"Daita","lat":24.3497,"lng":87.9342,"country":"India","iso2":"IN","iso3":"IND","admin_name":"West Bengal","capital":"","population":9081},{"city":"Midland","city_ascii":"Midland","lat":47.1734,"lng":-122.412,"country":"United States","iso2":"US","iso3":"USA","admin_name":"Washington","capital":"","population":9081},{"city":"Velampatti","city_ascii":"Velampatti","lat":10.2311,"lng":78.2294,"country":"India","iso2":"IN","iso3":"IND","admin_name":"Tamil Nādu","capital":"","population":9080},{"city":"Hooper","city_ascii":"Hooper","lat":41.1599,"lng":-112.2871,"country":"United States","iso2":"US","iso3":"USA","admin_name":"Utah","capital":"","population":9080},{"city":"Vinsady","city_ascii":"Vinsady","lat":44.0817,"lng":42.9606,"country":"Russia","iso2":"RU","iso3":"RUS","admin_name":"Stavropol’skiy Kray","capital":"","population":9079},{"city":"Brejão","city_ascii":"Brejao","lat":-9.03,"lng":-36.5689,"country":"Brazil","iso2":"BR","iso3":"BRA","admin_name":"Pernambuco","capital":"minor","population":9079},{"city":"Bāgeshwar","city_ascii":"Bageshwar","lat":29.838,"lng":79.771,"country":"India","iso2":"IN","iso3":"IND","admin_name":"Uttarākhand","capital":"","population":9079},{"city":"Andiyappanūr","city_ascii":"Andiyappanur","lat":12.5342,"lng":78.7024,"country":"India","iso2":"IN","iso3":"IND","admin_name":"Tamil Nādu","capital":"","population":9078},{"city":"Commerce","city_ascii":"Commerce","lat":33.2421,"lng":-95.8992,"country":"United States","iso2":"US","iso3":"USA","admin_name":"Texas","capital":"","population":9078},{"city":"Dinnington","city_ascii":"Dinnington","lat":53.3667,"lng":-1.2,"country":"United Kingdom","iso2":"GB","iso3":"GBR","admin_name":"Rotherham","capital":"","population":9077},{"city":"Mirzānagar","city_ascii":"Mirzanagar","lat":25.7726,"lng":85.3804,"country":"India","iso2":"IN","iso3":"IND","admin_name":"Bihār","capital":"","population":9077},{"city":"Banārūyeh","city_ascii":"Banaruyeh","lat":28.0864,"lng":54.0481,"country":"Iran","iso2":"IR","iso3":"IRN","admin_name":"Fārs","capital":"","population":9077},{"city":"Kanasānapalle","city_ascii":"Kanasanapalle","lat":16.5227,"lng":80.7772,"country":"India","iso2":"IN","iso3":"IND","admin_name":"Andhra Pradesh","capital":"","population":9076},{"city":"Gurmia","city_ascii":"Gurmia","lat":25.819,"lng":85.2295,"country":"India","iso2":"IN","iso3":"IND","admin_name":"Bihār","capital":"","population":9076},{"city":"Carignano","city_ascii":"Carignano","lat":44.9,"lng":7.6833,"country":"Italy","iso2":"IT","iso3":"ITA","admin_name":"Piedmont","capital":"","population":9076},{"city":"Newark","city_ascii":"Newark","lat":43.0418,"lng":-77.093,"country":"United States","iso2":"US","iso3":"USA","admin_name":"New York","capital":"","population":9076},{"city":"Cedar Hills","city_ascii":"Cedar Hills","lat":45.5047,"lng":-122.8053,"country":"United States","iso2":"US","iso3":"USA","admin_name":"Oregon","capital":"","population":9076},{"city":"Ban Tha Phra","city_ascii":"Ban Tha Phra","lat":16.3298,"lng":102.7998,"country":"Thailand","iso2":"TH","iso3":"THA","admin_name":"Khon Kaen","capital":"","population":9075},{"city":"Mainaschaff","city_ascii":"Mainaschaff","lat":49.9833,"lng":9.0833,"country":"Germany","iso2":"DE","iso3":"DEU","admin_name":"Bavaria","capital":"","population":9075},{"city":"Jāmunia","city_ascii":"Jamunia","lat":25.3676,"lng":87.0477,"country":"India","iso2":"IN","iso3":"IND","admin_name":"Bihār","capital":"","population":9075},{"city":"Karayılan","city_ascii":"Karayilan","lat":36.7167,"lng":36.2333,"country":"Turkey","iso2":"TR","iso3":"TUR","admin_name":"Hatay","capital":"","population":9074},{"city":"Mendicino","city_ascii":"Mendicino","lat":39.2628,"lng":16.1945,"country":"Italy","iso2":"IT","iso3":"ITA","admin_name":"Calabria","capital":"","population":9074},{"city":"Jumlā","city_ascii":"Jumla","lat":29.25,"lng":82.2167,"country":"Nepal","iso2":"NP","iso3":"NPL","admin_name":"","capital":"","population":9073},{"city":"Großbeeren","city_ascii":"Grossbeeren","lat":52.3544,"lng":13.3061,"country":"Germany","iso2":"DE","iso3":"DEU","admin_name":"Brandenburg","capital":"","population":9073},{"city":"Pontardulais","city_ascii":"Pontardulais","lat":51.71,"lng":-4.04,"country":"United Kingdom","iso2":"GB","iso3":"GBR","admin_name":"Swansea","capital":"","population":9073},{"city":"Suganwān","city_ascii":"Suganwan","lat":25.1176,"lng":85.0022,"country":"India","iso2":"IN","iso3":"IND","admin_name":"Bihār","capital":"","population":9073},{"city":"Fiumefreddo di Sicilia","city_ascii":"Fiumefreddo di Sicilia","lat":37.8,"lng":15.2,"country":"Italy","iso2":"IT","iso3":"ITA","admin_name":"Sicilia","capital":"","population":9073},{"city":"Notodden","city_ascii":"Notodden","lat":59.6294,"lng":9.1914,"country":"Norway","iso2":"NO","iso3":"NOR","admin_name":"Vestfold og Telemark","capital":"minor","population":9072},{"city":"Kirchberg","city_ascii":"Kirchberg","lat":47.4,"lng":9.0333,"country":"Switzerland","iso2":"CH","iso3":"CHE","admin_name":"Sankt Gallen","capital":"","population":9072},{"city":"Mosciano Sant’Angelo","city_ascii":"Mosciano Sant'Angelo","lat":42.75,"lng":13.8833,"country":"Italy","iso2":"IT","iso3":"ITA","admin_name":"Abruzzo","capital":"","population":9072},{"city":"Sinaia","city_ascii":"Sinaia","lat":45.35,"lng":25.5514,"country":"Romania","iso2":"RO","iso3":"ROU","admin_name":"Prahova","capital":"","population":9071},{"city":"Sibilia","city_ascii":"Sibilia","lat":15,"lng":-91.6167,"country":"Guatemala","iso2":"GT","iso3":"GTM","admin_name":"Quetzaltenango","capital":"minor","population":9071},{"city":"Pedda Muppāram","city_ascii":"Pedda Mupparam","lat":17.4792,"lng":79.6817,"country":"India","iso2":"IN","iso3":"IND","admin_name":"Telangāna","capital":"","population":9071},{"city":"Marāi Kalān","city_ascii":"Marai Kalan","lat":24.0211,"lng":85.3506,"country":"India","iso2":"IN","iso3":"IND","admin_name":"Jhārkhand","capital":"","population":9071},{"city":"Mbuzini","city_ascii":"Mbuzini","lat":-25.9333,"lng":31.9333,"country":"South Africa","iso2":"ZA","iso3":"ZAF","admin_name":"Mpumalanga","capital":"","population":9070},{"city":"Sergiyevsk","city_ascii":"Sergiyevsk","lat":53.945,"lng":51.1711,"country":"Russia","iso2":"RU","iso3":"RUS","admin_name":"Samarskaya Oblast’","capital":"","population":9070},{"city":"Luís Gomes","city_ascii":"Luis Gomes","lat":-6.4167,"lng":-38.3833,"country":"Brazil","iso2":"BR","iso3":"BRA","admin_name":"Rio Grande do Norte","capital":"minor","population":9070},{"city":"Hagaranahalli","city_ascii":"Hagaranahalli","lat":12.3677,"lng":76.4173,"country":"India","iso2":"IN","iso3":"IND","admin_name":"Karnātaka","capital":"","population":9070},{"city":"Townsend","city_ascii":"Townsend","lat":42.6671,"lng":-71.7115,"country":"United States","iso2":"US","iso3":"USA","admin_name":"Massachusetts","capital":"","population":9070},{"city":"Fatehpur Bāla","city_ascii":"Fatehpur Bala","lat":25.8338,"lng":85.6928,"country":"India","iso2":"IN","iso3":"IND","admin_name":"Bihār","capital":"","population":9069},{"city":"Valley Cottage","city_ascii":"Valley Cottage","lat":41.1162,"lng":-73.9433,"country":"United States","iso2":"US","iso3":"USA","admin_name":"New York","capital":"","population":9069},{"city":"Nykøbing Mors","city_ascii":"Nykobing Mors","lat":56.7953,"lng":8.8592,"country":"Denmark","iso2":"DK","iso3":"DNK","admin_name":"Nordjylland","capital":"minor","population":9068},{"city":"Viravāda","city_ascii":"Viravada","lat":17.1194,"lng":82.211,"country":"India","iso2":"IN","iso3":"IND","admin_name":"Andhra Pradesh","capital":"","population":9068},{"city":"Gidha","city_ascii":"Gidha","lat":26.0507,"lng":86.8176,"country":"India","iso2":"IN","iso3":"IND","admin_name":"Bihār","capital":"","population":9068},{"city":"Ghāt Borūl","city_ascii":"Ghat Borul","lat":17.77,"lng":77.14,"country":"India","iso2":"IN","iso3":"IND","admin_name":"Karnātaka","capital":"","population":9067},{"city":"Ālampur","city_ascii":"Alampur","lat":24.8721,"lng":83.8829,"country":"India","iso2":"IN","iso3":"IND","admin_name":"Bihār","capital":"","population":9067},{"city":"Vinhais","city_ascii":"Vinhais","lat":41.8167,"lng":-7,"country":"Portugal","iso2":"PT","iso3":"PRT","admin_name":"Bragança","capital":"minor","population":9066},{"city":"Carregado","city_ascii":"Carregado","lat":39.0167,"lng":-8.9667,"country":"Portugal","iso2":"PT","iso3":"PRT","admin_name":"Lisboa","capital":"","population":9066},{"city":"Paulo Lopes","city_ascii":"Paulo Lopes","lat":-27.9619,"lng":-48.6839,"country":"Brazil","iso2":"BR","iso3":"BRA","admin_name":"Santa Catarina","capital":"","population":9066},{"city":"Morada Nova de Minas","city_ascii":"Morada Nova de Minas","lat":-18.6047,"lng":-45.3572,"country":"Brazil","iso2":"BR","iso3":"BRA","admin_name":"Minas Gerais","capital":"","population":9066},{"city":"Auerbach","city_ascii":"Auerbach","lat":49.6833,"lng":11.6167,"country":"Germany","iso2":"DE","iso3":"DEU","admin_name":"Bavaria","capital":"","population":9066},{"city":"Chalástra","city_ascii":"Chalastra","lat":40.6333,"lng":22.7333,"country":"Greece","iso2":"GR","iso3":"GRC","admin_name":"Kentrikí Makedonía","capital":"","population":9066},{"city":"Chāndpur","city_ascii":"Chandpur","lat":22.4368,"lng":88.1711,"country":"India","iso2":"IN","iso3":"IND","admin_name":"West Bengal","capital":"","population":9066},{"city":"Åmål","city_ascii":"Amal","lat":59.05,"lng":12.7,"country":"Sweden","iso2":"SE","iso3":"SWE","admin_name":"Västra Götaland","capital":"minor","population":9065},{"city":"Pūttai","city_ascii":"Puttai","lat":11.8957,"lng":78.8874,"country":"India","iso2":"IN","iso3":"IND","admin_name":"Tamil Nādu","capital":"","population":9065},{"city":"Orte","city_ascii":"Orte","lat":42.4603,"lng":12.3864,"country":"Italy","iso2":"IT","iso3":"ITA","admin_name":"Lazio","capital":"","population":9065},{"city":"Kawara","city_ascii":"Kawara","lat":14.0706,"lng":5.6715,"country":"Niger","iso2":"NE","iso3":"NER","admin_name":"Tahoua","capital":"","population":9064},{"city":"Berndorf","city_ascii":"Berndorf","lat":47.9428,"lng":16.1036,"country":"Austria","iso2":"AT","iso3":"AUT","admin_name":"Niederösterreich","capital":"","population":9064},{"city":"Adjido","city_ascii":"Adjido","lat":7.0333,"lng":1.9833,"country":"Benin","iso2":"BJ","iso3":"BEN","admin_name":"Zou","capital":"","population":9064},{"city":"Íquira","city_ascii":"Iquira","lat":2.65,"lng":-75.65,"country":"Colombia","iso2":"CO","iso3":"COL","admin_name":"Huila","capital":"minor","population":9064},{"city":"Magny-le-Hongre","city_ascii":"Magny-le-Hongre","lat":48.8631,"lng":2.8133,"country":"France","iso2":"FR","iso3":"FRA","admin_name":"Île-de-France","capital":"","population":9064},{"city":"Venkatādripālem","city_ascii":"Venkatadripalem","lat":16.0506,"lng":79.217,"country":"India","iso2":"IN","iso3":"IND","admin_name":"Andhra Pradesh","capital":"","population":9063},{"city":"Oggiono","city_ascii":"Oggiono","lat":45.7833,"lng":9.35,"country":"Italy","iso2":"IT","iso3":"ITA","admin_name":"Lombardy","capital":"","population":9063},{"city":"Economy","city_ascii":"Economy","lat":40.6411,"lng":-80.1841,"country":"United States","iso2":"US","iso3":"USA","admin_name":"Pennsylvania","capital":"","population":9063},{"city":"Ewo","city_ascii":"Ewo","lat":-0.8742,"lng":14.8167,"country":"Congo (Brazzaville)","iso2":"CG","iso3":"COG","admin_name":"Cuvette-Ouest","capital":"admin","population":9062},{"city":"Campobello di Licata","city_ascii":"Campobello di Licata","lat":37.25,"lng":13.9167,"country":"Italy","iso2":"IT","iso3":"ITA","admin_name":"Sicilia","capital":"","population":9062},{"city":"Sarauni","city_ascii":"Sarauni","lat":24.8613,"lng":85.8712,"country":"India","iso2":"IN","iso3":"IND","admin_name":"Bihār","capital":"","population":9061},{"city":"Wollert","city_ascii":"Wollert","lat":-37.597,"lng":145.033,"country":"Australia","iso2":"AU","iso3":"AUS","admin_name":"Victoria","capital":"","population":9060},{"city":"Saraiya","city_ascii":"Saraiya","lat":24.8012,"lng":84.0816,"country":"India","iso2":"IN","iso3":"IND","admin_name":"Bihār","capital":"","population":9060},{"city":"Uppugunduru","city_ascii":"Uppugunduru","lat":15.673,"lng":80.167,"country":"India","iso2":"IN","iso3":"IND","admin_name":"Andhra Pradesh","capital":"","population":9060},{"city":"Strehaia","city_ascii":"Strehaia","lat":44.6222,"lng":23.1972,"country":"Romania","iso2":"RO","iso3":"ROU","admin_name":"Mehedinţi","capital":"","population":9059},{"city":"Scionzier","city_ascii":"Scionzier","lat":46.0581,"lng":6.5503,"country":"France","iso2":"FR","iso3":"FRA","admin_name":"Auvergne-Rhône-Alpes","capital":"","population":9059},{"city":"Harrodsburg","city_ascii":"Harrodsburg","lat":37.7654,"lng":-84.8474,"country":"United States","iso2":"US","iso3":"USA","admin_name":"Kentucky","capital":"","population":9057},{"city":"Country Club Estates","city_ascii":"Country Club Estates","lat":31.2113,"lng":-81.4622,"country":"United States","iso2":"US","iso3":"USA","admin_name":"Georgia","capital":"","population":9057},{"city":"Roxborough Park","city_ascii":"Roxborough Park","lat":39.4492,"lng":-105.0746,"country":"United States","iso2":"US","iso3":"USA","admin_name":"Colorado","capital":"","population":9057},{"city":"Tāla","city_ascii":"Tala","lat":24.3735,"lng":81.1989,"country":"India","iso2":"IN","iso3":"IND","admin_name":"Madhya Pradesh","capital":"","population":9055},{"city":"Lacchiarella","city_ascii":"Lacchiarella","lat":45.3167,"lng":9.1333,"country":"Italy","iso2":"IT","iso3":"ITA","admin_name":"Lombardy","capital":"","population":9055},{"city":"Toccoa","city_ascii":"Toccoa","lat":34.581,"lng":-83.3263,"country":"United States","iso2":"US","iso3":"USA","admin_name":"Georgia","capital":"","population":9055},{"city":"Northwest Harborcreek","city_ascii":"Northwest Harborcreek","lat":42.1494,"lng":-79.9945,"country":"United States","iso2":"US","iso3":"USA","admin_name":"Pennsylvania","capital":"","population":9054},{"city":"Chaponost","city_ascii":"Chaponost","lat":45.7103,"lng":4.7422,"country":"France","iso2":"FR","iso3":"FRA","admin_name":"Auvergne-Rhône-Alpes","capital":"","population":9052},{"city":"São Francisco","city_ascii":"Sao Francisco","lat":-5.1228,"lng":-47.3858,"country":"Brazil","iso2":"BR","iso3":"BRA","admin_name":"Maranhão","capital":"minor","population":9051},{"city":"Januário Cicco","city_ascii":"Januario Cicco","lat":-6.15,"lng":-35.5833,"country":"Brazil","iso2":"BR","iso3":"BRA","admin_name":"Rio Grande do Norte","capital":"minor","population":9051},{"city":"Udarband","city_ascii":"Udarband","lat":24.8698,"lng":92.8694,"country":"India","iso2":"IN","iso3":"IND","admin_name":"Assam","capital":"","population":9051},{"city":"Ayanikkād","city_ascii":"Ayanikkad","lat":10.458,"lng":76.126,"country":"India","iso2":"IN","iso3":"IND","admin_name":"Kerala","capital":"","population":9051},{"city":"Salto Grande","city_ascii":"Salto Grande","lat":-22.8928,"lng":-49.9856,"country":"Brazil","iso2":"BR","iso3":"BRA","admin_name":"São Paulo","capital":"","population":9050},{"city":"Bonhill","city_ascii":"Bonhill","lat":55.983,"lng":-4.567,"country":"United Kingdom","iso2":"GB","iso3":"GBR","admin_name":"West Dunbartonshire","capital":"","population":9050},{"city":"Lanark","city_ascii":"Lanark","lat":55.6749,"lng":-3.777,"country":"United Kingdom","iso2":"GB","iso3":"GBR","admin_name":"South Lanarkshire","capital":"","population":9050},{"city":"Kegen","city_ascii":"Kegen","lat":43.0197,"lng":79.2203,"country":"Kazakhstan","iso2":"KZ","iso3":"KAZ","admin_name":"Almaty","capital":"minor","population":9049},{"city":"Bemiss","city_ascii":"Bemiss","lat":30.9318,"lng":-83.2386,"country":"United States","iso2":"US","iso3":"USA","admin_name":"Georgia","capital":"","population":9049},{"city":"Colac","city_ascii":"Colac","lat":-38.3403,"lng":143.5847,"country":"Australia","iso2":"AU","iso3":"AUS","admin_name":"Victoria","capital":"","population":9048},{"city":"Intich’o","city_ascii":"Intich'o","lat":14.2667,"lng":39.15,"country":"Ethiopia","iso2":"ET","iso3":"ETH","admin_name":"Tigray","capital":"","population":9048},{"city":"Mohon","city_ascii":"Mohon","lat":49.752,"lng":4.7315,"country":"France","iso2":"FR","iso3":"FRA","admin_name":"Grand Est","capital":"","population":9048},{"city":"Mānoke","city_ascii":"Manoke","lat":30.675,"lng":75.456,"country":"India","iso2":"IN","iso3":"IND","admin_name":"Punjab","capital":"","population":9048},{"city":"Poiana Mare","city_ascii":"Poiana Mare","lat":43.9333,"lng":23.0833,"country":"Romania","iso2":"RO","iso3":"ROU","admin_name":"Dolj","capital":"","population":9047},{"city":"La Florida","city_ascii":"La Florida","lat":1.3017,"lng":-77.4106,"country":"Colombia","iso2":"CO","iso3":"COL","admin_name":"Nariño","capital":"minor","population":9047},{"city":"Mamnūr","city_ascii":"Mamnur","lat":17.9092,"lng":79.5926,"country":"India","iso2":"IN","iso3":"IND","admin_name":"Telangāna","capital":"","population":9047},{"city":"Borgosatollo","city_ascii":"Borgosatollo","lat":45.4761,"lng":10.24,"country":"Italy","iso2":"IT","iso3":"ITA","admin_name":"Lombardy","capital":"","population":9047},{"city":"Orange Park","city_ascii":"Orange Park","lat":30.1706,"lng":-81.7041,"country":"United States","iso2":"US","iso3":"USA","admin_name":"Florida","capital":"","population":9047},{"city":"Abū Khashab","city_ascii":"Abu Khashab","lat":35.9358,"lng":40.0367,"country":"Syria","iso2":"SY","iso3":"SYR","admin_name":"Dayr az Zawr","capital":"","population":9046},{"city":"Khāsbalanda","city_ascii":"Khasbalanda","lat":22.5881,"lng":88.6887,"country":"India","iso2":"IN","iso3":"IND","admin_name":"West Bengal","capital":"","population":9046},{"city":"Livno","city_ascii":"Livno","lat":43.8253,"lng":17.0058,"country":"Bosnia and Herzegovina","iso2":"BA","iso3":"BIH","admin_name":"Bosnia and Herzegovina, Federation of","capital":"minor","population":9045},{"city":"Zwiesel","city_ascii":"Zwiesel","lat":49.0167,"lng":13.2333,"country":"Germany","iso2":"DE","iso3":"DEU","admin_name":"Bavaria","capital":"","population":9045},{"city":"Baniré Koré","city_ascii":"Banire Kore","lat":15.2072,"lng":-9.1517,"country":"Mali","iso2":"ML","iso3":"MLI","admin_name":"Kayes","capital":"","population":9044},{"city":"Berching","city_ascii":"Berching","lat":49.1,"lng":11.4333,"country":"Germany","iso2":"DE","iso3":"DEU","admin_name":"Bavaria","capital":"","population":9044},{"city":"Bolokhovo","city_ascii":"Bolokhovo","lat":54.0833,"lng":37.8333,"country":"Russia","iso2":"RU","iso3":"RUS","admin_name":"Tul’skaya Oblast’","capital":"","population":9043},{"city":"Harahan","city_ascii":"Harahan","lat":29.9374,"lng":-90.2031,"country":"United States","iso2":"US","iso3":"USA","admin_name":"Louisiana","capital":"","population":9043},{"city":"Andilana Avaratra","city_ascii":"Andilana Avaratra","lat":-17.35,"lng":48.5333,"country":"Madagascar","iso2":"MG","iso3":"MDG","admin_name":"Toamasina","capital":"","population":9042},{"city":"La Ravoire","city_ascii":"La Ravoire","lat":45.56,"lng":5.96,"country":"France","iso2":"FR","iso3":"FRA","admin_name":"Auvergne-Rhône-Alpes","capital":"","population":9042},{"city":"Janhapāra","city_ascii":"Janhapara","lat":21.339,"lng":83.731,"country":"India","iso2":"IN","iso3":"IND","admin_name":"Odisha","capital":"","population":9042},{"city":"Fossombrone","city_ascii":"Fossombrone","lat":43.7,"lng":12.8167,"country":"Italy","iso2":"IT","iso3":"ITA","admin_name":"Marche","capital":"","population":9042},{"city":"Breckerfeld","city_ascii":"Breckerfeld","lat":51.2667,"lng":7.4667,"country":"Germany","iso2":"DE","iso3":"DEU","admin_name":"North Rhine-Westphalia","capital":"","population":9041},{"city":"Rye","city_ascii":"Rye","lat":50.95,"lng":0.73,"country":"United Kingdom","iso2":"GB","iso3":"GBR","admin_name":"East Sussex","capital":"","population":9041},{"city":"Podenzano","city_ascii":"Podenzano","lat":44.95,"lng":9.6833,"country":"Italy","iso2":"IT","iso3":"ITA","admin_name":"Emilia-Romagna","capital":"","population":9041},{"city":"San Sebastián","city_ascii":"San Sebastian","lat":18.3356,"lng":-66.9948,"country":"Puerto Rico","iso2":"PR","iso3":"PRI","admin_name":"Puerto Rico","capital":"","population":9041},{"city":"Sanger","city_ascii":"Sanger","lat":33.3715,"lng":-97.1678,"country":"United States","iso2":"US","iso3":"USA","admin_name":"Texas","capital":"","population":9041},{"city":"Ban Ngio Ngam","city_ascii":"Ban Ngio Ngam","lat":17.6671,"lng":100.1754,"country":"Thailand","iso2":"TH","iso3":"THA","admin_name":"Uttaradit","capital":"","population":9040},{"city":"Santa Sylvina","city_ascii":"Santa Sylvina","lat":-27.7833,"lng":-61.15,"country":"Argentina","iso2":"AR","iso3":"ARG","admin_name":"Chaco","capital":"minor","population":9040},{"city":"Leven","city_ascii":"Leven","lat":56.195,"lng":-2.9942,"country":"United Kingdom","iso2":"GB","iso3":"GBR","admin_name":"Fife","capital":"","population":9040},{"city":"Warkan","city_ascii":"Warkan","lat":25.0331,"lng":72.6862,"country":"India","iso2":"IN","iso3":"IND","admin_name":"Rājasthān","capital":"","population":9040},{"city":"Dadrewa","city_ascii":"Dadrewa","lat":28.6728,"lng":75.2328,"country":"India","iso2":"IN","iso3":"IND","admin_name":"Rājasthān","capital":"","population":9040},{"city":"Old Orchard Beach","city_ascii":"Old Orchard Beach","lat":43.5239,"lng":-70.3904,"country":"United States","iso2":"US","iso3":"USA","admin_name":"Maine","capital":"","population":9040},{"city":"Verkhnyaya Tura","city_ascii":"Verkhnyaya Tura","lat":58.3594,"lng":59.8175,"country":"Russia","iso2":"RU","iso3":"RUS","admin_name":"Sverdlovskaya Oblast’","capital":"","population":9039},{"city":"Chārakunda","city_ascii":"Charakunda","lat":16.6916,"lng":78.7054,"country":"India","iso2":"IN","iso3":"IND","admin_name":"Telangāna","capital":"","population":9039},{"city":"Monteroni d’Arbia","city_ascii":"Monteroni d'Arbia","lat":43.2333,"lng":11.4167,"country":"Italy","iso2":"IT","iso3":"ITA","admin_name":"Tuscany","capital":"","population":9039},{"city":"Iijima","city_ascii":"Iijima","lat":35.6767,"lng":137.9198,"country":"Japan","iso2":"JP","iso3":"JPN","admin_name":"Nagano","capital":"","population":9038},{"city":"Méridiala","city_ascii":"Meridiala","lat":12.0917,"lng":-7.2592,"country":"Mali","iso2":"ML","iso3":"MLI","admin_name":"Sikasso","capital":"","population":9037},{"city":"Travis Ranch","city_ascii":"Travis Ranch","lat":32.8015,"lng":-96.4775,"country":"United States","iso2":"US","iso3":"USA","admin_name":"Texas","capital":"","population":9037},{"city":"Bérégadougou","city_ascii":"Beregadougou","lat":10.7667,"lng":-4.75,"country":"Burkina Faso","iso2":"BF","iso3":"BFA","admin_name":"Cascades","capital":"","population":9036},{"city":"Aadorf","city_ascii":"Aadorf","lat":47.5,"lng":8.9,"country":"Switzerland","iso2":"CH","iso3":"CHE","admin_name":"Thurgau","capital":"","population":9036},{"city":"Tājpur","city_ascii":"Tajpur","lat":25.9022,"lng":84.5055,"country":"India","iso2":"IN","iso3":"IND","admin_name":"Bihār","capital":"","population":9036},{"city":"Villa Castelli","city_ascii":"Villa Castelli","lat":40.5833,"lng":17.4833,"country":"Italy","iso2":"IT","iso3":"ITA","admin_name":"Puglia","capital":"","population":9036},{"city":"Nová Paka","city_ascii":"Nova Paka","lat":50.4897,"lng":15.5136,"country":"Czechia","iso2":"CZ","iso3":"CZE","admin_name":"Liberecký Kraj","capital":"","population":9035},{"city":"Bockhorn","city_ascii":"Bockhorn","lat":53.4,"lng":8.0167,"country":"Germany","iso2":"DE","iso3":"DEU","admin_name":"Lower Saxony","capital":"","population":9035},{"city":"Breinigsville","city_ascii":"Breinigsville","lat":40.5394,"lng":-75.6347,"country":"United States","iso2":"US","iso3":"USA","admin_name":"Pennsylvania","capital":"","population":9035},{"city":"Ādamī Tulu","city_ascii":"Adami Tulu","lat":7.8667,"lng":38.7,"country":"Ethiopia","iso2":"ET","iso3":"ETH","admin_name":"Oromīya","capital":"","population":9034},{"city":"Gohi Bishunpur","city_ascii":"Gohi Bishunpur","lat":25.9275,"lng":85.8626,"country":"India","iso2":"IN","iso3":"IND","admin_name":"Bihār","capital":"","population":9034},{"city":"Lapeer","city_ascii":"Lapeer","lat":43.0447,"lng":-83.3253,"country":"United States","iso2":"US","iso3":"USA","admin_name":"Michigan","capital":"","population":9034},{"city":"Waldheim","city_ascii":"Waldheim","lat":51.0667,"lng":13.0167,"country":"Germany","iso2":"DE","iso3":"DEU","admin_name":"Saxony","capital":"","population":9033},{"city":"Ksar Belezma","city_ascii":"Ksar Belezma","lat":35.6756,"lng":5.9033,"country":"Algeria","iso2":"DZ","iso3":"DZA","admin_name":"Batna","capital":"","population":9033},{"city":"North Merritt Island","city_ascii":"North Merritt Island","lat":28.4585,"lng":-80.7162,"country":"United States","iso2":"US","iso3":"USA","admin_name":"Florida","capital":"","population":9033},{"city":"Çayırlı","city_ascii":"Cayirli","lat":39.8056,"lng":40.0364,"country":"Turkey","iso2":"TR","iso3":"TUR","admin_name":"Erzincan","capital":"minor","population":9032},{"city":"Westerland","city_ascii":"Westerland","lat":54.91,"lng":8.3075,"country":"Germany","iso2":"DE","iso3":"DEU","admin_name":"Schleswig-Holstein","capital":"","population":9032},{"city":"Doberlug-Kirchhain","city_ascii":"Doberlug-Kirchhain","lat":51.6167,"lng":13.5667,"country":"Germany","iso2":"DE","iso3":"DEU","admin_name":"Brandenburg","capital":"","population":9032},{"city":"Furth im Wald","city_ascii":"Furth im Wald","lat":49.3097,"lng":12.84,"country":"Germany","iso2":"DE","iso3":"DEU","admin_name":"Bavaria","capital":"","population":9032},{"city":"Highland Park","city_ascii":"Highland Park","lat":42.4052,"lng":-83.0977,"country":"United States","iso2":"US","iso3":"USA","admin_name":"Michigan","capital":"","population":9032},{"city":"Bougival","city_ascii":"Bougival","lat":48.8667,"lng":2.1333,"country":"France","iso2":"FR","iso3":"FRA","admin_name":"Île-de-France","capital":"","population":9031},{"city":"Les Sorinières","city_ascii":"Les Sorinieres","lat":47.1472,"lng":-1.5286,"country":"France","iso2":"FR","iso3":"FRA","admin_name":"Pays de la Loire","capital":"","population":9031},{"city":"Porto Tolle","city_ascii":"Porto Tolle","lat":44.95,"lng":12.3167,"country":"Italy","iso2":"IT","iso3":"ITA","admin_name":"Veneto","capital":"","population":9031},{"city":"Dunbar","city_ascii":"Dunbar","lat":56.0027,"lng":-2.5169,"country":"United Kingdom","iso2":"GB","iso3":"GBR","admin_name":"East Lothian","capital":"","population":9030},{"city":"Nanzhuang","city_ascii":"Nanzhuang","lat":24.5699,"lng":121.0157,"country":"Taiwan","iso2":"TW","iso3":"TWN","admin_name":"Miaoli","capital":"","population":9029},{"city":"Dharampur","city_ascii":"Dharampur","lat":25.2417,"lng":82.2331,"country":"India","iso2":"IN","iso3":"IND","admin_name":"Uttar Pradesh","capital":"","population":9029},{"city":"Monticello Conte Otto","city_ascii":"Monticello Conte Otto","lat":45.6,"lng":11.5833,"country":"Italy","iso2":"IT","iso3":"ITA","admin_name":"Veneto","capital":"","population":9029},{"city":"Tuscumbia","city_ascii":"Tuscumbia","lat":34.7204,"lng":-87.7035,"country":"United States","iso2":"US","iso3":"USA","admin_name":"Alabama","capital":"","population":9029},{"city":"Velyki Luchky","city_ascii":"Velyki Luchky","lat":48.4167,"lng":22.5667,"country":"Ukraine","iso2":"UA","iso3":"UKR","admin_name":"Zakarpatska Oblast","capital":"","population":9028},{"city":"Nhân Trạch","city_ascii":"Nhan Trach","lat":19.05,"lng":105.55,"country":"Vietnam","iso2":"VN","iso3":"VNM","admin_name":"Nghệ An","capital":"","population":9028},{"city":"Kurichedu","city_ascii":"Kurichedu","lat":15.9,"lng":79.5833,"country":"India","iso2":"IN","iso3":"IND","admin_name":"Andhra Pradesh","capital":"","population":9027},{"city":"Kannāl","city_ascii":"Kannal","lat":18.6938,"lng":79.4288,"country":"India","iso2":"IN","iso3":"IND","admin_name":"Telangāna","capital":"","population":9027},{"city":"Katsuyama","city_ascii":"Katsuyama","lat":35.0876,"lng":133.6913,"country":"Japan","iso2":"JP","iso3":"JPN","admin_name":"Okayama","capital":"","population":9027},{"city":"Booneville","city_ascii":"Booneville","lat":34.6643,"lng":-88.5684,"country":"United States","iso2":"US","iso3":"USA","admin_name":"Mississippi","capital":"","population":9027},{"city":"Pullach im Isartal","city_ascii":"Pullach im Isartal","lat":48.05,"lng":11.5167,"country":"Germany","iso2":"DE","iso3":"DEU","admin_name":"Bavaria","capital":"","population":9026},{"city":"Hemmoor","city_ascii":"Hemmoor","lat":53.7025,"lng":9.1394,"country":"Germany","iso2":"DE","iso3":"DEU","admin_name":"Lower Saxony","capital":"","population":9026},{"city":"Pivnichne","city_ascii":"Pivnichne","lat":48.3886,"lng":37.9067,"country":"Ukraine","iso2":"UA","iso3":"UKR","admin_name":"Donetska Oblast","capital":"","population":9024},{"city":"Sint-Martens-Lennik","city_ascii":"Sint-Martens-Lennik","lat":50.8,"lng":4.15,"country":"Belgium","iso2":"BE","iso3":"BEL","admin_name":"Flanders","capital":"","population":9024},{"city":"Rāmpur Khajuriyā","city_ascii":"Rampur Khajuriya","lat":26.3923,"lng":84.7688,"country":"India","iso2":"IN","iso3":"IND","admin_name":"Bihār","capital":"","population":9024},{"city":"Douglas","city_ascii":"Douglas","lat":42.0524,"lng":-71.7515,"country":"United States","iso2":"US","iso3":"USA","admin_name":"Massachusetts","capital":"","population":9024},{"city":"Ampasimpotsy-Gara","city_ascii":"Ampasimpotsy-Gara","lat":-18.9667,"lng":48.35,"country":"Madagascar","iso2":"MG","iso3":"MDG","admin_name":"Toamasina","capital":"","population":9023},{"city":"Ceelbuur","city_ascii":"Ceelbuur","lat":4.685,"lng":46.6175,"country":"Somalia","iso2":"SO","iso3":"SOM","admin_name":"Galguduud","capital":"","population":9023},{"city":"Coqueiral","city_ascii":"Coqueiral","lat":-21.1861,"lng":-45.4439,"country":"Brazil","iso2":"BR","iso3":"BRA","admin_name":"Minas Gerais","capital":"","population":9023},{"city":"Manatuto","city_ascii":"Manatuto","lat":-8.5167,"lng":126.0167,"country":"Timor-Leste","iso2":"TL","iso3":"TLS","admin_name":"Manatuto","capital":"admin","population":9022},{"city":"Barwell","city_ascii":"Barwell","lat":52.5682,"lng":-1.3462,"country":"United Kingdom","iso2":"GB","iso3":"GBR","admin_name":"Leicestershire","capital":"","population":9022},{"city":"Sāhāpur","city_ascii":"Sahapur","lat":22.52,"lng":88.17,"country":"India","iso2":"IN","iso3":"IND","admin_name":"West Bengal","capital":"","population":9022},{"city":"Westwood","city_ascii":"Westwood","lat":42.3031,"lng":-85.6286,"country":"United States","iso2":"US","iso3":"USA","admin_name":"Michigan","capital":"","population":9022},{"city":"Odžaci","city_ascii":"Odzaci","lat":45.5167,"lng":19.2667,"country":"Serbia","iso2":"RS","iso3":"SRB","admin_name":"Odžaci","capital":"admin","population":9021},{"city":"Zalishchyky","city_ascii":"Zalishchyky","lat":48.65,"lng":25.7333,"country":"Ukraine","iso2":"UA","iso3":"UKR","admin_name":"Ternopilska Oblast","capital":"minor","population":9021},{"city":"Beckwith","city_ascii":"Beckwith","lat":45.0833,"lng":-76.0667,"country":"Canada","iso2":"CA","iso3":"CAN","admin_name":"Ontario","capital":"","population":9021},{"city":"Arico el Nuevo","city_ascii":"Arico el Nuevo","lat":28.1667,"lng":-16.4667,"country":"Spain","iso2":"ES","iso3":"ESP","admin_name":"Canary Islands","capital":"","population":9020},{"city":"Blairgowrie","city_ascii":"Blairgowrie","lat":56.5916,"lng":-3.3405,"country":"United Kingdom","iso2":"GB","iso3":"GBR","admin_name":"Perth and Kinross","capital":"","population":9020},{"city":"Cupar","city_ascii":"Cupar","lat":56.32,"lng":-3.01,"country":"United Kingdom","iso2":"GB","iso3":"GBR","admin_name":"Fife","capital":"","population":9020},{"city":"Nādol","city_ascii":"Nadol","lat":25.367,"lng":73.45,"country":"India","iso2":"IN","iso3":"IND","admin_name":"Rājasthān","capital":"","population":9020},{"city":"Bala Cynwyd","city_ascii":"Bala Cynwyd","lat":40.0116,"lng":-75.2283,"country":"United States","iso2":"US","iso3":"USA","admin_name":"Pennsylvania","capital":"","population":9020},{"city":"Muhos","city_ascii":"Muhos","lat":64.8,"lng":26,"country":"Finland","iso2":"FI","iso3":"FIN","admin_name":"Pohjois-Pohjanmaa","capital":"minor","population":9019},{"city":"Tomblaine","city_ascii":"Tomblaine","lat":48.6833,"lng":6.2167,"country":"France","iso2":"FR","iso3":"FRA","admin_name":"Grand Est","capital":"","population":9019},{"city":"Kaniwāra","city_ascii":"Kaniwara","lat":22.2145,"lng":79.7366,"country":"India","iso2":"IN","iso3":"IND","admin_name":"Madhya Pradesh","capital":"","population":9019},{"city":"Māli","city_ascii":"Mali","lat":25.6549,"lng":86.7275,"country":"India","iso2":"IN","iso3":"IND","admin_name":"Bihār","capital":"","population":9019},{"city":"Foiano della Chiana","city_ascii":"Foiano della Chiana","lat":43.25,"lng":11.8167,"country":"Italy","iso2":"IT","iso3":"ITA","admin_name":"Tuscany","capital":"","population":9019},{"city":"Gretna","city_ascii":"Gretna","lat":41.1314,"lng":-96.245,"country":"United States","iso2":"US","iso3":"USA","admin_name":"Nebraska","capital":"","population":9019},{"city":"Moman Barodiya","city_ascii":"Moman Barodiya","lat":23.6042,"lng":76.3364,"country":"India","iso2":"IN","iso3":"IND","admin_name":"Madhya Pradesh","capital":"","population":9018},{"city":"Hampstead","city_ascii":"Hampstead","lat":42.8821,"lng":-71.171,"country":"United States","iso2":"US","iso3":"USA","admin_name":"New Hampshire","capital":"","population":9018},{"city":"Neustadt","city_ascii":"Neustadt","lat":50.7333,"lng":11.75,"country":"Germany","iso2":"DE","iso3":"DEU","admin_name":"Thuringia","capital":"","population":9017},{"city":"San Francisco","city_ascii":"San Francisco","lat":14.1167,"lng":-88.3667,"country":"Honduras","iso2":"HN","iso3":"HND","admin_name":"Lempira","capital":"","population":9017},{"city":"Ban Wang Pradu","city_ascii":"Ban Wang Pradu","lat":16.76,"lng":100.35,"country":"Thailand","iso2":"TH","iso3":"THA","admin_name":"Phitsanulok","capital":"","population":9016},{"city":"Karlıova","city_ascii":"Karliova","lat":39.2992,"lng":41.0142,"country":"Turkey","iso2":"TR","iso3":"TUR","admin_name":"Bingöl","capital":"minor","population":9016},{"city":"San Ignacio","city_ascii":"San Ignacio","lat":9.7997,"lng":-84.163,"country":"Costa Rica","iso2":"CR","iso3":"CRI","admin_name":"San José","capital":"","population":9016},{"city":"Mandīshah","city_ascii":"Mandishah","lat":28.3515,"lng":28.9317,"country":"Egypt","iso2":"EG","iso3":"EGY","admin_name":"Al Jīzah","capital":"","population":9016},{"city":"Bābai Kalān","city_ascii":"Babai Kalan","lat":22.8313,"lng":78.6774,"country":"India","iso2":"IN","iso3":"IND","admin_name":"Madhya Pradesh","capital":"","population":9016},{"city":"Aplao","city_ascii":"Aplao","lat":-16.0713,"lng":-72.4882,"country":"Peru","iso2":"PE","iso3":"PER","admin_name":"Arequipa","capital":"","population":9015},{"city":"Estanzuelas","city_ascii":"Estanzuelas","lat":13.65,"lng":-88.5,"country":"El Salvador","iso2":"SV","iso3":"SLV","admin_name":"Usulután","capital":"","population":9015},{"city":"Coronel Du Graty","city_ascii":"Coronel Du Graty","lat":-27.6667,"lng":-60.9333,"country":"Argentina","iso2":"AR","iso3":"ARG","admin_name":"Chaco","capital":"","population":9015},{"city":"Lakhna","city_ascii":"Lakhna","lat":25.8865,"lng":87.6001,"country":"India","iso2":"IN","iso3":"IND","admin_name":"Bihār","capital":"","population":9015},{"city":"Dhauni","city_ascii":"Dhauni","lat":24.9901,"lng":87.0011,"country":"India","iso2":"IN","iso3":"IND","admin_name":"Bihār","capital":"","population":9015},{"city":"Madhurāpur","city_ascii":"Madhurapur","lat":25.9456,"lng":85.9759,"country":"India","iso2":"IN","iso3":"IND","admin_name":"Bihār","capital":"","population":9015},{"city":"Bāsdeopur","city_ascii":"Basdeopur","lat":25.3909,"lng":86.6821,"country":"India","iso2":"IN","iso3":"IND","admin_name":"Bihār","capital":"","population":9014},{"city":"Hatti Mattūr","city_ascii":"Hatti Mattur","lat":14.9435,"lng":75.4239,"country":"India","iso2":"IN","iso3":"IND","admin_name":"Karnātaka","capital":"","population":9014},{"city":"Nārsingi","city_ascii":"Narsingi","lat":18.0446,"lng":78.4254,"country":"India","iso2":"IN","iso3":"IND","admin_name":"Telangāna","capital":"","population":9014},