[{"city":"Harper","city_ascii":"Harper","lat":4.3667,"lng":-7.7167,"country":"Liberia","iso2":"LR","iso3":"LBR","admin_name":"Maryland","capital":"admin","population":17837},{"city":"San Bartolo Tutotepec","city_ascii":"San Bartolo Tutotepec","lat":20.4,"lng":-98.2,"country":"Mexico","iso2":"MX","iso3":"MEX","admin_name":"Hidalgo","capital":"minor","population":17837},{"city":"Ribera","city_ascii":"Ribera","lat":37.4994,"lng":13.265,"country":"Italy","iso2":"IT","iso3":"ITA","admin_name":"Sicilia","capital":"","population":17836},{"city":"Pelahiivka","city_ascii":"Pelahiivka","lat":48.0989,"lng":38.6128,"country":"Ukraine","iso2":"UA","iso3":"UKR","admin_name":"Donetska Oblast","capital":"","population":17833},{"city":"Timbedgha","city_ascii":"Timbedgha","lat":16.25,"lng":-8.1667,"country":"Mauritania","iso2":"MR","iso3":"MRT","admin_name":"Hodh ech Chargui","capital":"","population":17832},{"city":"Policoro","city_ascii":"Policoro","lat":40.2,"lng":16.6667,"country":"Italy","iso2":"IT","iso3":"ITA","admin_name":"Basilicata","capital":"","population":17832},{"city":"Parede","city_ascii":"Parede","lat":38.6933,"lng":-9.3569,"country":"Portugal","iso2":"PT","iso3":"PRT","admin_name":"Lisboa","capital":"","population":17830},{"city":"Goshaingaon","city_ascii":"Goshaingaon","lat":26.4395,"lng":89.9631,"country":"India","iso2":"IN","iso3":"IND","admin_name":"Assam","capital":"","population":17830},{"city":"Águas de Lindóia","city_ascii":"Aguas de Lindoia","lat":-22.4767,"lng":-46.6333,"country":"Brazil","iso2":"BR","iso3":"BRA","admin_name":"São Paulo","capital":"","population":17829},{"city":"Bredene","city_ascii":"Bredene","lat":51.2333,"lng":2.9667,"country":"Belgium","iso2":"BE","iso3":"BEL","admin_name":"Flanders","capital":"","population":17828},{"city":"Werdohl","city_ascii":"Werdohl","lat":51.2667,"lng":7.7667,"country":"Germany","iso2":"DE","iso3":"DEU","admin_name":"North Rhine-Westphalia","capital":"","population":17827},{"city":"Paks","city_ascii":"Paks","lat":46.622,"lng":18.8559,"country":"Hungary","iso2":"HU","iso3":"HUN","admin_name":"Tolna","capital":"minor","population":17827},{"city":"Yakacık","city_ascii":"Yakacik","lat":40.9164,"lng":29.2222,"country":"Turkey","iso2":"TR","iso3":"TUR","admin_name":"İstanbul","capital":"","population":17825},{"city":"Bhīkhi","city_ascii":"Bhikhi","lat":30.07,"lng":75.53,"country":"India","iso2":"IN","iso3":"IND","admin_name":"Punjab","capital":"","population":17825},{"city":"Arcore","city_ascii":"Arcore","lat":45.6333,"lng":9.3167,"country":"Italy","iso2":"IT","iso3":"ITA","admin_name":"Lombardy","capital":"","population":17825},{"city":"Villa Corona","city_ascii":"Villa Corona","lat":20.3989,"lng":-103.6889,"country":"Mexico","iso2":"MX","iso3":"MEX","admin_name":"Jalisco","capital":"minor","population":17824},{"city":"Mengjiacun","city_ascii":"Mengjiacun","lat":40.0186,"lng":119.7878,"country":"China","iso2":"CN","iso3":"CHN","admin_name":"Liaoning","capital":"","population":17822},{"city":"Las Heras","city_ascii":"Las Heras","lat":-46.55,"lng":-68.95,"country":"Argentina","iso2":"AR","iso3":"ARG","admin_name":"Santa Cruz","capital":"","population":17821},{"city":"São Luís Gonzaga do Maranhão","city_ascii":"Sao Luis Gonzaga do Maranhao","lat":-4.38,"lng":-44.67,"country":"Brazil","iso2":"BR","iso3":"BRA","admin_name":"Maranhão","capital":"minor","population":17818},{"city":"Carate Brianza","city_ascii":"Carate Brianza","lat":45.7667,"lng":9.1833,"country":"Italy","iso2":"IT","iso3":"ITA","admin_name":"Lombardy","capital":"","population":17817},{"city":"Brownsville","city_ascii":"Brownsville","lat":25.8216,"lng":-80.2417,"country":"United States","iso2":"US","iso3":"USA","admin_name":"Florida","capital":"","population":17817},{"city":"Blaj","city_ascii":"Blaj","lat":46.1753,"lng":23.9144,"country":"Romania","iso2":"RO","iso3":"ROU","admin_name":"Alba","capital":"","population":17816},{"city":"Freilassing","city_ascii":"Freilassing","lat":47.8333,"lng":12.9667,"country":"Germany","iso2":"DE","iso3":"DEU","admin_name":"Bavaria","capital":"","population":17816},{"city":"Alton","city_ascii":"Alton","lat":51.1498,"lng":-0.9769,"country":"United Kingdom","iso2":"GB","iso3":"GBR","admin_name":"Hampshire","capital":"","population":17816},{"city":"Kukmor","city_ascii":"Kukmor","lat":56.1833,"lng":50.8833,"country":"Russia","iso2":"RU","iso3":"RUS","admin_name":"Tatarstan","capital":"","population":17815},{"city":"Mazapil","city_ascii":"Mazapil","lat":24.6383,"lng":-101.5553,"country":"Mexico","iso2":"MX","iso3":"MEX","admin_name":"Zacatecas","capital":"minor","population":17813},{"city":"Itanhém","city_ascii":"Itanhem","lat":-17.15,"lng":-40.3333,"country":"Brazil","iso2":"BR","iso3":"BRA","admin_name":"Bahia","capital":"","population":17813},{"city":"Oberasbach","city_ascii":"Oberasbach","lat":49.4219,"lng":10.9583,"country":"Germany","iso2":"DE","iso3":"DEU","admin_name":"Bavaria","capital":"","population":17810},{"city":"Pariharpur","city_ascii":"Pariharpur","lat":26.7114,"lng":85.6797,"country":"India","iso2":"IN","iso3":"IND","admin_name":"Bihār","capital":"","population":17810},{"city":"Muttenz","city_ascii":"Muttenz","lat":47.5167,"lng":7.65,"country":"Switzerland","iso2":"CH","iso3":"CHE","admin_name":"Basel-Landschaft","capital":"","population":17809},{"city":"Steinbach","city_ascii":"Steinbach","lat":49.5258,"lng":-96.6839,"country":"Canada","iso2":"CA","iso3":"CAN","admin_name":"Manitoba","capital":"","population":17806},{"city":"Salgar","city_ascii":"Salgar","lat":5.9617,"lng":-75.9753,"country":"Colombia","iso2":"CO","iso3":"COL","admin_name":"Antioquia","capital":"minor","population":17804},{"city":"Seyah Cheshmeh","city_ascii":"Seyah Cheshmeh","lat":39.0631,"lng":44.3836,"country":"Iran","iso2":"IR","iso3":"IRN","admin_name":"Āz̄arbāyjān-e Gharbī","capital":"minor","population":17804},{"city":"Santa Fe","city_ascii":"Santa Fe","lat":12.15,"lng":122,"country":"Philippines","iso2":"PH","iso3":"PHL","admin_name":"Romblon","capital":"","population":17802},{"city":"Gazantarak","city_ascii":"Gazantarak","lat":39.9667,"lng":69.1333,"country":"Tajikistan","iso2":"TJ","iso3":"TJK","admin_name":"Sughd","capital":"","population":17801},{"city":"Fontaine-l’Évêque","city_ascii":"Fontaine-l'Eveque","lat":50.4167,"lng":4.3167,"country":"Belgium","iso2":"BE","iso3":"BEL","admin_name":"Wallonia","capital":"","population":17801},{"city":"Feilding","city_ascii":"Feilding","lat":-40.2167,"lng":175.5667,"country":"New Zealand","iso2":"NZ","iso3":"NZL","admin_name":"Manawatu-Wanganui","capital":"","population":17800},{"city":"Dhānsāria","city_ascii":"Dhansaria","lat":24.7219,"lng":87.8572,"country":"India","iso2":"IN","iso3":"IND","admin_name":"Jhārkhand","capital":"","population":17800},{"city":"Sobinka","city_ascii":"Sobinka","lat":56,"lng":40.0333,"country":"Russia","iso2":"RU","iso3":"RUS","admin_name":"Vladimirskaya Oblast’","capital":"minor","population":17799},{"city":"Herenfa","city_ascii":"Herenfa","lat":36.2453,"lng":1.0458,"country":"Algeria","iso2":"DZ","iso3":"DZA","admin_name":"Chlef","capital":"","population":17799},{"city":"Bagahi","city_ascii":"Bagahi","lat":26.7632,"lng":84.467,"country":"India","iso2":"IN","iso3":"IND","admin_name":"Bihār","capital":"","population":17798},{"city":"Hendaye","city_ascii":"Hendaye","lat":43.36,"lng":-1.77,"country":"France","iso2":"FR","iso3":"FRA","admin_name":"Nouvelle-Aquitaine","capital":"","population":17796},{"city":"Vennandūr","city_ascii":"Vennandur","lat":11.515,"lng":78.0908,"country":"India","iso2":"IN","iso3":"IND","admin_name":"Tamil Nādu","capital":"","population":17796},{"city":"San Rafael","city_ascii":"San Rafael","lat":11.1728,"lng":122.8267,"country":"Philippines","iso2":"PH","iso3":"PHL","admin_name":"Iloilo","capital":"","population":17795},{"city":"Jovellar","city_ascii":"Jovellar","lat":13.07,"lng":123.6,"country":"Philippines","iso2":"PH","iso3":"PHL","admin_name":"Albay","capital":"","population":17795},{"city":"Charleston","city_ascii":"Charleston","lat":39.4842,"lng":-88.1781,"country":"United States","iso2":"US","iso3":"USA","admin_name":"Illinois","capital":"","population":17795},{"city":"Salaspils","city_ascii":"Salaspils","lat":56.8667,"lng":24.35,"country":"Latvia","iso2":"LV","iso3":"LVA","admin_name":"Salaspils","capital":"admin","population":17794},{"city":"Delran","city_ascii":"Delran","lat":40.017,"lng":-74.9495,"country":"United States","iso2":"US","iso3":"USA","admin_name":"New Jersey","capital":"","population":17794},{"city":"Jucurutu","city_ascii":"Jucurutu","lat":-6.0339,"lng":-37.02,"country":"Brazil","iso2":"BR","iso3":"BRA","admin_name":"Rio Grande do Norte","capital":"minor","population":17793},{"city":"Ponmana","city_ascii":"Ponmana","lat":8.3552,"lng":77.3283,"country":"India","iso2":"IN","iso3":"IND","admin_name":"Tamil Nādu","capital":"","population":17793},{"city":"Shichigahama","city_ascii":"Shichigahama","lat":38.3045,"lng":141.0591,"country":"Japan","iso2":"JP","iso3":"JPN","admin_name":"Miyagi","capital":"","population":17793},{"city":"Santa Elena","city_ascii":"Santa Elena","lat":-30.95,"lng":-59.8,"country":"Argentina","iso2":"AR","iso3":"ARG","admin_name":"Entre Ríos","capital":"","population":17791},{"city":"Godfrey","city_ascii":"Godfrey","lat":38.9577,"lng":-90.2156,"country":"United States","iso2":"US","iso3":"USA","admin_name":"Illinois","capital":"","population":17791},{"city":"Amīnpur","city_ascii":"Aminpur","lat":17.5241,"lng":78.3242,"country":"India","iso2":"IN","iso3":"IND","admin_name":"Telangāna","capital":"","population":17790},{"city":"San Rafael del Norte","city_ascii":"San Rafael del Norte","lat":13.2167,"lng":-86.1167,"country":"Nicaragua","iso2":"NI","iso3":"NIC","admin_name":"Jinotega","capital":"minor","population":17789},{"city":"Portchester","city_ascii":"Portchester","lat":50.842,"lng":-1.12,"country":"United Kingdom","iso2":"GB","iso3":"GBR","admin_name":"Hampshire","capital":"","population":17789},{"city":"Idylwood","city_ascii":"Idylwood","lat":38.8896,"lng":-77.2056,"country":"United States","iso2":"US","iso3":"USA","admin_name":"Virginia","capital":"","population":17788},{"city":"Berlín","city_ascii":"Berlin","lat":13.5,"lng":-88.5333,"country":"El Salvador","iso2":"SV","iso3":"SLV","admin_name":"Usulután","capital":"","population":17787},{"city":"Mankara","city_ascii":"Mankara","lat":10.75,"lng":76.4333,"country":"India","iso2":"IN","iso3":"IND","admin_name":"Kerala","capital":"","population":17787},{"city":"Mooirivier","city_ascii":"Mooirivier","lat":-29.2,"lng":29.9833,"country":"South Africa","iso2":"ZA","iso3":"ZAF","admin_name":"KwaZulu-Natal","capital":"","population":17779},{"city":"Arakkapādi","city_ascii":"Arakkapadi","lat":10.0599,"lng":76.4592,"country":"India","iso2":"IN","iso3":"IND","admin_name":"Kerala","capital":"","population":17779},{"city":"Cordenons","city_ascii":"Cordenons","lat":45.9833,"lng":12.7,"country":"Italy","iso2":"IT","iso3":"ITA","admin_name":"Friuli Venezia Giulia","capital":"","population":17779},{"city":"Anda","city_ascii":"Anda","lat":9.744,"lng":124.576,"country":"Philippines","iso2":"PH","iso3":"PHL","admin_name":"Bohol","capital":"minor","population":17778},{"city":"Khaşab","city_ascii":"Khasab","lat":26.1833,"lng":56.25,"country":"Oman","iso2":"OM","iso3":"OMN","admin_name":"Musandam","capital":"admin","population":17777},{"city":"Monthey","city_ascii":"Monthey","lat":46.25,"lng":6.95,"country":"Switzerland","iso2":"CH","iso3":"CHE","admin_name":"Valais","capital":"","population":17777},{"city":"Dhamaun","city_ascii":"Dhamaun","lat":25.5999,"lng":85.5479,"country":"India","iso2":"IN","iso3":"IND","admin_name":"Bihār","capital":"","population":17775},{"city":"Freudenberg","city_ascii":"Freudenberg","lat":50.8997,"lng":7.8667,"country":"Germany","iso2":"DE","iso3":"DEU","admin_name":"North Rhine-Westphalia","capital":"","population":17773},{"city":"North Canton","city_ascii":"North Canton","lat":40.8742,"lng":-81.3971,"country":"United States","iso2":"US","iso3":"USA","admin_name":"Ohio","capital":"","population":17773},{"city":"Varvarin","city_ascii":"Varvarin","lat":43.7167,"lng":21.3667,"country":"Serbia","iso2":"RS","iso3":"SRB","admin_name":"Varvarin","capital":"admin","population":17772},{"city":"Łańcut","city_ascii":"Lancut","lat":50.0667,"lng":22.2333,"country":"Poland","iso2":"PL","iso3":"POL","admin_name":"Podkarpackie","capital":"minor","population":17768},{"city":"Prachin Buri","city_ascii":"Prachin Buri","lat":14.0567,"lng":101.3739,"country":"Thailand","iso2":"TH","iso3":"THA","admin_name":"Prachin Buri","capital":"admin","population":17768},{"city":"Fanipal’","city_ascii":"Fanipal'","lat":53.75,"lng":27.3333,"country":"Belarus","iso2":"BY","iso3":"BLR","admin_name":"Minskaya Voblasts’","capital":"","population":17768},{"city":"Tall ‘Aran","city_ascii":"Tall `Aran","lat":36.1231,"lng":37.3369,"country":"Syria","iso2":"SY","iso3":"SYR","admin_name":"Ḩalab","capital":"","population":17767},{"city":"Visé","city_ascii":"Vise","lat":50.7333,"lng":5.7,"country":"Belgium","iso2":"BE","iso3":"BEL","admin_name":"Wallonia","capital":"","population":17767},{"city":"Somma Lombardo","city_ascii":"Somma Lombardo","lat":45.6833,"lng":8.7,"country":"Italy","iso2":"IT","iso3":"ITA","admin_name":"Lombardy","capital":"","population":17767},{"city":"Ash Shaykhān","city_ascii":"Ash Shaykhan","lat":36.6917,"lng":43.35,"country":"Iraq","iso2":"IQ","iso3":"IRQ","admin_name":"Nīnawá","capital":"minor","population":17766},{"city":"Agua Blanca","city_ascii":"Agua Blanca","lat":14.4833,"lng":-89.6494,"country":"Guatemala","iso2":"GT","iso3":"GTM","admin_name":"Jutiapa","capital":"minor","population":17765},{"city":"Lake Butler","city_ascii":"Lake Butler","lat":28.4862,"lng":-81.546,"country":"United States","iso2":"US","iso3":"USA","admin_name":"Florida","capital":"","population":17765},{"city":"Klaeng","city_ascii":"Klaeng","lat":12.7778,"lng":101.6483,"country":"Thailand","iso2":"TH","iso3":"THA","admin_name":"Rayong","capital":"minor","population":17764},{"city":"Weilerswist","city_ascii":"Weilerswist","lat":50.7667,"lng":6.8331,"country":"Germany","iso2":"DE","iso3":"DEU","admin_name":"North Rhine-Westphalia","capital":"","population":17763},{"city":"Willimantic","city_ascii":"Willimantic","lat":41.7171,"lng":-72.2114,"country":"United States","iso2":"US","iso3":"USA","admin_name":"Connecticut","capital":"","population":17762},{"city":"Cairu","city_ascii":"Cairu","lat":-13.4869,"lng":-39.0439,"country":"Brazil","iso2":"BR","iso3":"BRA","admin_name":"Bahia","capital":"minor","population":17761},{"city":"Auerbach","city_ascii":"Auerbach","lat":50.5094,"lng":12.4,"country":"Germany","iso2":"DE","iso3":"DEU","admin_name":"Saxony","capital":"","population":17759},{"city":"Or ‘Aqiva","city_ascii":"Or `Aqiva","lat":32.5,"lng":34.9167,"country":"Israel","iso2":"IL","iso3":"ISR","admin_name":"Haifa","capital":"","population":17759},{"city":"Troy","city_ascii":"Troy","lat":31.8021,"lng":-85.9664,"country":"United States","iso2":"US","iso3":"USA","admin_name":"Alabama","capital":"","population":17757},{"city":"Lunéville","city_ascii":"Luneville","lat":48.5894,"lng":6.5017,"country":"France","iso2":"FR","iso3":"FRA","admin_name":"Grand Est","capital":"minor","population":17755},{"city":"Schrobenhausen","city_ascii":"Schrobenhausen","lat":48.5333,"lng":11.2667,"country":"Germany","iso2":"DE","iso3":"DEU","admin_name":"Bavaria","capital":"","population":17754},{"city":"Māḩiş","city_ascii":"Mahis","lat":31.9833,"lng":35.7667,"country":"Jordan","iso2":"JO","iso3":"JOR","admin_name":"Al Balqā’","capital":"","population":17754},{"city":"Cahokia Heights","city_ascii":"Cahokia Heights","lat":38.571,"lng":-90.1525,"country":"United States","iso2":"US","iso3":"USA","admin_name":"Illinois","capital":"","population":17753},{"city":"Ostermundigen","city_ascii":"Ostermundigen","lat":46.955,"lng":7.4894,"country":"Switzerland","iso2":"CH","iso3":"CHE","admin_name":"Bern","capital":"","population":17751},{"city":"Arco","city_ascii":"Arco","lat":45.9167,"lng":10.8833,"country":"Italy","iso2":"IT","iso3":"ITA","admin_name":"Trentino-Alto Adige","capital":"","population":17750},{"city":"North Aurora","city_ascii":"North Aurora","lat":41.8086,"lng":-88.3414,"country":"United States","iso2":"US","iso3":"USA","admin_name":"Illinois","capital":"","population":17750},{"city":"Floirac","city_ascii":"Floirac","lat":44.8375,"lng":-0.5247,"country":"France","iso2":"FR","iso3":"FRA","admin_name":"Nouvelle-Aquitaine","capital":"","population":17749},{"city":"McKeesport","city_ascii":"McKeesport","lat":40.3418,"lng":-79.844,"country":"United States","iso2":"US","iso3":"USA","admin_name":"Pennsylvania","capital":"","population":17749},{"city":"Eslöv","city_ascii":"Eslov","lat":55.8392,"lng":13.3039,"country":"Sweden","iso2":"SE","iso3":"SWE","admin_name":"Skåne","capital":"minor","population":17748},{"city":"Dergaon","city_ascii":"Dergaon","lat":26.7,"lng":93.9667,"country":"India","iso2":"IN","iso3":"IND","admin_name":"Assam","capital":"","population":17748},{"city":"Douar Oulad Mbarek","city_ascii":"Douar Oulad Mbarek","lat":34.2833,"lng":-4.3167,"country":"Morocco","iso2":"MA","iso3":"MAR","admin_name":"Fès-Meknès","capital":"","population":17747},{"city":"Kuttālam","city_ascii":"Kuttalam","lat":11.0758,"lng":79.5608,"country":"India","iso2":"IN","iso3":"IND","admin_name":"Tamil Nādu","capital":"","population":17746},{"city":"Chitipa","city_ascii":"Chitipa","lat":-9.7019,"lng":33.27,"country":"Malawi","iso2":"MW","iso3":"MWI","admin_name":"Chitipa","capital":"admin","population":17743},{"city":"Köping","city_ascii":"Koping","lat":59.5167,"lng":15.9833,"country":"Sweden","iso2":"SE","iso3":"SWE","admin_name":"Västmanland","capital":"minor","population":17743},{"city":"Toba","city_ascii":"Toba","lat":34.4813,"lng":136.8434,"country":"Japan","iso2":"JP","iso3":"JPN","admin_name":"Mie","capital":"","population":17741},{"city":"Saint-Colomban","city_ascii":"Saint-Colomban","lat":45.73,"lng":-74.13,"country":"Canada","iso2":"CA","iso3":"CAN","admin_name":"Quebec","capital":"","population":17740},{"city":"Dianópolis","city_ascii":"Dianopolis","lat":-11.6258,"lng":-46.8203,"country":"Brazil","iso2":"BR","iso3":"BRA","admin_name":"Tocantins","capital":"minor","population":17739},{"city":"Dniprorudne","city_ascii":"Dniprorudne","lat":47.3863,"lng":34.997,"country":"Ukraine","iso2":"UA","iso3":"UKR","admin_name":"Zaporizka Oblast","capital":"","population":17736},{"city":"Reni","city_ascii":"Reni","lat":45.4575,"lng":28.2711,"country":"Ukraine","iso2":"UA","iso3":"UKR","admin_name":"Odeska Oblast","capital":"minor","population":17736},{"city":"Ekazhevo","city_ascii":"Ekazhevo","lat":43.2081,"lng":44.8186,"country":"Russia","iso2":"RU","iso3":"RUS","admin_name":"Ingushetiya","capital":"","population":17734},{"city":"Manzanares","city_ascii":"Manzanares","lat":38.9964,"lng":-3.3731,"country":"Spain","iso2":"ES","iso3":"ESP","admin_name":"Castille-La Mancha","capital":"","population":17732},{"city":"Kodiyēri","city_ascii":"Kodiyeri","lat":11.7067,"lng":75.5331,"country":"India","iso2":"IN","iso3":"IND","admin_name":"Kerala","capital":"","population":17732},{"city":"Nīkshahr","city_ascii":"Nikshahr","lat":26.2253,"lng":60.2167,"country":"Iran","iso2":"IR","iso3":"IRN","admin_name":"Sīstān va Balūchestān","capital":"minor","population":17732},{"city":"Liulin","city_ascii":"Liulin","lat":34.5891,"lng":103.5081,"country":"China","iso2":"CN","iso3":"CHN","admin_name":"Gansu","capital":"minor","population":17731},{"city":"Laukāha","city_ascii":"Laukaha","lat":26.55,"lng":86.47,"country":"India","iso2":"IN","iso3":"IND","admin_name":"Bihār","capital":"","population":17730},{"city":"Sapucaia","city_ascii":"Sapucaia","lat":-21.995,"lng":-42.9139,"country":"Brazil","iso2":"BR","iso3":"BRA","admin_name":"Rio de Janeiro","capital":"","population":17729},{"city":"Erjie","city_ascii":"Erjie","lat":24.6997,"lng":102.4872,"country":"China","iso2":"CN","iso3":"CHN","admin_name":"Yunnan","capital":"","population":17728},{"city":"Bad Münder am Deister","city_ascii":"Bad Munder am Deister","lat":52.1992,"lng":9.4653,"country":"Germany","iso2":"DE","iso3":"DEU","admin_name":"Lower Saxony","capital":"","population":17728},{"city":"Estancia Pozo Colorado","city_ascii":"Estancia Pozo Colorado","lat":-23.4136,"lng":-58.9144,"country":"Paraguay","iso2":"PY","iso3":"PRY","admin_name":"Presidente Hayes","capital":"","population":17727},{"city":"Susner","city_ascii":"Susner","lat":23.9467,"lng":76.0882,"country":"India","iso2":"IN","iso3":"IND","admin_name":"Madhya Pradesh","capital":"","population":17727},{"city":"Békés","city_ascii":"Bekes","lat":46.7667,"lng":21.1333,"country":"Hungary","iso2":"HU","iso3":"HUN","admin_name":"Békés","capital":"minor","population":17726},{"city":"Herzele","city_ascii":"Herzele","lat":50.8833,"lng":3.8833,"country":"Belgium","iso2":"BE","iso3":"BEL","admin_name":"Flanders","capital":"","population":17723},{"city":"Rockland","city_ascii":"Rockland","lat":42.1295,"lng":-70.91,"country":"United States","iso2":"US","iso3":"USA","admin_name":"Massachusetts","capital":"","population":17721},{"city":"Cesson-Sévigné","city_ascii":"Cesson-Sevigne","lat":48.1217,"lng":-1.6025,"country":"France","iso2":"FR","iso3":"FRA","admin_name":"Bretagne","capital":"","population":17716},{"city":"Ban Mae Ngon Khilek","city_ascii":"Ban Mae Ngon Khilek","lat":19.8021,"lng":99.1614,"country":"Thailand","iso2":"TH","iso3":"THA","admin_name":"Chiang Mai","capital":"","population":17715},{"city":"Pirapemas","city_ascii":"Pirapemas","lat":-3.7167,"lng":-44.2333,"country":"Brazil","iso2":"BR","iso3":"BRA","admin_name":"Maranhão","capital":"minor","population":17714},{"city":"Domodossola","city_ascii":"Domodossola","lat":46.1167,"lng":8.2833,"country":"Italy","iso2":"IT","iso3":"ITA","admin_name":"Piedmont","capital":"","population":17709},{"city":"Hlybokaye","city_ascii":"Hlybokaye","lat":55.1333,"lng":27.6833,"country":"Belarus","iso2":"BY","iso3":"BLR","admin_name":"Vitsyebskaya Voblasts’","capital":"minor","population":17707},{"city":"Live Oak","city_ascii":"Live Oak","lat":36.986,"lng":-121.9804,"country":"United States","iso2":"US","iso3":"USA","admin_name":"California","capital":"","population":17707},{"city":"Broken Hill","city_ascii":"Broken Hill","lat":-31.95,"lng":141.4667,"country":"Australia","iso2":"AU","iso3":"AUS","admin_name":"New South Wales","capital":"","population":17706},{"city":"Dialafara","city_ascii":"Dialafara","lat":13.4606,"lng":-11.3786,"country":"Mali","iso2":"ML","iso3":"MLI","admin_name":"Kayes","capital":"","population":17705},{"city":"Zalţan","city_ascii":"Zaltan","lat":32.95,"lng":11.8658,"country":"Libya","iso2":"LY","iso3":"LBY","admin_name":"An Nuqāţ al Khams","capital":"","population":17700},{"city":"Ashton","city_ascii":"Ashton","lat":-44.0333,"lng":171.7667,"country":"New Zealand","iso2":"NZ","iso3":"NZL","admin_name":"Canterbury","capital":"","population":17700},{"city":"Ngora","city_ascii":"Ngora","lat":1.4575,"lng":33.7764,"country":"Uganda","iso2":"UG","iso3":"UGA","admin_name":"Ngora","capital":"admin","population":17700},{"city":"Major Isidoro","city_ascii":"Major Isidoro","lat":-9.5319,"lng":-36.985,"country":"Brazil","iso2":"BR","iso3":"BRA","admin_name":"Alagoas","capital":"minor","population":17700},{"city":"Kharhiāl","city_ascii":"Kharhial","lat":20.2885,"lng":82.7606,"country":"India","iso2":"IN","iso3":"IND","admin_name":"Odisha","capital":"","population":17699},{"city":"Miramichi","city_ascii":"Miramichi","lat":47.0196,"lng":-65.5072,"country":"Canada","iso2":"CA","iso3":"CAN","admin_name":"New Brunswick","capital":"","population":17692},{"city":"Kiangan","city_ascii":"Kiangan","lat":16.7775,"lng":121.0878,"country":"Philippines","iso2":"PH","iso3":"PHL","admin_name":"Ifugao","capital":"","population":17691},{"city":"Vettavalam","city_ascii":"Vettavalam","lat":12.1077,"lng":79.2452,"country":"India","iso2":"IN","iso3":"IND","admin_name":"Tamil Nādu","capital":"","population":17690},{"city":"Vrede","city_ascii":"Vrede","lat":-27.43,"lng":29.16,"country":"South Africa","iso2":"ZA","iso3":"ZAF","admin_name":"Free State","capital":"","population":17689},{"city":"Miaojiaping","city_ascii":"Miaojiaping","lat":37.5777,"lng":110.0658,"country":"China","iso2":"CN","iso3":"CHN","admin_name":"Shaanxi","capital":"","population":17689},{"city":"Kalyānpur Bamaiya","city_ascii":"Kalyanpur Bamaiya","lat":25.714,"lng":85.9212,"country":"India","iso2":"IN","iso3":"IND","admin_name":"Bihār","capital":"","population":17689},{"city":"Kreuzau","city_ascii":"Kreuzau","lat":50.75,"lng":6.4831,"country":"Germany","iso2":"DE","iso3":"DEU","admin_name":"North Rhine-Westphalia","capital":"","population":17687},{"city":"Flórina","city_ascii":"Florina","lat":40.7833,"lng":21.4,"country":"Greece","iso2":"GR","iso3":"GRC","admin_name":"Dytikí Makedonía","capital":"minor","population":17686},{"city":"Diepholz","city_ascii":"Diepholz","lat":52.6072,"lng":8.3711,"country":"Germany","iso2":"DE","iso3":"DEU","admin_name":"Lower Saxony","capital":"minor","population":17685},{"city":"Maripād","city_ascii":"Maripad","lat":17.372,"lng":79.8807,"country":"India","iso2":"IN","iso3":"IND","admin_name":"Telangāna","capital":"","population":17685},{"city":"Palanan","city_ascii":"Palanan","lat":17.0589,"lng":122.43,"country":"Philippines","iso2":"PH","iso3":"PHL","admin_name":"Isabela","capital":"","population":17684},{"city":"Harwich","city_ascii":"Harwich","lat":51.934,"lng":1.266,"country":"United Kingdom","iso2":"GB","iso3":"GBR","admin_name":"Essex","capital":"","population":17684},{"city":"East Lampeter","city_ascii":"East Lampeter","lat":40.0375,"lng":-76.2162,"country":"United States","iso2":"US","iso3":"USA","admin_name":"Pennsylvania","capital":"","population":17684},{"city":"Dourbali","city_ascii":"Dourbali","lat":11.805,"lng":15.8647,"country":"Chad","iso2":"TD","iso3":"TCD","admin_name":"Chari-Baguirmi","capital":"","population":17682},{"city":"Panórama","city_ascii":"Panorama","lat":40.5833,"lng":23.0333,"country":"Greece","iso2":"GR","iso3":"GRC","admin_name":"Kentrikí Makedonía","capital":"minor","population":17679},{"city":"Bechem","city_ascii":"Bechem","lat":7.0833,"lng":-2.0167,"country":"Ghana","iso2":"GH","iso3":"GHA","admin_name":"Ahafo","capital":"","population":17677},{"city":"Dugo Selo","city_ascii":"Dugo Selo","lat":45.8058,"lng":16.2331,"country":"Croatia","iso2":"HR","iso3":"HRV","admin_name":"Zagrebačka Županija","capital":"minor","population":17676},{"city":"Dumri","city_ascii":"Dumri","lat":25.4014,"lng":86.1165,"country":"India","iso2":"IN","iso3":"IND","admin_name":"Bihār","capital":"","population":17676},{"city":"Mairi","city_ascii":"Mairi","lat":-11.7167,"lng":-40.1333,"country":"Brazil","iso2":"BR","iso3":"BRA","admin_name":"Bahia","capital":"minor","population":17674},{"city":"Avion","city_ascii":"Avion","lat":50.41,"lng":2.8336,"country":"France","iso2":"FR","iso3":"FRA","admin_name":"Hauts-de-France","capital":"","population":17672},{"city":"Webster","city_ascii":"Webster","lat":42.0521,"lng":-71.8485,"country":"United States","iso2":"US","iso3":"USA","admin_name":"Massachusetts","capital":"","population":17671},{"city":"Hope Mills","city_ascii":"Hope Mills","lat":34.971,"lng":-78.9597,"country":"United States","iso2":"US","iso3":"USA","admin_name":"North Carolina","capital":"","population":17671},{"city":"Levin","city_ascii":"Levin","lat":-40.6219,"lng":175.2867,"country":"New Zealand","iso2":"NZ","iso3":"NZL","admin_name":"Manawatu-Wanganui","capital":"","population":17670},{"city":"Torredembarra","city_ascii":"Torredembarra","lat":41.15,"lng":1.4,"country":"Spain","iso2":"ES","iso3":"ESP","admin_name":"Catalonia","capital":"","population":17670},{"city":"South Ockendon","city_ascii":"South Ockendon","lat":51.5207,"lng":0.2956,"country":"United Kingdom","iso2":"GB","iso3":"GBR","admin_name":"Thurrock","capital":"","population":17670},{"city":"Moreton","city_ascii":"Moreton","lat":53.401,"lng":-3.111,"country":"United Kingdom","iso2":"GB","iso3":"GBR","admin_name":"Wirral","capital":"","population":17670},{"city":"Pūlla","city_ascii":"Pulla","lat":16.806,"lng":81.3241,"country":"India","iso2":"IN","iso3":"IND","admin_name":"Andhra Pradesh","capital":"","population":17670},{"city":"Kitahiroshima","city_ascii":"Kitahiroshima","lat":34.6744,"lng":132.5383,"country":"Japan","iso2":"JP","iso3":"JPN","admin_name":"Hiroshima","capital":"","population":17669},{"city":"Southbridge","city_ascii":"Southbridge","lat":42.0604,"lng":-72.0338,"country":"United States","iso2":"US","iso3":"USA","admin_name":"Massachusetts","capital":"","population":17669},{"city":"Tufanbeyli","city_ascii":"Tufanbeyli","lat":38.2647,"lng":36.2225,"country":"Turkey","iso2":"TR","iso3":"TUR","admin_name":"Adana","capital":"minor","population":17667},{"city":"Beni Fouda","city_ascii":"Beni Fouda","lat":36.2861,"lng":5.6072,"country":"Algeria","iso2":"DZ","iso3":"DZA","admin_name":"Sétif","capital":"","population":17667},{"city":"Whittlesey","city_ascii":"Whittlesey","lat":52.558,"lng":-0.13,"country":"United Kingdom","iso2":"GB","iso3":"GBR","admin_name":"Cambridgeshire","capital":"","population":17667},{"city":"Anacortes","city_ascii":"Anacortes","lat":48.4878,"lng":-122.6292,"country":"United States","iso2":"US","iso3":"USA","admin_name":"Washington","capital":"","population":17667},{"city":"Duffel","city_ascii":"Duffel","lat":51.1,"lng":4.5167,"country":"Belgium","iso2":"BE","iso3":"BEL","admin_name":"Flanders","capital":"","population":17664},{"city":"Brignoles","city_ascii":"Brignoles","lat":43.4058,"lng":6.0615,"country":"France","iso2":"FR","iso3":"FRA","admin_name":"Provence-Alpes-Côte d’Azur","capital":"minor","population":17664},{"city":"Minquan","city_ascii":"Minquan","lat":37.442,"lng":103.3811,"country":"China","iso2":"CN","iso3":"CHN","admin_name":"Gansu","capital":"","population":17663},{"city":"Biliran","city_ascii":"Biliran","lat":11.58,"lng":124.48,"country":"Philippines","iso2":"PH","iso3":"PHL","admin_name":"Biliran","capital":"","population":17662},{"city":"El Omaria","city_ascii":"El Omaria","lat":36.2667,"lng":3.0333,"country":"Algeria","iso2":"DZ","iso3":"DZA","admin_name":"Médéa","capital":"","population":17661},{"city":"Bad Säckingen","city_ascii":"Bad Sackingen","lat":47.55,"lng":7.95,"country":"Germany","iso2":"DE","iso3":"DEU","admin_name":"Baden-Württemberg","capital":"","population":17660},{"city":"Jaguaripe","city_ascii":"Jaguaripe","lat":-13.1128,"lng":-38.8958,"country":"Brazil","iso2":"BR","iso3":"BRA","admin_name":"Bahia","capital":"minor","population":17659},{"city":"Vandalūr","city_ascii":"Vandalur","lat":12.8924,"lng":80.0808,"country":"India","iso2":"IN","iso3":"IND","admin_name":"Tamil Nādu","capital":"","population":17655},{"city":"Brenham","city_ascii":"Brenham","lat":30.1584,"lng":-96.3966,"country":"United States","iso2":"US","iso3":"USA","admin_name":"Texas","capital":"","population":17655},{"city":"Yumurtalık","city_ascii":"Yumurtalik","lat":36.7678,"lng":35.7922,"country":"Turkey","iso2":"TR","iso3":"TUR","admin_name":"Adana","capital":"minor","population":17654},{"city":"Pinehurst","city_ascii":"Pinehurst","lat":35.1922,"lng":-79.4684,"country":"United States","iso2":"US","iso3":"USA","admin_name":"North Carolina","capital":"","population":17653},{"city":"Tohoué","city_ascii":"Tohoue","lat":6.3967,"lng":2.5853,"country":"Benin","iso2":"BJ","iso3":"BEN","admin_name":"Ouémé","capital":"","population":17652},{"city":"Pianoro","city_ascii":"Pianoro","lat":44.3875,"lng":11.3444,"country":"Italy","iso2":"IT","iso3":"ITA","admin_name":"Emilia-Romagna","capital":"","population":17652},{"city":"Golitsyno","city_ascii":"Golitsyno","lat":55.6147,"lng":36.9872,"country":"Russia","iso2":"RU","iso3":"RUS","admin_name":"Moskovskaya Oblast’","capital":"","population":17651},{"city":"Tunapuna","city_ascii":"Tunapuna","lat":10.6333,"lng":-61.3833,"country":"Trinidad and Tobago","iso2":"TT","iso3":"TTO","admin_name":"Tunapuna/Piarco","capital":"admin","population":17650},{"city":"Nidda","city_ascii":"Nidda","lat":50.4128,"lng":9.0092,"country":"Germany","iso2":"DE","iso3":"DEU","admin_name":"Hesse","capital":"","population":17650},{"city":"Monzón","city_ascii":"Monzon","lat":41.91,"lng":0.19,"country":"Spain","iso2":"ES","iso3":"ESP","admin_name":"Aragon","capital":"","population":17650},{"city":"Fern Down","city_ascii":"Fern Down","lat":50.81,"lng":-1.9,"country":"United Kingdom","iso2":"GB","iso3":"GBR","admin_name":"Dorset","capital":"","population":17650},{"city":"Balaguer","city_ascii":"Balaguer","lat":41.79,"lng":0.805,"country":"Spain","iso2":"ES","iso3":"ESP","admin_name":"Catalonia","capital":"","population":17649},{"city":"Tábara Arriba","city_ascii":"Tabara Arriba","lat":18.5694,"lng":-70.8792,"country":"Dominican Republic","iso2":"DO","iso3":"DOM","admin_name":"Valdesia","capital":"","population":17647},{"city":"Fornaka","city_ascii":"Fornaka","lat":35.7517,"lng":-0.0161,"country":"Algeria","iso2":"DZ","iso3":"DZA","admin_name":"Mostaganem","capital":"","population":17647},{"city":"Pirapora do Bom Jesus","city_ascii":"Pirapora do Bom Jesus","lat":-23.3972,"lng":-47.0028,"country":"Brazil","iso2":"BR","iso3":"BRA","admin_name":"São Paulo","capital":"","population":17646},{"city":"Kappiyara","city_ascii":"Kappiyara","lat":8.2466,"lng":77.2617,"country":"India","iso2":"IN","iso3":"IND","admin_name":"Tamil Nādu","capital":"","population":17645},{"city":"Fanandrana","city_ascii":"Fanandrana","lat":-18.1944,"lng":49.3792,"country":"Madagascar","iso2":"MG","iso3":"MDG","admin_name":"Toamasina","capital":"","population":17644},{"city":"Mount Holly","city_ascii":"Mount Holly","lat":35.3136,"lng":-81.0073,"country":"United States","iso2":"US","iso3":"USA","admin_name":"North Carolina","capital":"","population":17644},{"city":"Bexbach","city_ascii":"Bexbach","lat":49.3494,"lng":7.2594,"country":"Germany","iso2":"DE","iso3":"DEU","admin_name":"Saarland","capital":"","population":17642},{"city":"Arsanjān","city_ascii":"Arsanjan","lat":29.9142,"lng":53.3058,"country":"Iran","iso2":"IR","iso3":"IRN","admin_name":"Fārs","capital":"minor","population":17642},{"city":"Camano","city_ascii":"Camano","lat":48.1865,"lng":-122.4708,"country":"United States","iso2":"US","iso3":"USA","admin_name":"Washington","capital":"","population":17642},{"city":"San Jose","city_ascii":"San Jose","lat":12.531,"lng":124.487,"country":"Philippines","iso2":"PH","iso3":"PHL","admin_name":"Northern Samar","capital":"","population":17641},{"city":"Valluvandad","city_ascii":"Valluvandad","lat":11.0996,"lng":76.1972,"country":"India","iso2":"IN","iso3":"IND","admin_name":"Kerala","capital":"","population":17641},{"city":"Vettikattiri","city_ascii":"Vettikattiri","lat":11.1167,"lng":76.1833,"country":"India","iso2":"IN","iso3":"IND","admin_name":"Kerala","capital":"","population":17641},{"city":"Stowbtsy","city_ascii":"Stowbtsy","lat":53.4833,"lng":26.7333,"country":"Belarus","iso2":"BY","iso3":"BLR","admin_name":"Minskaya Voblasts’","capital":"","population":17640},{"city":"Gretna","city_ascii":"Gretna","lat":29.9101,"lng":-90.0515,"country":"United States","iso2":"US","iso3":"USA","admin_name":"Louisiana","capital":"","population":17640},{"city":"Nelidovo","city_ascii":"Nelidovo","lat":56.2167,"lng":32.8,"country":"Russia","iso2":"RU","iso3":"RUS","admin_name":"Tverskaya Oblast’","capital":"minor","population":17639},{"city":"São Miguel do Tapuio","city_ascii":"Sao Miguel do Tapuio","lat":-5.5,"lng":-41.3333,"country":"Brazil","iso2":"BR","iso3":"BRA","admin_name":"Piauí","capital":"","population":17639},{"city":"Abaré","city_ascii":"Abare","lat":-8.7167,"lng":-39.1167,"country":"Brazil","iso2":"BR","iso3":"BRA","admin_name":"Bahia","capital":"","population":17639},{"city":"Dingjiagouxiang","city_ascii":"Dingjiagouxiang","lat":35.5307,"lng":105.0207,"country":"China","iso2":"CN","iso3":"CHN","admin_name":"Gansu","capital":"","population":17639},{"city":"Damme","city_ascii":"Damme","lat":52.5208,"lng":8.1986,"country":"Germany","iso2":"DE","iso3":"DEU","admin_name":"Lower Saxony","capital":"","population":17639},{"city":"Stuart","city_ascii":"Stuart","lat":27.1959,"lng":-80.2444,"country":"United States","iso2":"US","iso3":"USA","admin_name":"Florida","capital":"","population":17639},{"city":"Jacksonville","city_ascii":"Jacksonville","lat":39.7292,"lng":-90.2317,"country":"United States","iso2":"US","iso3":"USA","admin_name":"Illinois","capital":"","population":17639},{"city":"Terenos","city_ascii":"Terenos","lat":-20.4419,"lng":-54.86,"country":"Brazil","iso2":"BR","iso3":"BRA","admin_name":"Mato Grosso do Sul","capital":"","population":17638},{"city":"El Carmen de Chucurí","city_ascii":"El Carmen de Chucuri","lat":6.6981,"lng":-73.5111,"country":"Colombia","iso2":"CO","iso3":"COL","admin_name":"Santander","capital":"minor","population":17638},{"city":"Cerrillos","city_ascii":"Cerrillos","lat":-24.9,"lng":-65.4833,"country":"Argentina","iso2":"AR","iso3":"ARG","admin_name":"Salta","capital":"minor","population":17634},{"city":"Otrokovice","city_ascii":"Otrokovice","lat":49.21,"lng":17.5308,"country":"Czechia","iso2":"CZ","iso3":"CZE","admin_name":"Zlínský Kraj","capital":"","population":17634},{"city":"Cariré","city_ascii":"Carire","lat":-3.9508,"lng":-40.4728,"country":"Brazil","iso2":"BR","iso3":"BRA","admin_name":"Ceará","capital":"minor","population":17632},{"city":"Pupri","city_ascii":"Pupri","lat":26.4708,"lng":85.7031,"country":"India","iso2":"IN","iso3":"IND","admin_name":"Bihār","capital":"","population":17632},{"city":"Mānullahpatti","city_ascii":"Manullahpatti","lat":26.0619,"lng":87.1751,"country":"India","iso2":"IN","iso3":"IND","admin_name":"Bihār","capital":"","population":17632},{"city":"Siloam Springs","city_ascii":"Siloam Springs","lat":36.1844,"lng":-94.5315,"country":"United States","iso2":"US","iso3":"USA","admin_name":"Arkansas","capital":"","population":17632},{"city":"Woodmere","city_ascii":"Woodmere","lat":40.6375,"lng":-73.7219,"country":"United States","iso2":"US","iso3":"USA","admin_name":"New York","capital":"","population":17632},{"city":"Saint-Maximin-la-Sainte-Baume","city_ascii":"Saint-Maximin-la-Sainte-Baume","lat":43.4532,"lng":5.8614,"country":"France","iso2":"FR","iso3":"FRA","admin_name":"Provence-Alpes-Côte d’Azur","capital":"","population":17631},{"city":"Inza","city_ascii":"Inza","lat":53.85,"lng":46.35,"country":"Russia","iso2":"RU","iso3":"RUS","admin_name":"Ul’yanovskaya Oblast’","capital":"","population":17630},{"city":"Stegen","city_ascii":"Stegen","lat":47.476,"lng":8.77,"country":"Switzerland","iso2":"CH","iso3":"CHE","admin_name":"Zürich","capital":"","population":17630},{"city":"Oborniki","city_ascii":"Oborniki","lat":52.65,"lng":16.8167,"country":"Poland","iso2":"PL","iso3":"POL","admin_name":"Wielkopolskie","capital":"minor","population":17629},{"city":"Ban Mae Ka Hua Thung","city_ascii":"Ban Mae Ka Hua Thung","lat":19.0942,"lng":99.9136,"country":"Thailand","iso2":"TH","iso3":"THA","admin_name":"Phayao","capital":"","population":17629},{"city":"Daimiel","city_ascii":"Daimiel","lat":39.0833,"lng":-3.6167,"country":"Spain","iso2":"ES","iso3":"ESP","admin_name":"Castille-La Mancha","capital":"","population":17629},{"city":"Asarcık","city_ascii":"Asarcik","lat":41.0314,"lng":36.2683,"country":"Turkey","iso2":"TR","iso3":"TUR","admin_name":"Samsun","capital":"minor","population":17628},{"city":"Pinili","city_ascii":"Pinili","lat":17.954,"lng":120.527,"country":"Philippines","iso2":"PH","iso3":"PHL","admin_name":"Ilocos Norte","capital":"","population":17626},{"city":"La Primavera","city_ascii":"La Primavera","lat":5.4906,"lng":-70.4092,"country":"Colombia","iso2":"CO","iso3":"COL","admin_name":"Vichada","capital":"minor","population":17626},{"city":"Limay","city_ascii":"Limay","lat":48.9942,"lng":1.7367,"country":"France","iso2":"FR","iso3":"FRA","admin_name":"Île-de-France","capital":"","population":17626},{"city":"Eastlake","city_ascii":"Eastlake","lat":41.6581,"lng":-81.4322,"country":"United States","iso2":"US","iso3":"USA","admin_name":"Ohio","capital":"","population":17625},{"city":"Gostynin","city_ascii":"Gostynin","lat":52.4167,"lng":19.4667,"country":"Poland","iso2":"PL","iso3":"POL","admin_name":"Mazowieckie","capital":"minor","population":17624},{"city":"Lobogo","city_ascii":"Lobogo","lat":6.6333,"lng":1.9,"country":"Benin","iso2":"BJ","iso3":"BEN","admin_name":"Mono","capital":"","population":17622},{"city":"Longjia","city_ascii":"Longjia","lat":36.0962,"lng":113.419,"country":"China","iso2":"CN","iso3":"CHN","admin_name":"Shanxi","capital":"","population":17622},{"city":"Nakło nad Notecią","city_ascii":"Naklo nad Notecia","lat":53.1403,"lng":17.5928,"country":"Poland","iso2":"PL","iso3":"POL","admin_name":"Kujawsko-Pomorskie","capital":"minor","population":17620},{"city":"Karacasu","city_ascii":"Karacasu","lat":37.7308,"lng":28.6061,"country":"Turkey","iso2":"TR","iso3":"TUR","admin_name":"Aydın","capital":"minor","population":17620},{"city":"Yayas de Viajama","city_ascii":"Yayas de Viajama","lat":18.6,"lng":-70.92,"country":"Dominican Republic","iso2":"DO","iso3":"DOM","admin_name":"Valdesia","capital":"","population":17620},{"city":"Colbún","city_ascii":"Colbun","lat":-35.7,"lng":-71.4167,"country":"Chile","iso2":"CL","iso3":"CHL","admin_name":"Maule","capital":"","population":17619},{"city":"Benito Juárez","city_ascii":"Benito Juarez","lat":20.8833,"lng":-98.2,"country":"Mexico","iso2":"MX","iso3":"MEX","admin_name":"Veracruz","capital":"minor","population":17618},{"city":"São Francisco de Assis","city_ascii":"Sao Francisco de Assis","lat":-29.5503,"lng":-55.1311,"country":"Brazil","iso2":"BR","iso3":"BRA","admin_name":"Rio Grande do Sul","capital":"","population":17618},{"city":"Vittal","city_ascii":"Vittal","lat":12.766,"lng":75.122,"country":"India","iso2":"IN","iso3":"IND","admin_name":"Karnātaka","capital":"","population":17618},{"city":"Ambolomadinika","city_ascii":"Ambolomadinika","lat":-21.95,"lng":47.4333,"country":"Madagascar","iso2":"MG","iso3":"MDG","admin_name":"Fianarantsoa","capital":"","population":17616},{"city":"Sokółka","city_ascii":"Sokolka","lat":53.4,"lng":23.5,"country":"Poland","iso2":"PL","iso3":"POL","admin_name":"Podlaskie","capital":"minor","population":17616},{"city":"San Jorge","city_ascii":"San Jorge","lat":-31.8961,"lng":-61.8597,"country":"Argentina","iso2":"AR","iso3":"ARG","admin_name":"Santa Fe","capital":"","population":17615},{"city":"İskilip","city_ascii":"Iskilip","lat":40.7361,"lng":34.4739,"country":"Turkey","iso2":"TR","iso3":"TUR","admin_name":"Çorum","capital":"minor","population":17612},{"city":"Sam Phran","city_ascii":"Sam Phran","lat":13.727,"lng":100.2153,"country":"Thailand","iso2":"TH","iso3":"THA","admin_name":"Nakhon Pathom","capital":"minor","population":17611},{"city":"Totoró","city_ascii":"Totoro","lat":2.5117,"lng":-76.4003,"country":"Colombia","iso2":"CO","iso3":"COL","admin_name":"Cauca","capital":"minor","population":17611},{"city":"Omallūr","city_ascii":"Omallur","lat":9.2468,"lng":76.751,"country":"India","iso2":"IN","iso3":"IND","admin_name":"Kerala","capital":"","population":17611},{"city":"Veliko Gradište","city_ascii":"Veliko Gradiste","lat":44.75,"lng":21.5167,"country":"Serbia","iso2":"RS","iso3":"SRB","admin_name":"Veliko Gradište","capital":"admin","population":17610},{"city":"Ubaitaba","city_ascii":"Ubaitaba","lat":-14.3,"lng":-39.3333,"country":"Brazil","iso2":"BR","iso3":"BRA","admin_name":"Bahia","capital":"minor","population":17610},{"city":"Zhongguyue","city_ascii":"Zhongguyue","lat":38.2833,"lng":113.8667,"country":"China","iso2":"CN","iso3":"CHN","admin_name":"Hebei","capital":"","population":17610},{"city":"Restrepo","city_ascii":"Restrepo","lat":4.25,"lng":-73.5667,"country":"Colombia","iso2":"CO","iso3":"COL","admin_name":"Meta","capital":"minor","population":17610},{"city":"Barrhead","city_ascii":"Barrhead","lat":55.801,"lng":-4.389,"country":"United Kingdom","iso2":"GB","iso3":"GBR","admin_name":"East Renfrewshire","capital":"","population":17610},{"city":"Capua","city_ascii":"Capua","lat":41.1056,"lng":14.2139,"country":"Italy","iso2":"IT","iso3":"ITA","admin_name":"Campania","capital":"","population":17609},{"city":"Chedaopo","city_ascii":"Chedaopo","lat":36.4008,"lng":106.7351,"country":"China","iso2":"CN","iso3":"CHN","admin_name":"Gansu","capital":"","population":17608},{"city":"Şavşat","city_ascii":"Savsat","lat":41.2433,"lng":42.3639,"country":"Turkey","iso2":"TR","iso3":"TUR","admin_name":"Artvin","capital":"minor","population":17606},{"city":"Tijucas do Sul","city_ascii":"Tijucas do Sul","lat":-25.9333,"lng":-49.1833,"country":"Brazil","iso2":"BR","iso3":"BRA","admin_name":"Paraná","capital":"","population":17606},{"city":"El Dorado","city_ascii":"El Dorado","lat":33.2184,"lng":-92.664,"country":"United States","iso2":"US","iso3":"USA","admin_name":"Arkansas","capital":"","population":17606},{"city":"Storrs","city_ascii":"Storrs","lat":41.8083,"lng":-72.2514,"country":"United States","iso2":"US","iso3":"USA","admin_name":"Connecticut","capital":"","population":17606},{"city":"Bel Air","city_ascii":"Bel Air","lat":-20.2582,"lng":57.7545,"country":"Mauritius","iso2":"MU","iso3":"MUS","admin_name":"Flacq","capital":"","population":17605},{"city":"Polyarnyy","city_ascii":"Polyarnyy","lat":69.2,"lng":33.4667,"country":"Russia","iso2":"RU","iso3":"RUS","admin_name":"Murmanskaya Oblast’","capital":"minor","population":17605},{"city":"Lousã","city_ascii":"Lousa","lat":40.1167,"lng":-8.25,"country":"Portugal","iso2":"PT","iso3":"PRT","admin_name":"Coimbra","capital":"minor","population":17604},{"city":"New Philadelphia","city_ascii":"New Philadelphia","lat":40.486,"lng":-81.4401,"country":"United States","iso2":"US","iso3":"USA","admin_name":"Ohio","capital":"","population":17602},{"city":"Pirayú","city_ascii":"Pirayu","lat":-25.48,"lng":-57.23,"country":"Paraguay","iso2":"PY","iso3":"PRY","admin_name":"Paraguarí","capital":"","population":17601},{"city":"Siderno Marina","city_ascii":"Siderno Marina","lat":38.2667,"lng":16.3,"country":"Italy","iso2":"IT","iso3":"ITA","admin_name":"Calabria","capital":"","population":17601},{"city":"Raghunāthpur","city_ascii":"Raghunathpur","lat":26.1145,"lng":87.159,"country":"India","iso2":"IN","iso3":"IND","admin_name":"Bihār","capital":"","population":17600},{"city":"Bakouma","city_ascii":"Bakouma","lat":5.6986,"lng":22.7833,"country":"Central African Republic","iso2":"CF","iso3":"CAF","admin_name":"Mbomou","capital":"","population":17599},{"city":"Abejorral","city_ascii":"Abejorral","lat":5.7894,"lng":-75.4281,"country":"Colombia","iso2":"CO","iso3":"COL","admin_name":"Antioquia","capital":"minor","population":17599},{"city":"Amacuzac","city_ascii":"Amacuzac","lat":18.6,"lng":-99.37,"country":"Mexico","iso2":"MX","iso3":"MEX","admin_name":"Morelos","capital":"minor","population":17598},{"city":"San Alejo","city_ascii":"San Alejo","lat":13.4333,"lng":-87.9667,"country":"El Salvador","iso2":"SV","iso3":"SLV","admin_name":"La Unión","capital":"","population":17598},{"city":"Herve","city_ascii":"Herve","lat":50.6333,"lng":5.8,"country":"Belgium","iso2":"BE","iso3":"BEL","admin_name":"Wallonia","capital":"","population":17598},{"city":"Boqueirão","city_ascii":"Boqueirao","lat":-7.4819,"lng":-36.135,"country":"Brazil","iso2":"BR","iso3":"BRA","admin_name":"Paraíba","capital":"minor","population":17598},{"city":"Sigus","city_ascii":"Sigus","lat":36.1167,"lng":6.7833,"country":"Algeria","iso2":"DZ","iso3":"DZA","admin_name":"Oum el Bouaghi","capital":"","population":17598},{"city":"Arauco","city_ascii":"Arauco","lat":-37.25,"lng":-73.3167,"country":"Chile","iso2":"CL","iso3":"CHL","admin_name":"Biobío","capital":"","population":17597},{"city":"Yondó","city_ascii":"Yondo","lat":7,"lng":-73.9167,"country":"Colombia","iso2":"CO","iso3":"COL","admin_name":"Antioquia","capital":"minor","population":17597},{"city":"Raghunāthpur","city_ascii":"Raghunathpur","lat":25.844,"lng":86.9697,"country":"India","iso2":"IN","iso3":"IND","admin_name":"Bihār","capital":"","population":17596},{"city":"Neder-Over-Heembeek","city_ascii":"Neder-Over-Heembeek","lat":50.9,"lng":4.3833,"country":"Belgium","iso2":"BE","iso3":"BEL","admin_name":"Brussels-Capital Region","capital":"","population":17595},{"city":"Bad Wildungen","city_ascii":"Bad Wildungen","lat":51.1167,"lng":9.1167,"country":"Germany","iso2":"DE","iso3":"DEU","admin_name":"Hesse","capital":"","population":17595},{"city":"Palau","city_ascii":"Palau","lat":27.9167,"lng":-101.4167,"country":"Mexico","iso2":"MX","iso3":"MEX","admin_name":"Coahuila","capital":"","population":17594},{"city":"Para","city_ascii":"Para","lat":5.5167,"lng":-7.3333,"country":"Côte d’Ivoire","iso2":"CI","iso3":"CIV","admin_name":"Bas-Sassandra","capital":"","population":17594},{"city":"Marcon","city_ascii":"Marcon","lat":45.5667,"lng":12.3,"country":"Italy","iso2":"IT","iso3":"ITA","admin_name":"Veneto","capital":"","population":17594},{"city":"Laatatra","city_ascii":"Laatatra","lat":32.6315,"lng":-8.4148,"country":"Morocco","iso2":"MA","iso3":"MAR","admin_name":"Casablanca-Settat","capital":"","population":17593},{"city":"Srbac","city_ascii":"Srbac","lat":45.0958,"lng":17.5192,"country":"Bosnia and Herzegovina","iso2":"BA","iso3":"BIH","admin_name":"Srpska, Republika","capital":"minor","population":17587},{"city":"Manganj","city_ascii":"Manganj","lat":26.1388,"lng":86.9944,"country":"India","iso2":"IN","iso3":"IND","admin_name":"Bihār","capital":"","population":17585},{"city":"Putte","city_ascii":"Putte","lat":51.05,"lng":4.6333,"country":"Belgium","iso2":"BE","iso3":"BEL","admin_name":"Flanders","capital":"","population":17584},{"city":"Zamora","city_ascii":"Zamora","lat":-4.0692,"lng":-78.9567,"country":"Ecuador","iso2":"EC","iso3":"ECU","admin_name":"Zamora-Chinchipe","capital":"admin","population":17584},{"city":"Santos Reyes Nopala","city_ascii":"Santos Reyes Nopala","lat":16.1,"lng":-97.15,"country":"Mexico","iso2":"MX","iso3":"MEX","admin_name":"Oaxaca","capital":"","population":17583},{"city":"Inkollu","city_ascii":"Inkollu","lat":15.83,"lng":80.2,"country":"India","iso2":"IN","iso3":"IND","admin_name":"Andhra Pradesh","capital":"","population":17581},{"city":"Eldama Ravine","city_ascii":"Eldama Ravine","lat":0.05,"lng":35.7167,"country":"Kenya","iso2":"KE","iso3":"KEN","admin_name":"Baringo","capital":"","population":17581},{"city":"Ajā","city_ascii":"Aja","lat":30.9414,"lng":31.2942,"country":"Egypt","iso2":"EG","iso3":"EGY","admin_name":"Ad Daqahlīyah","capital":"","population":17580},{"city":"Maesteg","city_ascii":"Maesteg","lat":51.61,"lng":-3.65,"country":"United Kingdom","iso2":"GB","iso3":"GBR","admin_name":"Bridgend","capital":"","population":17580},{"city":"Saint Andrews","city_ascii":"Saint Andrews","lat":56.3404,"lng":-2.7955,"country":"United Kingdom","iso2":"GB","iso3":"GBR","admin_name":"Fife","capital":"","population":17580},{"city":"Chakkuvarakal","city_ascii":"Chakkuvarakal","lat":8.9833,"lng":76.85,"country":"India","iso2":"IN","iso3":"IND","admin_name":"Kerala","capital":"","population":17580},{"city":"San Jorge","city_ascii":"San Jorge","lat":11.9833,"lng":124.8167,"country":"Philippines","iso2":"PH","iso3":"PHL","admin_name":"Samar","capital":"","population":17579},{"city":"Žiar nad Hronom","city_ascii":"Ziar nad Hronom","lat":48.5842,"lng":18.8608,"country":"Slovakia","iso2":"SK","iso3":"SVK","admin_name":"Banská Bystrica","capital":"minor","population":17578},{"city":"Muḩradah","city_ascii":"Muhradah","lat":35.25,"lng":36.5833,"country":"Syria","iso2":"SY","iso3":"SYR","admin_name":"Ḩamāh","capital":"minor","population":17578},{"city":"Quanzhang","city_ascii":"Quanzhang","lat":35.6613,"lng":111.1049,"country":"China","iso2":"CN","iso3":"CHN","admin_name":"Shanxi","capital":"","population":17578},{"city":"Peruvanthānam","city_ascii":"Peruvanthanam","lat":9.55,"lng":76.9167,"country":"India","iso2":"IN","iso3":"IND","admin_name":"Kerala","capital":"","population":17576},{"city":"Rāyappanpatti","city_ascii":"Rayappanpatti","lat":9.7997,"lng":77.2372,"country":"India","iso2":"IN","iso3":"IND","admin_name":"Tamil Nādu","capital":"","population":17575},{"city":"Zephyrhills","city_ascii":"Zephyrhills","lat":28.2409,"lng":-82.1797,"country":"United States","iso2":"US","iso3":"USA","admin_name":"Florida","capital":"","population":17575},{"city":"Krishnapuram","city_ascii":"Krishnapuram","lat":10.3667,"lng":76.15,"country":"India","iso2":"IN","iso3":"IND","admin_name":"Kerala","capital":"","population":17574},{"city":"Cortland","city_ascii":"Cortland","lat":42.6004,"lng":-76.1784,"country":"United States","iso2":"US","iso3":"USA","admin_name":"New York","capital":"","population":17574},{"city":"Compostela","city_ascii":"Compostela","lat":21.2333,"lng":-104.9,"country":"Mexico","iso2":"MX","iso3":"MEX","admin_name":"Nayarit","capital":"minor","population":17573},{"city":"Água Branca","city_ascii":"Agua Branca","lat":-5.89,"lng":-42.6378,"country":"Brazil","iso2":"BR","iso3":"BRA","admin_name":"Piauí","capital":"minor","population":17573},{"city":"Aït Majdane","city_ascii":"Ait Majdane","lat":31.8514,"lng":-6.9658,"country":"Morocco","iso2":"MA","iso3":"MAR","admin_name":"Béni Mellal-Khénifra","capital":"","population":17572},{"city":"Trossingen","city_ascii":"Trossingen","lat":48.0756,"lng":8.6361,"country":"Germany","iso2":"DE","iso3":"DEU","admin_name":"Baden-Württemberg","capital":"","population":17571},{"city":"Cerca Carvajal","city_ascii":"Cerca Carvajal","lat":19.2667,"lng":-71.95,"country":"Haiti","iso2":"HT","iso3":"HTI","admin_name":"Centre","capital":"","population":17571},{"city":"Boissy-Saint-Léger","city_ascii":"Boissy-Saint-Leger","lat":48.7511,"lng":2.5106,"country":"France","iso2":"FR","iso3":"FRA","admin_name":"Île-de-France","capital":"","population":17570},{"city":"Catarman","city_ascii":"Catarman","lat":9.13,"lng":124.68,"country":"Philippines","iso2":"PH","iso3":"PHL","admin_name":"Camiguin","capital":"","population":17569},{"city":"Alcochete","city_ascii":"Alcochete","lat":38.75,"lng":-8.9667,"country":"Portugal","iso2":"PT","iso3":"PRT","admin_name":"Setúbal","capital":"minor","population":17569},{"city":"Rožňava","city_ascii":"Roznava","lat":48.6583,"lng":20.5308,"country":"Slovakia","iso2":"SK","iso3":"SVK","admin_name":"Košice","capital":"minor","population":17569},{"city":"Sagrada Familia","city_ascii":"Sagrada Familia","lat":-35,"lng":-71.3833,"country":"Chile","iso2":"CL","iso3":"CHL","admin_name":"Maule","capital":"","population":17569},{"city":"Wayne","city_ascii":"Wayne","lat":42.2774,"lng":-83.3877,"country":"United States","iso2":"US","iso3":"USA","admin_name":"Michigan","capital":"","population":17568},{"city":"Piritiba","city_ascii":"Piritiba","lat":-11.7333,"lng":-40.5667,"country":"Brazil","iso2":"BR","iso3":"BRA","admin_name":"Bahia","capital":"minor","population":17566},{"city":"Tak","city_ascii":"Tak","lat":16.8711,"lng":99.125,"country":"Thailand","iso2":"TH","iso3":"THA","admin_name":"Tak","capital":"admin","population":17565},{"city":"Ban Thum","city_ascii":"Ban Thum","lat":16.4523,"lng":102.7225,"country":"Thailand","iso2":"TH","iso3":"THA","admin_name":"Khon Kaen","capital":"","population":17564},{"city":"Sirari","city_ascii":"Sirari","lat":-1.2244,"lng":34.4383,"country":"Tanzania","iso2":"TZ","iso3":"TZA","admin_name":"Mara","capital":"","population":17564},{"city":"Barhampur","city_ascii":"Barhampur","lat":26.3023,"lng":85.7476,"country":"India","iso2":"IN","iso3":"IND","admin_name":"Bihār","capital":"","population":17563},{"city":"Kambla","city_ascii":"Kambla","lat":12.9607,"lng":74.9332,"country":"India","iso2":"IN","iso3":"IND","admin_name":"Karnātaka","capital":"","population":17562},{"city":"Kisoro","city_ascii":"Kisoro","lat":-1.285,"lng":29.685,"country":"Uganda","iso2":"UG","iso3":"UGA","admin_name":"Kisoro","capital":"admin","population":17561},{"city":"Bistāria","city_ascii":"Bistaria","lat":26.1262,"lng":87.23,"country":"India","iso2":"IN","iso3":"IND","admin_name":"Bihār","capital":"","population":17559},{"city":"Arroio Grande","city_ascii":"Arroio Grande","lat":-32.2378,"lng":-53.0869,"country":"Brazil","iso2":"BR","iso3":"BRA","admin_name":"Rio Grande do Sul","capital":"","population":17558},{"city":"Khutāha","city_ascii":"Khutaha","lat":25.2645,"lng":86.0598,"country":"India","iso2":"IN","iso3":"IND","admin_name":"Bihār","capital":"","population":17558},{"city":"Lemont","city_ascii":"Lemont","lat":41.6695,"lng":-87.9838,"country":"United States","iso2":"US","iso3":"USA","admin_name":"Illinois","capital":"","population":17558},{"city":"Clemson","city_ascii":"Clemson","lat":34.6837,"lng":-82.8124,"country":"United States","iso2":"US","iso3":"USA","admin_name":"South Carolina","capital":"","population":17557},{"city":"Gömeç","city_ascii":"Gomec","lat":39.3911,"lng":26.84,"country":"Turkey","iso2":"TR","iso3":"TUR","admin_name":"Balıkesir","capital":"minor","population":17556},{"city":"Pālaiyam","city_ascii":"Palaiyam","lat":10.7256,"lng":78.1354,"country":"India","iso2":"IN","iso3":"IND","admin_name":"Tamil Nādu","capital":"","population":17556},{"city":"Mawkanin","city_ascii":"Mawkanin","lat":15.5106,"lng":97.8533,"country":"Burma","iso2":"MM","iso3":"MMR","admin_name":"Mon State","capital":"","population":17552},{"city":"Son en Breugel","city_ascii":"Son en Breugel","lat":51.5167,"lng":5.5,"country":"Netherlands","iso2":"NL","iso3":"NLD","admin_name":"Noord-Brabant","capital":"minor","population":17552},{"city":"Penn","city_ascii":"Penn","lat":39.7994,"lng":-76.9642,"country":"United States","iso2":"US","iso3":"USA","admin_name":"Pennsylvania","capital":"","population":17552},{"city":"Le Pontet","city_ascii":"Le Pontet","lat":43.965,"lng":4.8606,"country":"France","iso2":"FR","iso3":"FRA","admin_name":"Provence-Alpes-Côte d’Azur","capital":"","population":17551},{"city":"Çameli","city_ascii":"Cameli","lat":37.0708,"lng":29.3453,"country":"Turkey","iso2":"TR","iso3":"TUR","admin_name":"Denizli","capital":"minor","population":17549},{"city":"Glencoe","city_ascii":"Glencoe","lat":-28.1833,"lng":30.15,"country":"South Africa","iso2":"ZA","iso3":"ZAF","admin_name":"KwaZulu-Natal","capital":"","population":17548},{"city":"Punnayūr","city_ascii":"Punnayur","lat":10.65,"lng":76,"country":"India","iso2":"IN","iso3":"IND","admin_name":"Kerala","capital":"","population":17547},{"city":"Colchester","city_ascii":"Colchester","lat":44.5545,"lng":-73.2168,"country":"United States","iso2":"US","iso3":"USA","admin_name":"Vermont","capital":"","population":17546},{"city":"Morarano-Gara","city_ascii":"Morarano-Gara","lat":-18.71,"lng":48.27,"country":"Madagascar","iso2":"MG","iso3":"MDG","admin_name":"Toamasina","capital":"","population":17545},{"city":"Waalre","city_ascii":"Waalre","lat":51.4,"lng":5.4667,"country":"Netherlands","iso2":"NL","iso3":"NLD","admin_name":"Noord-Brabant","capital":"minor","population":17544},{"city":"Lattes","city_ascii":"Lattes","lat":43.57,"lng":3.9094,"country":"France","iso2":"FR","iso3":"FRA","admin_name":"Occitanie","capital":"","population":17544},{"city":"Aliyābād","city_ascii":"Aliyabad","lat":12.6317,"lng":79.2164,"country":"India","iso2":"IN","iso3":"IND","admin_name":"Tamil Nādu","capital":"","population":17544},{"city":"Takoma Park","city_ascii":"Takoma Park","lat":38.981,"lng":-77.0028,"country":"United States","iso2":"US","iso3":"USA","admin_name":"Maryland","capital":"","population":17542},{"city":"Koriāpatti","city_ascii":"Koriapatti","lat":26.1149,"lng":86.9905,"country":"India","iso2":"IN","iso3":"IND","admin_name":"Bihār","capital":"","population":17538},{"city":"Swellendam","city_ascii":"Swellendam","lat":-34.0231,"lng":20.44,"country":"South Africa","iso2":"ZA","iso3":"ZAF","admin_name":"Western Cape","capital":"","population":17537},{"city":"Yeniseysk","city_ascii":"Yeniseysk","lat":58.4667,"lng":92.1333,"country":"Russia","iso2":"RU","iso3":"RUS","admin_name":"Krasnoyarskiy Kray","capital":"","population":17537},{"city":"Al ‘Ashārah","city_ascii":"Al `Asharah","lat":34.9203,"lng":40.5594,"country":"Syria","iso2":"SY","iso3":"SYR","admin_name":"Dayr az Zawr","capital":"minor","population":17537},{"city":"Scarborough","city_ascii":"Scarborough","lat":11.1833,"lng":-60.7375,"country":"Trinidad and Tobago","iso2":"TT","iso3":"TTO","admin_name":"Tobago","capital":"admin","population":17537},{"city":"Etacheri","city_ascii":"Etacheri","lat":10.6028,"lng":76.6444,"country":"India","iso2":"IN","iso3":"IND","admin_name":"Kerala","capital":"","population":17537},{"city":"Sona","city_ascii":"Sona","lat":45.4333,"lng":10.8333,"country":"Italy","iso2":"IT","iso3":"ITA","admin_name":"Veneto","capital":"","population":17537},{"city":"Mitake","city_ascii":"Mitake","lat":35.4344,"lng":137.1307,"country":"Japan","iso2":"JP","iso3":"JPN","admin_name":"Gifu","capital":"","population":17536},{"city":"Kempele","city_ascii":"Kempele","lat":64.9125,"lng":25.5083,"country":"Finland","iso2":"FI","iso3":"FIN","admin_name":"Pohjois-Pohjanmaa","capital":"minor","population":17535},{"city":"Vāyalpād","city_ascii":"Vayalpad","lat":13.65,"lng":78.6333,"country":"India","iso2":"IN","iso3":"IND","admin_name":"Andhra Pradesh","capital":"","population":17535},{"city":"Oak Grove","city_ascii":"Oak Grove","lat":45.4156,"lng":-122.6349,"country":"United States","iso2":"US","iso3":"USA","admin_name":"Oregon","capital":"","population":17535},{"city":"Esperanza","city_ascii":"Esperanza","lat":11.7369,"lng":124.0417,"country":"Philippines","iso2":"PH","iso3":"PHL","admin_name":"Masbate","capital":"","population":17534},{"city":"Shangjing","city_ascii":"Shangjing","lat":24.5601,"lng":114.8943,"country":"China","iso2":"CN","iso3":"CHN","admin_name":"Guangdong","capital":"","population":17534},{"city":"Shanglingcun","city_ascii":"Shanglingcun","lat":24.6076,"lng":114.9939,"country":"China","iso2":"CN","iso3":"CHN","admin_name":"Guangdong","capital":"","population":17534},{"city":"Harinākunda","city_ascii":"Harinakunda","lat":23.65,"lng":89.0333,"country":"Bangladesh","iso2":"BD","iso3":"BGD","admin_name":"Khulna","capital":"","population":17533},{"city":"Duijiang","city_ascii":"Duijiang","lat":27.0782,"lng":105.5256,"country":"China","iso2":"CN","iso3":"CHN","admin_name":"Guizhou","capital":"","population":17533},{"city":"Kirksville","city_ascii":"Kirksville","lat":40.1986,"lng":-92.5752,"country":"United States","iso2":"US","iso3":"USA","admin_name":"Missouri","capital":"","population":17533},{"city":"Esquimalt","city_ascii":"Esquimalt","lat":48.4306,"lng":-123.4147,"country":"Canada","iso2":"CA","iso3":"CAN","admin_name":"British Columbia","capital":"","population":17533},{"city":"Polignano a Mare","city_ascii":"Polignano a Mare","lat":41,"lng":17.2167,"country":"Italy","iso2":"IT","iso3":"ITA","admin_name":"Puglia","capital":"","population":17531},{"city":"Rio Bananal","city_ascii":"Rio Bananal","lat":-19.265,"lng":-40.3328,"country":"Brazil","iso2":"BR","iso3":"BRA","admin_name":"Espírito Santo","capital":"","population":17530},{"city":"Bonnyrigg","city_ascii":"Bonnyrigg","lat":55.8747,"lng":-3.1031,"country":"United Kingdom","iso2":"GB","iso3":"GBR","admin_name":"Midlothian","capital":"","population":17530},{"city":"Turuvekere","city_ascii":"Turuvekere","lat":13.1637,"lng":76.6664,"country":"India","iso2":"IN","iso3":"IND","admin_name":"Karnātaka","capital":"","population":17530},{"city":"Shirva","city_ascii":"Shirva","lat":13.2465,"lng":74.8444,"country":"India","iso2":"IN","iso3":"IND","admin_name":"Karnātaka","capital":"","population":17530},{"city":"Norcross","city_ascii":"Norcross","lat":33.9379,"lng":-84.2065,"country":"United States","iso2":"US","iso3":"USA","admin_name":"Georgia","capital":"","population":17530},{"city":"Mistrató","city_ascii":"Mistrato","lat":5.3,"lng":-75.8833,"country":"Colombia","iso2":"CO","iso3":"COL","admin_name":"Risaralda","capital":"minor","population":17527},{"city":"Dabas","city_ascii":"Dabas","lat":47.189,"lng":19.3126,"country":"Hungary","iso2":"HU","iso3":"HUN","admin_name":"Pest","capital":"minor","population":17527},{"city":"Attimarappatti","city_ascii":"Attimarappatti","lat":8.7297,"lng":78.1169,"country":"India","iso2":"IN","iso3":"IND","admin_name":"Tamil Nādu","capital":"","population":17527},{"city":"Garching bei München","city_ascii":"Garching bei Munchen","lat":48.25,"lng":11.65,"country":"Germany","iso2":"DE","iso3":"DEU","admin_name":"Bavaria","capital":"","population":17526},{"city":"Guidan Roumdji","city_ascii":"Guidan Roumdji","lat":13.6575,"lng":6.6958,"country":"Niger","iso2":"NE","iso3":"NER","admin_name":"Maradi","capital":"minor","population":17525},{"city":"Boljoon","city_ascii":"Boljoon","lat":9.63,"lng":123.43,"country":"Philippines","iso2":"PH","iso3":"PHL","admin_name":"Cebu","capital":"","population":17525},{"city":"Yeşilhisar","city_ascii":"Yesilhisar","lat":38.35,"lng":35.0867,"country":"Turkey","iso2":"TR","iso3":"TUR","admin_name":"Kayseri","capital":"minor","population":17525},{"city":"Villorba","city_ascii":"Villorba","lat":45.7333,"lng":12.2333,"country":"Italy","iso2":"IT","iso3":"ITA","admin_name":"Veneto","capital":"","population":17523},{"city":"Matagob","city_ascii":"Matagob","lat":11.1469,"lng":124.4733,"country":"Philippines","iso2":"PH","iso3":"PHL","admin_name":"Leyte","capital":"","population":17522},{"city":"Manīn","city_ascii":"Manin","lat":33.6422,"lng":36.2978,"country":"Syria","iso2":"SY","iso3":"SYR","admin_name":"Rīf Dimashq","capital":"","population":17521},{"city":"Gunjur","city_ascii":"Gunjur","lat":13.1833,"lng":-16.7667,"country":"Gambia, The","iso2":"GM","iso3":"GMB","admin_name":"West Coast","capital":"","population":17520},{"city":"Krasnystaw","city_ascii":"Krasnystaw","lat":51,"lng":23.1667,"country":"Poland","iso2":"PL","iso3":"POL","admin_name":"Lubelskie","capital":"minor","population":17519},{"city":"Quedgeley","city_ascii":"Quedgeley","lat":51.825,"lng":-2.28,"country":"United Kingdom","iso2":"GB","iso3":"GBR","admin_name":"Gloucestershire","capital":"","population":17519},{"city":"Malacacheta","city_ascii":"Malacacheta","lat":-17.8419,"lng":-42.0769,"country":"Brazil","iso2":"BR","iso3":"BRA","admin_name":"Minas Gerais","capital":"","population":17516},{"city":"Ivanovka","city_ascii":"Ivanovka","lat":42.8864,"lng":75.0822,"country":"Kyrgyzstan","iso2":"KG","iso3":"KGZ","admin_name":"Chüy","capital":"minor","population":17513},{"city":"Strzelce Opolskie","city_ascii":"Strzelce Opolskie","lat":50.5,"lng":18.2833,"country":"Poland","iso2":"PL","iso3":"POL","admin_name":"Opolskie","capital":"minor","population":17512},{"city":"Rocca di Papa","city_ascii":"Rocca di Papa","lat":41.7611,"lng":12.7092,"country":"Italy","iso2":"IT","iso3":"ITA","admin_name":"Lazio","capital":"","population":17512},{"city":"St. Matthews","city_ascii":"St. Matthews","lat":38.2497,"lng":-85.6384,"country":"United States","iso2":"US","iso3":"USA","admin_name":"Kentucky","capital":"","population":17511},{"city":"Sulaco","city_ascii":"Sulaco","lat":14.9167,"lng":-87.2667,"country":"Honduras","iso2":"HN","iso3":"HND","admin_name":"Yoro","capital":"","population":17509},{"city":"Plast","city_ascii":"Plast","lat":54.3833,"lng":60.8167,"country":"Russia","iso2":"RU","iso3":"RUS","admin_name":"Chelyabinskaya Oblast’","capital":"","population":17508},{"city":"Ebino","city_ascii":"Ebino","lat":32.0453,"lng":130.8108,"country":"Japan","iso2":"JP","iso3":"JPN","admin_name":"Miyazaki","capital":"","population":17508},{"city":"Libertad","city_ascii":"Libertad","lat":11.769,"lng":121.9189,"country":"Philippines","iso2":"PH","iso3":"PHL","admin_name":"Antique","capital":"","population":17507},{"city":"Elankūr","city_ascii":"Elankur","lat":11.1333,"lng":76.1667,"country":"India","iso2":"IN","iso3":"IND","admin_name":"Kerala","capital":"","population":17507},{"city":"Moloacán","city_ascii":"Moloacan","lat":17.9833,"lng":-94.35,"country":"Mexico","iso2":"MX","iso3":"MEX","admin_name":"Veracruz","capital":"minor","population":17504},{"city":"Tenango de Doria","city_ascii":"Tenango de Doria","lat":20.3356,"lng":-98.2267,"country":"Mexico","iso2":"MX","iso3":"MEX","admin_name":"Hidalgo","capital":"minor","population":17503},{"city":"Piratini","city_ascii":"Piratini","lat":-31.4478,"lng":-53.1039,"country":"Brazil","iso2":"BR","iso3":"BRA","admin_name":"Rio Grande do Sul","capital":"","population":17502},{"city":"Mendes","city_ascii":"Mendes","lat":-22.5269,"lng":-43.7328,"country":"Brazil","iso2":"BR","iso3":"BRA","admin_name":"Rio de Janeiro","capital":"","population":17502},{"city":"Baxt","city_ascii":"Baxt","lat":40.7139,"lng":68.6933,"country":"Uzbekistan","iso2":"UZ","iso3":"UZB","admin_name":"Sirdaryo","capital":"","population":17500},{"city":"San Antonio de Ibarra","city_ascii":"San Antonio de Ibarra","lat":0.3627,"lng":-78.1307,"country":"Ecuador","iso2":"EC","iso3":"ECU","admin_name":"Imbabura","capital":"","population":17500},{"city":"Eksambe","city_ascii":"Eksambe","lat":16.42,"lng":74.58,"country":"India","iso2":"IN","iso3":"IND","admin_name":"Karnātaka","capital":"","population":17500},{"city":"Goodlettsville","city_ascii":"Goodlettsville","lat":36.333,"lng":-86.7026,"country":"United States","iso2":"US","iso3":"USA","admin_name":"Tennessee","capital":"","population":17500},{"city":"Cafelândia","city_ascii":"Cafelandia","lat":-21.8025,"lng":-49.61,"country":"Brazil","iso2":"BR","iso3":"BRA","admin_name":"São Paulo","capital":"","population":17499},{"city":"Buguda","city_ascii":"Buguda","lat":19.8081,"lng":84.7908,"country":"India","iso2":"IN","iso3":"IND","admin_name":"Odisha","capital":"","population":17499},{"city":"Kudavāsal","city_ascii":"Kudavasal","lat":10.8582,"lng":79.4823,"country":"India","iso2":"IN","iso3":"IND","admin_name":"Tamil Nādu","capital":"","population":17497},{"city":"Sahel","city_ascii":"Sahel","lat":34.9667,"lng":-4.55,"country":"Morocco","iso2":"MA","iso3":"MAR","admin_name":"Tanger-Tétouan-Al Hoceïma","capital":"","population":17496},{"city":"Puerto Guzmán","city_ascii":"Puerto Guzman","lat":0.9703,"lng":-76.5858,"country":"Colombia","iso2":"CO","iso3":"COL","admin_name":"Putumayo","capital":"","population":17495},{"city":"Īlām","city_ascii":"Ilam","lat":26.908,"lng":87.926,"country":"Nepal","iso2":"NP","iso3":"NPL","admin_name":"","capital":"","population":17491},{"city":"Puerto Rico","city_ascii":"Puerto Rico","lat":-26.8,"lng":-55.0167,"country":"Argentina","iso2":"AR","iso3":"ARG","admin_name":"Misiones","capital":"minor","population":17491},{"city":"Stockach","city_ascii":"Stockach","lat":47.8514,"lng":9.0114,"country":"Germany","iso2":"DE","iso3":"DEU","admin_name":"Baden-Württemberg","capital":"","population":17490},{"city":"Scott","city_ascii":"Scott","lat":40.3875,"lng":-80.0791,"country":"United States","iso2":"US","iso3":"USA","admin_name":"Pennsylvania","capital":"","population":17489},{"city":"Coalinga","city_ascii":"Coalinga","lat":36.142,"lng":-120.3242,"country":"United States","iso2":"US","iso3":"USA","admin_name":"California","capital":"","population":17488},{"city":"Nümbrecht","city_ascii":"Numbrecht","lat":50.9053,"lng":7.5422,"country":"Germany","iso2":"DE","iso3":"DEU","admin_name":"North Rhine-Westphalia","capital":"","population":17486},{"city":"Biyahmū","city_ascii":"Biyahmu","lat":29.3675,"lng":30.8528,"country":"Egypt","iso2":"EG","iso3":"EGY","admin_name":"Al Fayyūm","capital":"","population":17486},{"city":"Ciudad Hidalgo","city_ascii":"Ciudad Hidalgo","lat":14.6792,"lng":-92.1497,"country":"Mexico","iso2":"MX","iso3":"MEX","admin_name":"Chiapas","capital":"minor","population":17485},{"city":"Karukh","city_ascii":"Karukh","lat":34.4922,"lng":62.5922,"country":"Afghanistan","iso2":"AF","iso3":"AFG","admin_name":"Herāt","capital":"minor","population":17484},{"city":"Augustinópolis","city_ascii":"Augustinopolis","lat":-5.4658,"lng":-47.8878,"country":"Brazil","iso2":"BR","iso3":"BRA","admin_name":"Tocantins","capital":"minor","population":17484},{"city":"Zhoujia","city_ascii":"Zhoujia","lat":35.2976,"lng":108.0347,"country":"China","iso2":"CN","iso3":"CHN","admin_name":"Gansu","capital":"","population":17484},{"city":"Bhucho Mandi","city_ascii":"Bhucho Mandi","lat":30.2129,"lng":75.0969,"country":"India","iso2":"IN","iso3":"IND","admin_name":"Punjab","capital":"","population":17484},{"city":"Ambatolahy","city_ascii":"Ambatolahy","lat":-20,"lng":45.5333,"country":"Madagascar","iso2":"MG","iso3":"MDG","admin_name":"Toliara","capital":"","population":17482},{"city":"Villa Sarmiento","city_ascii":"Villa Sarmiento","lat":-34.6333,"lng":-58.5667,"country":"Argentina","iso2":"AR","iso3":"ARG","admin_name":"Buenos Aires","capital":"","population":17481},{"city":"Croatá","city_ascii":"Croata","lat":-4.4,"lng":-40.9108,"country":"Brazil","iso2":"BR","iso3":"BRA","admin_name":"Ceará","capital":"minor","population":17481},{"city":"Pajapan","city_ascii":"Pajapan","lat":18.2667,"lng":-94.6833,"country":"Mexico","iso2":"MX","iso3":"MEX","admin_name":"Veracruz","capital":"minor","population":17480},{"city":"Budva","city_ascii":"Budva","lat":42.2881,"lng":18.8425,"country":"Montenegro","iso2":"ME","iso3":"MNE","admin_name":"Budva","capital":"admin","population":17479},{"city":"Kushk","city_ascii":"Kushk","lat":33.2956,"lng":61.9522,"country":"Afghanistan","iso2":"AF","iso3":"AFG","admin_name":"Herāt","capital":"","population":17479},{"city":"Urucuia","city_ascii":"Urucuia","lat":-16.1308,"lng":-45.7425,"country":"Brazil","iso2":"BR","iso3":"BRA","admin_name":"Minas Gerais","capital":"","population":17479},{"city":"Shin-Kamigotō","city_ascii":"Shin-Kamigoto","lat":32.9844,"lng":129.0733,"country":"Japan","iso2":"JP","iso3":"JPN","admin_name":"Nagasaki","capital":"","population":17479},{"city":"South Ogden","city_ascii":"South Ogden","lat":41.1722,"lng":-111.9576,"country":"United States","iso2":"US","iso3":"USA","admin_name":"Utah","capital":"","population":17476},{"city":"El Reno","city_ascii":"El Reno","lat":35.5429,"lng":-97.966,"country":"United States","iso2":"US","iso3":"USA","admin_name":"Oklahoma","capital":"","population":17474},{"city":"Fairview","city_ascii":"Fairview","lat":40.1735,"lng":-76.8655,"country":"United States","iso2":"US","iso3":"USA","admin_name":"Pennsylvania","capital":"","population":17474},{"city":"Tepatlaxco","city_ascii":"Tepatlaxco","lat":19.0667,"lng":-97.9667,"country":"Mexico","iso2":"MX","iso3":"MEX","admin_name":"Puebla","capital":"minor","population":17472},{"city":"Dharampuri","city_ascii":"Dharampuri","lat":22.1495,"lng":75.3444,"country":"India","iso2":"IN","iso3":"IND","admin_name":"Madhya Pradesh","capital":"","population":17472},{"city":"Umirim","city_ascii":"Umirim","lat":-3.6833,"lng":-39.3333,"country":"Brazil","iso2":"BR","iso3":"BRA","admin_name":"Ceará","capital":"minor","population":17470},{"city":"Corbélia","city_ascii":"Corbelia","lat":-24.8,"lng":-53.3,"country":"Brazil","iso2":"BR","iso3":"BRA","admin_name":"Paraná","capital":"","population":17470},{"city":"Vallières","city_ascii":"Vallieres","lat":19.4333,"lng":-71.9167,"country":"Haiti","iso2":"HT","iso3":"HTI","admin_name":"Nord-Est","capital":"","population":17470},{"city":"Anantāvūr","city_ascii":"Anantavur","lat":10.8925,"lng":75.9983,"country":"India","iso2":"IN","iso3":"IND","admin_name":"Kerala","capital":"","population":17470},{"city":"Saluzzo","city_ascii":"Saluzzo","lat":44.65,"lng":7.4833,"country":"Italy","iso2":"IT","iso3":"ITA","admin_name":"Piedmont","capital":"","population":17470},{"city":"Pocinhos","city_ascii":"Pocinhos","lat":-7.0769,"lng":-36.0608,"country":"Brazil","iso2":"BR","iso3":"BRA","admin_name":"Paraíba","capital":"minor","population":17469},{"city":"South Venice","city_ascii":"South Venice","lat":27.0444,"lng":-82.4155,"country":"United States","iso2":"US","iso3":"USA","admin_name":"Florida","capital":"","population":17469},{"city":"Phayao","city_ascii":"Phayao","lat":19.1653,"lng":99.9036,"country":"Thailand","iso2":"TH","iso3":"THA","admin_name":"Phayao","capital":"admin","population":17467},{"city":"Cafarnaum","city_ascii":"Cafarnaum","lat":-11.7,"lng":-41.4667,"country":"Brazil","iso2":"BR","iso3":"BRA","admin_name":"Bahia","capital":"","population":17466},{"city":"Samaná","city_ascii":"Samana","lat":5.5833,"lng":-74.9167,"country":"Colombia","iso2":"CO","iso3":"COL","admin_name":"Caldas","capital":"minor","population":17466},{"city":"Talitay","city_ascii":"Talitay","lat":7.0353,"lng":124.3758,"country":"Philippines","iso2":"PH","iso3":"PHL","admin_name":"Maguindanao","capital":"","population":17463},{"city":"Vladimirci","city_ascii":"Vladimirci","lat":44.6167,"lng":19.7833,"country":"Serbia","iso2":"RS","iso3":"SRB","admin_name":"Vladimirci","capital":"admin","population":17462},{"city":"Cruz do Espírito Santo","city_ascii":"Cruz do Espirito Santo","lat":-7.1333,"lng":-35.1,"country":"Brazil","iso2":"BR","iso3":"BRA","admin_name":"Paraíba","capital":"minor","population":17461},{"city":"Bluffdale","city_ascii":"Bluffdale","lat":40.4744,"lng":-111.9381,"country":"United States","iso2":"US","iso3":"USA","admin_name":"Utah","capital":"","population":17460},{"city":"Gainesville","city_ascii":"Gainesville","lat":33.639,"lng":-97.1487,"country":"United States","iso2":"US","iso3":"USA","admin_name":"Texas","capital":"","population":17459},{"city":"West Columbia","city_ascii":"West Columbia","lat":33.9932,"lng":-81.0936,"country":"United States","iso2":"US","iso3":"USA","admin_name":"South Carolina","capital":"","population":17459},{"city":"Guanagazapa","city_ascii":"Guanagazapa","lat":14.2333,"lng":-90.65,"country":"Guatemala","iso2":"GT","iso3":"GTM","admin_name":"Escuintla","capital":"minor","population":17458},{"city":"Gautampura","city_ascii":"Gautampura","lat":22.9866,"lng":75.5192,"country":"India","iso2":"IN","iso3":"IND","admin_name":"Madhya Pradesh","capital":"","population":17457},{"city":"Morganton","city_ascii":"Morganton","lat":35.7408,"lng":-81.7002,"country":"United States","iso2":"US","iso3":"USA","admin_name":"North Carolina","capital":"","population":17457},{"city":"Karkamb","city_ascii":"Karkamb","lat":17.863,"lng":75.2981,"country":"India","iso2":"IN","iso3":"IND","admin_name":"Mahārāshtra","capital":"","population":17456},{"city":"Faléa","city_ascii":"Falea","lat":12.2647,"lng":-11.275,"country":"Mali","iso2":"ML","iso3":"MLI","admin_name":"Kayes","capital":"","population":17455},{"city":"Marche-en-Famenne","city_ascii":"Marche-en-Famenne","lat":50.2167,"lng":5.3333,"country":"Belgium","iso2":"BE","iso3":"BEL","admin_name":"Wallonia","capital":"minor","population":17455},{"city":"Kiyama","city_ascii":"Kiyama","lat":33.4333,"lng":130.5167,"country":"Japan","iso2":"JP","iso3":"JPN","admin_name":"Fukuoka","capital":"","population":17455},{"city":"Dar Chaifat","city_ascii":"Dar Chaifat","lat":32.55,"lng":-7.5,"country":"Morocco","iso2":"MA","iso3":"MAR","admin_name":"Casablanca-Settat","capital":"","population":17454},{"city":"Veternik","city_ascii":"Veternik","lat":45.2533,"lng":19.7608,"country":"Serbia","iso2":"RS","iso3":"SRB","admin_name":"","capital":"","population":17454},{"city":"Chamalières","city_ascii":"Chamalieres","lat":45.7744,"lng":3.0678,"country":"France","iso2":"FR","iso3":"FRA","admin_name":"Auvergne-Rhône-Alpes","capital":"","population":17454},{"city":"Sibutao","city_ascii":"Sibutao","lat":8.6131,"lng":123.4797,"country":"Philippines","iso2":"PH","iso3":"PHL","admin_name":"Zamboanga del Norte","capital":"","population":17453},{"city":"Māndvi","city_ascii":"Mandvi","lat":21.15,"lng":73.18,"country":"India","iso2":"IN","iso3":"IND","admin_name":"Gujarāt","capital":"","population":17453},{"city":"Puurs","city_ascii":"Puurs","lat":51.0761,"lng":4.2803,"country":"Belgium","iso2":"BE","iso3":"BEL","admin_name":"Flanders","capital":"","population":17452},{"city":"Los Lunas","city_ascii":"Los Lunas","lat":34.8115,"lng":-106.7803,"country":"United States","iso2":"US","iso3":"USA","admin_name":"New Mexico","capital":"","population":17452},{"city":"Laguna Woods","city_ascii":"Laguna Woods","lat":33.6099,"lng":-117.7299,"country":"United States","iso2":"US","iso3":"USA","admin_name":"California","capital":"","population":17452},{"city":"Bon Air","city_ascii":"Bon Air","lat":37.5187,"lng":-77.5713,"country":"United States","iso2":"US","iso3":"USA","admin_name":"Virginia","capital":"","population":17452},{"city":"Tasquillo","city_ascii":"Tasquillo","lat":20.6167,"lng":-99.25,"country":"Mexico","iso2":"MX","iso3":"MEX","admin_name":"Hidalgo","capital":"","population":17451},{"city":"Krasnokumskoye","city_ascii":"Krasnokumskoye","lat":44.1778,"lng":43.5,"country":"Russia","iso2":"RU","iso3":"RUS","admin_name":"Stavropol’skiy Kray","capital":"","population":17451},{"city":"Rojales","city_ascii":"Rojales","lat":38.0833,"lng":-0.7167,"country":"Spain","iso2":"ES","iso3":"ESP","admin_name":"Valencia","capital":"","population":17451},{"city":"Suvorov","city_ascii":"Suvorov","lat":54.15,"lng":36.55,"country":"Russia","iso2":"RU","iso3":"RUS","admin_name":"Tul’skaya Oblast’","capital":"minor","population":17450},{"city":"Woodhouse","city_ascii":"Woodhouse","lat":53.358,"lng":-1.373,"country":"United Kingdom","iso2":"GB","iso3":"GBR","admin_name":"Sheffield","capital":"","population":17450},{"city":"Karachev","city_ascii":"Karachev","lat":53.1167,"lng":34.9667,"country":"Russia","iso2":"RU","iso3":"RUS","admin_name":"Bryanskaya Oblast’","capital":"minor","population":17449},{"city":"Albino","city_ascii":"Albino","lat":45.7606,"lng":9.7969,"country":"Italy","iso2":"IT","iso3":"ITA","admin_name":"Lombardy","capital":"","population":17449},{"city":"Royston","city_ascii":"Royston","lat":52.0471,"lng":-0.0202,"country":"United Kingdom","iso2":"GB","iso3":"GBR","admin_name":"Hertfordshire","capital":"","population":17448},{"city":"Peçanha","city_ascii":"Pecanha","lat":-18.5489,"lng":-42.5569,"country":"Brazil","iso2":"BR","iso3":"BRA","admin_name":"Minas Gerais","capital":"","population":17446},{"city":"Abdullahnagar","city_ascii":"Abdullahnagar","lat":25.7683,"lng":87.5557,"country":"India","iso2":"IN","iso3":"IND","admin_name":"Bihār","capital":"","population":17446},{"city":"Rio Pomba","city_ascii":"Rio Pomba","lat":-21.2667,"lng":-43.1667,"country":"Brazil","iso2":"BR","iso3":"BRA","admin_name":"Minas Gerais","capital":"","population":17443},{"city":"Tabernes de Valldigna","city_ascii":"Tabernes de Valldigna","lat":39.0722,"lng":-0.2658,"country":"Spain","iso2":"ES","iso3":"ESP","admin_name":"Valencia","capital":"","population":17443},{"city":"Nedugula","city_ascii":"Nedugula","lat":11.4764,"lng":76.8904,"country":"India","iso2":"IN","iso3":"IND","admin_name":"Tamil Nādu","capital":"","population":17442},{"city":"Lakhnaur","city_ascii":"Lakhnaur","lat":26.202,"lng":86.309,"country":"India","iso2":"IN","iso3":"IND","admin_name":"Bihār","capital":"","population":17442},{"city":"Rozdilna","city_ascii":"Rozdilna","lat":46.8486,"lng":30.0792,"country":"Ukraine","iso2":"UA","iso3":"UKR","admin_name":"Odeska Oblast","capital":"minor","population":17441},{"city":"Puerto Aysén","city_ascii":"Puerto Aysen","lat":-45.4,"lng":-72.6833,"country":"Chile","iso2":"CL","iso3":"CHL","admin_name":"Aysén","capital":"minor","population":17441},{"city":"Pātan","city_ascii":"Patan","lat":23.2864,"lng":79.6896,"country":"India","iso2":"IN","iso3":"IND","admin_name":"Madhya Pradesh","capital":"","population":17441},{"city":"Brielle","city_ascii":"Brielle","lat":51.9,"lng":4.1667,"country":"Netherlands","iso2":"NL","iso3":"NLD","admin_name":"Zuid-Holland","capital":"minor","population":17439},{"city":"Nova Era","city_ascii":"Nova Era","lat":-19.75,"lng":-43.0378,"country":"Brazil","iso2":"BR","iso3":"BRA","admin_name":"Minas Gerais","capital":"","population":17438},{"city":"Nīsang","city_ascii":"Nisang","lat":29.69,"lng":76.75,"country":"India","iso2":"IN","iso3":"IND","admin_name":"Haryāna","capital":"","population":17438},{"city":"Lubang","city_ascii":"Lubang","lat":13.8586,"lng":120.1228,"country":"Philippines","iso2":"PH","iso3":"PHL","admin_name":"Occidental Mindoro","capital":"","population":17437},{"city":"Montemor-o-Novo","city_ascii":"Montemor-o-Novo","lat":38.65,"lng":-8.2167,"country":"Portugal","iso2":"PT","iso3":"PRT","admin_name":"Évora","capital":"minor","population":17437},{"city":"Sinzig","city_ascii":"Sinzig","lat":50.5453,"lng":7.2519,"country":"Germany","iso2":"DE","iso3":"DEU","admin_name":"Rhineland-Palatinate","capital":"","population":17437},{"city":"Reota","city_ascii":"Reota","lat":25.8194,"lng":86.3061,"country":"India","iso2":"IN","iso3":"IND","admin_name":"Bihār","capital":"","population":17437},{"city":"Forio","city_ascii":"Forio","lat":40.7333,"lng":13.85,"country":"Italy","iso2":"IT","iso3":"ITA","admin_name":"Campania","capital":"","population":17437},{"city":"Bramhall","city_ascii":"Bramhall","lat":53.357,"lng":-2.164,"country":"United Kingdom","iso2":"GB","iso3":"GBR","admin_name":"Stockport","capital":"","population":17436},{"city":"Mehrān","city_ascii":"Mehran","lat":33.1208,"lng":46.1642,"country":"Iran","iso2":"IR","iso3":"IRN","admin_name":"Īlām","capital":"minor","population":17435},{"city":"Kahoku","city_ascii":"Kahoku","lat":38.4264,"lng":140.3144,"country":"Japan","iso2":"JP","iso3":"JPN","admin_name":"Yamagata","capital":"","population":17435},{"city":"Derhachi","city_ascii":"Derhachi","lat":50.1114,"lng":36.1219,"country":"Ukraine","iso2":"UA","iso3":"UKR","admin_name":"Kharkivska Oblast","capital":"","population":17433},{"city":"Seoni Chhapāra","city_ascii":"Seoni Chhapara","lat":22.3939,"lng":79.5424,"country":"India","iso2":"IN","iso3":"IND","admin_name":"Madhya Pradesh","capital":"","population":17429},{"city":"Totutla","city_ascii":"Totutla","lat":19.2167,"lng":-96.9667,"country":"Mexico","iso2":"MX","iso3":"MEX","admin_name":"Veracruz","capital":"minor","population":17428},{"city":"Remagen","city_ascii":"Remagen","lat":50.5786,"lng":7.2306,"country":"Germany","iso2":"DE","iso3":"DEU","admin_name":"Rhineland-Palatinate","capital":"","population":17426},{"city":"Pescantina","city_ascii":"Pescantina","lat":45.4833,"lng":10.8667,"country":"Italy","iso2":"IT","iso3":"ITA","admin_name":"Veneto","capital":"","population":17425},{"city":"Anosiarivo","city_ascii":"Anosiarivo","lat":-19.9167,"lng":47.0333,"country":"Madagascar","iso2":"MG","iso3":"MDG","admin_name":"Antananarivo","capital":"","population":17423},{"city":"Guaranda","city_ascii":"Guaranda","lat":8.4672,"lng":-74.5367,"country":"Colombia","iso2":"CO","iso3":"COL","admin_name":"Sucre","capital":"minor","population":17422},{"city":"Santa Lucía Milpas Altas","city_ascii":"Santa Lucia Milpas Altas","lat":14.5833,"lng":-90.6833,"country":"Guatemala","iso2":"GT","iso3":"GTM","admin_name":"Sacatepéquez","capital":"minor","population":17422},{"city":"Nahāzāri","city_ascii":"Nahazari","lat":22.4347,"lng":88.2487,"country":"India","iso2":"IN","iso3":"IND","admin_name":"West Bengal","capital":"","population":17422},{"city":"Cham","city_ascii":"Cham","lat":49.2167,"lng":12.65,"country":"Germany","iso2":"DE","iso3":"DEU","admin_name":"Bavaria","capital":"minor","population":17421},{"city":"Kolokondé","city_ascii":"Kolokonde","lat":9.9,"lng":1.7667,"country":"Benin","iso2":"BJ","iso3":"BEN","admin_name":"Donga","capital":"","population":17419},{"city":"Camocim de São Félix","city_ascii":"Camocim de Sao Felix","lat":-8.35,"lng":-35.7667,"country":"Brazil","iso2":"BR","iso3":"BRA","admin_name":"Pernambuco","capital":"minor","population":17419},{"city":"Zaslawye","city_ascii":"Zaslawye","lat":54.0083,"lng":27.2847,"country":"Belarus","iso2":"BY","iso3":"BLR","admin_name":"Minskaya Voblasts’","capital":"","population":17419},{"city":"Loboc","city_ascii":"Loboc","lat":9.63,"lng":124.03,"country":"Philippines","iso2":"PH","iso3":"PHL","admin_name":"Bohol","capital":"","population":17418},{"city":"Osuna","city_ascii":"Osuna","lat":37.2333,"lng":-5.1,"country":"Spain","iso2":"ES","iso3":"ESP","admin_name":"Andalusia","capital":"","population":17418},{"city":"Bahon","city_ascii":"Bahon","lat":19.4696,"lng":-72.1147,"country":"Haiti","iso2":"HT","iso3":"HTI","admin_name":"Nord","capital":"","population":17417},{"city":"Olivehurst","city_ascii":"Olivehurst","lat":39.0795,"lng":-121.5566,"country":"United States","iso2":"US","iso3":"USA","admin_name":"California","capital":"","population":17416},{"city":"Conyers","city_ascii":"Conyers","lat":33.6646,"lng":-83.9966,"country":"United States","iso2":"US","iso3":"USA","admin_name":"Georgia","capital":"","population":17415},{"city":"Viradouro","city_ascii":"Viradouro","lat":-20.8731,"lng":-48.2969,"country":"Brazil","iso2":"BR","iso3":"BRA","admin_name":"São Paulo","capital":"","population":17414},{"city":"Murray","city_ascii":"Murray","lat":36.6146,"lng":-88.3207,"country":"United States","iso2":"US","iso3":"USA","admin_name":"Kentucky","capital":"","population":17414},{"city":"New Castle","city_ascii":"New Castle","lat":39.9191,"lng":-85.3697,"country":"United States","iso2":"US","iso3":"USA","admin_name":"Indiana","capital":"","population":17413},{"city":"San Isidro","city_ascii":"San Isidro","lat":12.9319,"lng":-86.1953,"country":"Nicaragua","iso2":"NI","iso3":"NIC","admin_name":"Matagalpa","capital":"minor","population":17412},{"city":"Colón","city_ascii":"Colon","lat":9.9096,"lng":-84.262,"country":"Costa Rica","iso2":"CR","iso3":"CRI","admin_name":"San José","capital":"","population":17411},{"city":"Calayan","city_ascii":"Calayan","lat":19.2619,"lng":121.4753,"country":"Philippines","iso2":"PH","iso3":"PHL","admin_name":"Cagayan","capital":"","population":17410},{"city":"Awlouz","city_ascii":"Awlouz","lat":30.7,"lng":-8.15,"country":"Morocco","iso2":"MA","iso3":"MAR","admin_name":"Souss-Massa","capital":"","population":17409},{"city":"Babenhausen","city_ascii":"Babenhausen","lat":49.9667,"lng":8.95,"country":"Germany","iso2":"DE","iso3":"DEU","admin_name":"Hesse","capital":"","population":17409},{"city":"Karahia","city_ascii":"Karahia","lat":26.4054,"lng":86.149,"country":"India","iso2":"IN","iso3":"IND","admin_name":"Bihār","capital":"","population":17409},{"city":"Isola Capo Rizzuto","city_ascii":"Isola Capo Rizzuto","lat":38.9589,"lng":17.0956,"country":"Italy","iso2":"IT","iso3":"ITA","admin_name":"Calabria","capital":"","population":17409},{"city":"Buckingham","city_ascii":"Buckingham","lat":45.5889,"lng":-75.4164,"country":"Canada","iso2":"CA","iso3":"CAN","admin_name":"Quebec","capital":"","population":17407},{"city":"Ummannūr","city_ascii":"Ummannur","lat":8.95,"lng":76.7833,"country":"India","iso2":"IN","iso3":"IND","admin_name":"Kerala","capital":"","population":17406},{"city":"Namminikara","city_ascii":"Namminikara","lat":10.4392,"lng":76.268,"country":"India","iso2":"IN","iso3":"IND","admin_name":"Kerala","capital":"","population":17406},{"city":"Jhagarua","city_ascii":"Jhagarua","lat":26.0059,"lng":86.3496,"country":"India","iso2":"IN","iso3":"IND","admin_name":"Bihār","capital":"","population":17406},{"city":"Beinasco","city_ascii":"Beinasco","lat":45.0167,"lng":7.5833,"country":"Italy","iso2":"IT","iso3":"ITA","admin_name":"Piedmont","capital":"","population":17406},{"city":"Fraserpet","city_ascii":"Fraserpet","lat":12.4587,"lng":75.9605,"country":"India","iso2":"IN","iso3":"IND","admin_name":"Karnātaka","capital":"","population":17405},{"city":"Borda da Mata","city_ascii":"Borda da Mata","lat":-22.2739,"lng":-46.165,"country":"Brazil","iso2":"BR","iso3":"BRA","admin_name":"Minas Gerais","capital":"","population":17404},{"city":"Douétiré","city_ascii":"Douetire","lat":16.5736,"lng":-3.3719,"country":"Mali","iso2":"ML","iso3":"MLI","admin_name":"Tombouctou","capital":"","population":17401},{"city":"Rio Claro","city_ascii":"Rio Claro","lat":-22.7228,"lng":-44.1358,"country":"Brazil","iso2":"BR","iso3":"BRA","admin_name":"Rio de Janeiro","capital":"","population":17401},{"city":"Yutz","city_ascii":"Yutz","lat":49.3594,"lng":6.1892,"country":"France","iso2":"FR","iso3":"FRA","admin_name":"Grand Est","capital":"","population":17401},{"city":"Odaipatti","city_ascii":"Odaipatti","lat":9.8323,"lng":77.4433,"country":"India","iso2":"IN","iso3":"IND","admin_name":"Tamil Nādu","capital":"","population":17401},{"city":"Międzyrzecz","city_ascii":"Miedzyrzecz","lat":52.4483,"lng":15.5883,"country":"Poland","iso2":"PL","iso3":"POL","admin_name":"Lubuskie","capital":"minor","population":17400},{"city":"Bolhrad","city_ascii":"Bolhrad","lat":45.6672,"lng":28.6128,"country":"Ukraine","iso2":"UA","iso3":"UKR","admin_name":"Odeska Oblast","capital":"minor","population":17400},{"city":"Jomboy Shahri","city_ascii":"Jomboy Shahri","lat":39.6989,"lng":67.0933,"country":"Uzbekistan","iso2":"UZ","iso3":"UZB","admin_name":"Samarqand","capital":"minor","population":17400},{"city":"Bry-sur-Marne","city_ascii":"Bry-sur-Marne","lat":48.8411,"lng":2.5222,"country":"France","iso2":"FR","iso3":"FRA","admin_name":"Île-de-France","capital":"","population":17400},{"city":"Mārtahalli","city_ascii":"Martahalli","lat":11.9919,"lng":77.4972,"country":"India","iso2":"IN","iso3":"IND","admin_name":"Karnātaka","capital":"","population":17400},{"city":"Wahiawa","city_ascii":"Wahiawa","lat":21.5012,"lng":-158.0178,"country":"United States","iso2":"US","iso3":"USA","admin_name":"Hawaii","capital":"","population":17400},{"city":"Bhagabānpur","city_ascii":"Bhagabanpur","lat":24.7765,"lng":88.0217,"country":"India","iso2":"IN","iso3":"IND","admin_name":"West Bengal","capital":"","population":17397},{"city":"Kawa","city_ascii":"Kawa","lat":17.0897,"lng":96.4663,"country":"Burma","iso2":"MM","iso3":"MMR","admin_name":"Bago","capital":"","population":17396},{"city":"Curti","city_ascii":"Curti","lat":15.4167,"lng":74.0167,"country":"India","iso2":"IN","iso3":"IND","admin_name":"Goa","capital":"","population":17396},{"city":"Ziracuaretiro","city_ascii":"Ziracuaretiro","lat":19.4333,"lng":-101.9167,"country":"Mexico","iso2":"MX","iso3":"MEX","admin_name":"Michoacán","capital":"","population":17394},{"city":"Pyskowice","city_ascii":"Pyskowice","lat":50.3833,"lng":18.6167,"country":"Poland","iso2":"PL","iso3":"POL","admin_name":"Śląskie","capital":"","population":17394},{"city":"São Domingos do Prata","city_ascii":"Sao Domingos do Prata","lat":-19.865,"lng":-42.9678,"country":"Brazil","iso2":"BR","iso3":"BRA","admin_name":"Minas Gerais","capital":"","population":17392},{"city":"Abelardo Luz","city_ascii":"Abelardo Luz","lat":-26.5647,"lng":-52.3283,"country":"Brazil","iso2":"BR","iso3":"BRA","admin_name":"Santa Catarina","capital":"","population":17392},{"city":"Wilton","city_ascii":"Wilton","lat":43.1502,"lng":-73.7276,"country":"United States","iso2":"US","iso3":"USA","admin_name":"New York","capital":"","population":17391},{"city":"Çat","city_ascii":"Cat","lat":39.6111,"lng":40.9789,"country":"Turkey","iso2":"TR","iso3":"TUR","admin_name":"Erzurum","capital":"minor","population":17389},{"city":"Banni","city_ascii":"Banni","lat":25.4692,"lng":86.6068,"country":"India","iso2":"IN","iso3":"IND","admin_name":"Bihār","capital":"","population":17387},{"city":"Plungė","city_ascii":"Plunge","lat":55.9167,"lng":21.85,"country":"Lithuania","iso2":"LT","iso3":"LTU","admin_name":"Plungė","capital":"admin","population":17385},{"city":"Mareth","city_ascii":"Mareth","lat":33.6333,"lng":10.3,"country":"Tunisia","iso2":"TN","iso3":"TUN","admin_name":"Gabès","capital":"","population":17385},{"city":"Balma","city_ascii":"Balma","lat":43.6111,"lng":1.4994,"country":"France","iso2":"FR","iso3":"FRA","admin_name":"Occitanie","capital":"","population":17385},{"city":"Central Saanich","city_ascii":"Central Saanich","lat":48.5142,"lng":-123.3839,"country":"Canada","iso2":"CA","iso3":"CAN","admin_name":"British Columbia","capital":"","population":17385},{"city":"Solrød Strand","city_ascii":"Solrod Strand","lat":55.5167,"lng":12.2167,"country":"Denmark","iso2":"DK","iso3":"DNK","admin_name":"Sjælland","capital":"minor","population":17382},{"city":"Villanueva del Pardillo","city_ascii":"Villanueva del Pardillo","lat":40.4833,"lng":-3.9667,"country":"Spain","iso2":"ES","iso3":"ESP","admin_name":"Madrid","capital":"","population":17382},{"city":"Mula","city_ascii":"Mula","lat":38.0419,"lng":-1.4906,"country":"Spain","iso2":"ES","iso3":"ESP","admin_name":"Murcia","capital":"","population":17382},{"city":"Louth","city_ascii":"Louth","lat":53.3669,"lng":-0.0061,"country":"United Kingdom","iso2":"GB","iso3":"GBR","admin_name":"Lincolnshire","capital":"","population":17382},{"city":"Néa Erythraía","city_ascii":"Nea Erythraia","lat":38.0833,"lng":23.8167,"country":"Greece","iso2":"GR","iso3":"GRC","admin_name":"Attikí","capital":"","population":17379},{"city":"Kurugodu","city_ascii":"Kurugodu","lat":15.346,"lng":76.836,"country":"India","iso2":"IN","iso3":"IND","admin_name":"Karnātaka","capital":"","population":17379},{"city":"Santa Maria di Sala","city_ascii":"Santa Maria di Sala","lat":45.5,"lng":12.0333,"country":"Italy","iso2":"IT","iso3":"ITA","admin_name":"Veneto","capital":"","population":17378},{"city":"Streetsboro","city_ascii":"Streetsboro","lat":41.2396,"lng":-81.3456,"country":"United States","iso2":"US","iso3":"USA","admin_name":"Ohio","capital":"","population":17378},{"city":"Woodcrest","city_ascii":"Woodcrest","lat":33.8789,"lng":-117.3687,"country":"United States","iso2":"US","iso3":"USA","admin_name":"California","capital":"","population":17378},{"city":"Wangaratta","city_ascii":"Wangaratta","lat":-36.3583,"lng":146.3125,"country":"Australia","iso2":"AU","iso3":"AUS","admin_name":"Victoria","capital":"","population":17377},{"city":"Gunjāpalle","city_ascii":"Gunjapalle","lat":14.3845,"lng":77.9495,"country":"India","iso2":"IN","iso3":"IND","admin_name":"Andhra Pradesh","capital":"","population":17376},{"city":"Kelsterbach","city_ascii":"Kelsterbach","lat":50.0617,"lng":8.5311,"country":"Germany","iso2":"DE","iso3":"DEU","admin_name":"Hesse","capital":"","population":17375},{"city":"Nizhnyaya Salda","city_ascii":"Nizhnyaya Salda","lat":58.0667,"lng":60.7167,"country":"Russia","iso2":"RU","iso3":"RUS","admin_name":"Sverdlovskaya Oblast’","capital":"","population":17373},{"city":"Ban Song","city_ascii":"Ban Song","lat":8.6603,"lng":99.3768,"country":"Thailand","iso2":"TH","iso3":"THA","admin_name":"Surat Thani","capital":"","population":17373},{"city":"Arpaçay","city_ascii":"Arpacay","lat":40.8483,"lng":43.3317,"country":"Turkey","iso2":"TR","iso3":"TUR","admin_name":"Kars","capital":"minor","population":17373},{"city":"Raychikhinsk","city_ascii":"Raychikhinsk","lat":49.7833,"lng":129.4167,"country":"Russia","iso2":"RU","iso3":"RUS","admin_name":"Amurskaya Oblast’","capital":"","population":17372},{"city":"Paoua","city_ascii":"Paoua","lat":7.25,"lng":16.4333,"country":"Central African Republic","iso2":"CF","iso3":"CAF","admin_name":"Ouham-Pendé","capital":"","population":17370},{"city":"Holmdel","city_ascii":"Holmdel","lat":40.3768,"lng":-74.1725,"country":"United States","iso2":"US","iso3":"USA","admin_name":"New Jersey","capital":"","population":17369},{"city":"Lalībela","city_ascii":"Lalibela","lat":12.0317,"lng":39.0411,"country":"Ethiopia","iso2":"ET","iso3":"ETH","admin_name":"Āmara","capital":"","population":17367},{"city":"Mujikharf","city_ascii":"Mujikharf","lat":38.85,"lng":69.8833,"country":"Tajikistan","iso2":"TJ","iso3":"TJK","admin_name":"Nohiyahoi Tobei Jumhurí","capital":"","population":17366},{"city":"Barhan","city_ascii":"Barhan","lat":27.3299,"lng":78.1896,"country":"India","iso2":"IN","iso3":"IND","admin_name":"Uttar Pradesh","capital":"","population":17365},{"city":"Sānwer","city_ascii":"Sanwer","lat":22.9742,"lng":75.8271,"country":"India","iso2":"IN","iso3":"IND","admin_name":"Madhya Pradesh","capital":"","population":17365},{"city":"Ayacucho","city_ascii":"Ayacucho","lat":-37.1333,"lng":-58.4667,"country":"Argentina","iso2":"AR","iso3":"ARG","admin_name":"Buenos Aires","capital":"minor","population":17364},