[{"city":"Burnham","city_ascii":"Burnham","lat":51.54,"lng":-0.66,"country":"United Kingdom","iso2":"GB","iso3":"GBR","admin_name":"Buckinghamshire","capital":"","population":11630},{"city":"Ermenek","city_ascii":"Ermenek","lat":36.6389,"lng":32.8925,"country":"Turkey","iso2":"TR","iso3":"TUR","admin_name":"Karaman","capital":"minor","population":11629},{"city":"Dammapeta","city_ascii":"Dammapeta","lat":17.2667,"lng":81.0167,"country":"India","iso2":"IN","iso3":"IND","admin_name":"Telangāna","capital":"","population":11629},{"city":"Weiz","city_ascii":"Weiz","lat":47.2169,"lng":15.6331,"country":"Austria","iso2":"AT","iso3":"AUT","admin_name":"Steiermark","capital":"minor","population":11627},{"city":"Pongode","city_ascii":"Pongode","lat":16.9246,"lng":79.7343,"country":"India","iso2":"IN","iso3":"IND","admin_name":"Telangāna","capital":"","population":11626},{"city":"Chebrolu","city_ascii":"Chebrolu","lat":16.1967,"lng":80.525,"country":"India","iso2":"IN","iso3":"IND","admin_name":"Andhra Pradesh","capital":"","population":11626},{"city":"Kallakkudi","city_ascii":"Kallakkudi","lat":10.9767,"lng":78.9525,"country":"India","iso2":"IN","iso3":"IND","admin_name":"Tamil Nādu","capital":"","population":11625},{"city":"Pepperell","city_ascii":"Pepperell","lat":42.6713,"lng":-71.6043,"country":"United States","iso2":"US","iso3":"USA","admin_name":"Massachusetts","capital":"","population":11625},{"city":"Lakeville","city_ascii":"Lakeville","lat":41.831,"lng":-70.9594,"country":"United States","iso2":"US","iso3":"USA","admin_name":"Massachusetts","capital":"","population":11625},{"city":"Porecatu","city_ascii":"Porecatu","lat":-22.7558,"lng":-51.3789,"country":"Brazil","iso2":"BR","iso3":"BRA","admin_name":"Paraná","capital":"","population":11624},{"city":"Bayou Blue","city_ascii":"Bayou Blue","lat":29.6341,"lng":-90.6733,"country":"United States","iso2":"US","iso3":"USA","admin_name":"Louisiana","capital":"","population":11624},{"city":"Tepetzintla","city_ascii":"Tepetzintla","lat":19.9667,"lng":-97.8333,"country":"Mexico","iso2":"MX","iso3":"MEX","admin_name":"Puebla","capital":"minor","population":11622},{"city":"Ostrhauderfehn","city_ascii":"Ostrhauderfehn","lat":53.1167,"lng":7.6167,"country":"Germany","iso2":"DE","iso3":"DEU","admin_name":"Lower Saxony","capital":"","population":11622},{"city":"Ichinomiya","city_ascii":"Ichinomiya","lat":35.3667,"lng":140.3667,"country":"Japan","iso2":"JP","iso3":"JPN","admin_name":"Chiba","capital":"","population":11622},{"city":"Nawā Nagar Nizāmat","city_ascii":"Nawa Nagar Nizamat","lat":26.2895,"lng":84.9351,"country":"India","iso2":"IN","iso3":"IND","admin_name":"Bihār","capital":"","population":11621},{"city":"Wakefield","city_ascii":"Wakefield","lat":38.823,"lng":-77.2406,"country":"United States","iso2":"US","iso3":"USA","admin_name":"Virginia","capital":"","population":11621},{"city":"Lubaczów","city_ascii":"Lubaczow","lat":50.1667,"lng":23.1167,"country":"Poland","iso2":"PL","iso3":"POL","admin_name":"Podkarpackie","capital":"minor","population":11619},{"city":"Henley on Thames","city_ascii":"Henley on Thames","lat":51.5357,"lng":-0.903,"country":"United Kingdom","iso2":"GB","iso3":"GBR","admin_name":"Oxfordshire","capital":"","population":11619},{"city":"Middle Valley","city_ascii":"Middle Valley","lat":35.1877,"lng":-85.1959,"country":"United States","iso2":"US","iso3":"USA","admin_name":"Tennessee","capital":"","population":11619},{"city":"Lenvik","city_ascii":"Lenvik","lat":69.3836,"lng":17.9675,"country":"Norway","iso2":"NO","iso3":"NOR","admin_name":"Troms og Finnmark","capital":"","population":11618},{"city":"Annappes","city_ascii":"Annappes","lat":50.6264,"lng":3.1506,"country":"France","iso2":"FR","iso3":"FRA","admin_name":"Hauts-de-France","capital":"","population":11618},{"city":"Ban Mae Tuen","city_ascii":"Ban Mae Tuen","lat":18.01,"lng":98.8809,"country":"Thailand","iso2":"TH","iso3":"THA","admin_name":"Lamphun","capital":"","population":11617},{"city":"Māhta","city_ascii":"Mahta","lat":31.6647,"lng":75.2509,"country":"India","iso2":"IN","iso3":"IND","admin_name":"Punjab","capital":"","population":11617},{"city":"Nallūr","city_ascii":"Nallur","lat":14.0871,"lng":75.8778,"country":"India","iso2":"IN","iso3":"IND","admin_name":"Karnātaka","capital":"","population":11617},{"city":"Santa Cruz Itundujia","city_ascii":"Santa Cruz Itundujia","lat":16.8667,"lng":-97.65,"country":"Mexico","iso2":"MX","iso3":"MEX","admin_name":"Oaxaca","capital":"","population":11616},{"city":"Moulay Driss Zerhoun","city_ascii":"Moulay Driss Zerhoun","lat":34.0542,"lng":-5.5272,"country":"Morocco","iso2":"MA","iso3":"MAR","admin_name":"Fès-Meknès","capital":"","population":11615},{"city":"Balaxanı","city_ascii":"Balaxani","lat":40.4617,"lng":49.92,"country":"Azerbaijan","iso2":"AZ","iso3":"AZE","admin_name":"Bakı","capital":"","population":11615},{"city":"Ielmo Marinho","city_ascii":"Ielmo Marinho","lat":-5.8167,"lng":-35.55,"country":"Brazil","iso2":"BR","iso3":"BRA","admin_name":"Rio Grande do Norte","capital":"minor","population":11615},{"city":"Kotra","city_ascii":"Kotra","lat":22.7062,"lng":88.5411,"country":"India","iso2":"IN","iso3":"IND","admin_name":"West Bengal","capital":"","population":11615},{"city":"Summerland","city_ascii":"Summerland","lat":49.6006,"lng":-119.6778,"country":"Canada","iso2":"CA","iso3":"CAN","admin_name":"British Columbia","capital":"","population":11615},{"city":"Mala Vyska","city_ascii":"Mala Vyska","lat":48.65,"lng":31.6333,"country":"Ukraine","iso2":"UA","iso3":"UKR","admin_name":"Kirovohradska Oblast","capital":"minor","population":11614},{"city":"Baghambarpur","city_ascii":"Baghambarpur","lat":26.8075,"lng":84.4059,"country":"India","iso2":"IN","iso3":"IND","admin_name":"Bihār","capital":"","population":11614},{"city":"Saint-Gaudens","city_ascii":"Saint-Gaudens","lat":43.1089,"lng":0.7242,"country":"France","iso2":"FR","iso3":"FRA","admin_name":"Occitanie","capital":"minor","population":11613},{"city":"Manabo","city_ascii":"Manabo","lat":17.43,"lng":120.7,"country":"Philippines","iso2":"PH","iso3":"PHL","admin_name":"Abra","capital":"","population":11611},{"city":"Ibicuitinga","city_ascii":"Ibicuitinga","lat":-4.9833,"lng":-38.65,"country":"Brazil","iso2":"BR","iso3":"BRA","admin_name":"Ceará","capital":"minor","population":11611},{"city":"Xexéu","city_ascii":"Xexeu","lat":-8.8019,"lng":-35.6269,"country":"Brazil","iso2":"BR","iso3":"BRA","admin_name":"Pernambuco","capital":"minor","population":11611},{"city":"Castelló de Ampurias","city_ascii":"Castello de Ampurias","lat":42.2583,"lng":3.075,"country":"Spain","iso2":"ES","iso3":"ESP","admin_name":"Catalonia","capital":"","population":11611},{"city":"Ziyodin Shaharchasi","city_ascii":"Ziyodin Shaharchasi","lat":40.0342,"lng":65.6547,"country":"Uzbekistan","iso2":"UZ","iso3":"UZB","admin_name":"Samarqand","capital":"minor","population":11610},{"city":"Piraúba","city_ascii":"Pirauba","lat":-21.2833,"lng":-43.0333,"country":"Brazil","iso2":"BR","iso3":"BRA","admin_name":"Minas Gerais","capital":"","population":11610},{"city":"Ontario","city_ascii":"Ontario","lat":44.0259,"lng":-116.976,"country":"United States","iso2":"US","iso3":"USA","admin_name":"Oregon","capital":"","population":11610},{"city":"Veyrier","city_ascii":"Veyrier","lat":46.1667,"lng":6.1833,"country":"Switzerland","iso2":"CH","iso3":"CHE","admin_name":"Genève","capital":"","population":11609},{"city":"Rokiškis","city_ascii":"Rokiskis","lat":55.9667,"lng":25.5833,"country":"Lithuania","iso2":"LT","iso3":"LTU","admin_name":"Rokiškis","capital":"admin","population":11606},{"city":"Ambohimahasoa","city_ascii":"Ambohimahasoa","lat":-21.1064,"lng":47.2161,"country":"Madagascar","iso2":"MG","iso3":"MDG","admin_name":"Fianarantsoa","capital":"","population":11606},{"city":"Sint Anthonis","city_ascii":"Sint Anthonis","lat":51.6258,"lng":5.8811,"country":"Netherlands","iso2":"NL","iso3":"NLD","admin_name":"Noord-Brabant","capital":"minor","population":11606},{"city":"Betmangala","city_ascii":"Betmangala","lat":13.0085,"lng":78.3282,"country":"India","iso2":"IN","iso3":"IND","admin_name":"Karnātaka","capital":"","population":11606},{"city":"Geisenfeld","city_ascii":"Geisenfeld","lat":48.6667,"lng":11.6,"country":"Germany","iso2":"DE","iso3":"DEU","admin_name":"Bavaria","capital":"","population":11605},{"city":"Qaşr-e Qand","city_ascii":"Qasr-e Qand","lat":26.2356,"lng":60.7408,"country":"Iran","iso2":"IR","iso3":"IRN","admin_name":"Sīstān va Balūchestān","capital":"minor","population":11605},{"city":"Kem","city_ascii":"Kem","lat":64.95,"lng":34.5833,"country":"Russia","iso2":"RU","iso3":"RUS","admin_name":"Kareliya","capital":"minor","population":11604},{"city":"Rāyavaram","city_ascii":"Rayavaram","lat":17.3608,"lng":81.753,"country":"India","iso2":"IN","iso3":"IND","admin_name":"Andhra Pradesh","capital":"","population":11604},{"city":"Kalmiuske","city_ascii":"Kalmiuske","lat":47.6667,"lng":38.0667,"country":"Ukraine","iso2":"UA","iso3":"UKR","admin_name":"Donetska Oblast","capital":"minor","population":11603},{"city":"Ascot","city_ascii":"Ascot","lat":51.4084,"lng":-0.6707,"country":"United Kingdom","iso2":"GB","iso3":"GBR","admin_name":"Windsor and Maidenhead","capital":"","population":11603},{"city":"Sunninghill","city_ascii":"Sunninghill","lat":51.4025,"lng":-0.655,"country":"United Kingdom","iso2":"GB","iso3":"GBR","admin_name":"Windsor and Maidenhead","capital":"","population":11603},{"city":"Wolmirstedt","city_ascii":"Wolmirstedt","lat":52.2519,"lng":11.6297,"country":"Germany","iso2":"DE","iso3":"DEU","admin_name":"Saxony-Anhalt","capital":"","population":11602},{"city":"Gararu","city_ascii":"Gararu","lat":-9.9678,"lng":-37.0828,"country":"Brazil","iso2":"BR","iso3":"BRA","admin_name":"Sergipe","capital":"","population":11601},{"city":"Abertillery","city_ascii":"Abertillery","lat":51.73,"lng":-3.13,"country":"United Kingdom","iso2":"GB","iso3":"GBR","admin_name":"Blaenau Gwent","capital":"","population":11601},{"city":"Sewāi","city_ascii":"Sewai","lat":23.6175,"lng":85.6783,"country":"India","iso2":"IN","iso3":"IND","admin_name":"Jhārkhand","capital":"","population":11601},{"city":"Kolnād","city_ascii":"Kolnad","lat":12.9,"lng":75.03,"country":"India","iso2":"IN","iso3":"IND","admin_name":"Karnātaka","capital":"","population":11601},{"city":"Cadale","city_ascii":"Cadale","lat":2.75,"lng":46.3167,"country":"Somalia","iso2":"SO","iso3":"SOM","admin_name":"Shabeellaha Dhexe","capital":"","population":11600},{"city":"Cruzeiro do Sul","city_ascii":"Cruzeiro do Sul","lat":-29.5128,"lng":-51.985,"country":"Brazil","iso2":"BR","iso3":"BRA","admin_name":"Rio Grande do Sul","capital":"","population":11600},{"city":"Tafaraoui","city_ascii":"Tafaraoui","lat":35.4833,"lng":-0.5167,"country":"Algeria","iso2":"DZ","iso3":"DZA","admin_name":"Oran","capital":"","population":11600},{"city":"Wallingford","city_ascii":"Wallingford","lat":51.599,"lng":-1.125,"country":"United Kingdom","iso2":"GB","iso3":"GBR","admin_name":"Oxfordshire","capital":"","population":11600},{"city":"Schiller Park","city_ascii":"Schiller Park","lat":41.9586,"lng":-87.8693,"country":"United States","iso2":"US","iso3":"USA","admin_name":"Illinois","capital":"","population":11600},{"city":"Fuente de Oro","city_ascii":"Fuente de Oro","lat":3.4667,"lng":-73.6167,"country":"Colombia","iso2":"CO","iso3":"COL","admin_name":"Meta","capital":"minor","population":11599},{"city":"Devipattinam","city_ascii":"Devipattinam","lat":9.477,"lng":78.8961,"country":"India","iso2":"IN","iso3":"IND","admin_name":"Tamil Nādu","capital":"","population":11599},{"city":"Gansbaai","city_ascii":"Gansbaai","lat":-34.5828,"lng":19.3522,"country":"South Africa","iso2":"ZA","iso3":"ZAF","admin_name":"Western Cape","capital":"","population":11598},{"city":"Shuinancun","city_ascii":"Shuinancun","lat":23.2995,"lng":112.3753,"country":"China","iso2":"CN","iso3":"CHN","admin_name":"Guangdong","capital":"","population":11598},{"city":"Ādūru","city_ascii":"Aduru","lat":12.5583,"lng":75.1357,"country":"India","iso2":"IN","iso3":"IND","admin_name":"Kerala","capital":"","population":11598},{"city":"Santa Comba Dão","city_ascii":"Santa Comba Dao","lat":40.4,"lng":-8.1167,"country":"Portugal","iso2":"PT","iso3":"PRT","admin_name":"Viseu","capital":"minor","population":11597},{"city":"Jiquipilas","city_ascii":"Jiquipilas","lat":16.6677,"lng":-93.6505,"country":"Mexico","iso2":"MX","iso3":"MEX","admin_name":"Chiapas","capital":"minor","population":11596},{"city":"Cangas de Narcea","city_ascii":"Cangas de Narcea","lat":43.1714,"lng":-6.5389,"country":"Spain","iso2":"ES","iso3":"ESP","admin_name":"Asturias","capital":"","population":11596},{"city":"Renāpur","city_ascii":"Renapur","lat":18.5167,"lng":76.6,"country":"India","iso2":"IN","iso3":"IND","admin_name":"Mahārāshtra","capital":"","population":11596},{"city":"Hartsville","city_ascii":"Hartsville","lat":36.3921,"lng":-86.1568,"country":"United States","iso2":"US","iso3":"USA","admin_name":"Tennessee","capital":"","population":11596},{"city":"Likhoslavl","city_ascii":"Likhoslavl","lat":57.1333,"lng":35.4833,"country":"Russia","iso2":"RU","iso3":"RUS","admin_name":"Tverskaya Oblast’","capital":"minor","population":11594},{"city":"Mömbris","city_ascii":"Mombris","lat":50.0667,"lng":9.1667,"country":"Germany","iso2":"DE","iso3":"DEU","admin_name":"Bavaria","capital":"","population":11594},{"city":"Guraahai","city_ascii":"Guraahai","lat":33.6449,"lng":74.2301,"country":"India","iso2":"IN","iso3":"IND","admin_name":"Jammu and Kashmīr","capital":"","population":11594},{"city":"Chatham","city_ascii":"Chatham","lat":47.0443,"lng":-65.3781,"country":"Canada","iso2":"CA","iso3":"CAN","admin_name":"New Brunswick","capital":"","population":11594},{"city":"Phon","city_ascii":"Phon","lat":15.8084,"lng":102.6018,"country":"Thailand","iso2":"TH","iso3":"THA","admin_name":"Khon Kaen","capital":"minor","population":11593},{"city":"Bassersdorf","city_ascii":"Bassersdorf","lat":47.45,"lng":8.6333,"country":"Switzerland","iso2":"CH","iso3":"CHE","admin_name":"Zürich","capital":"","population":11593},{"city":"Halsūr","city_ascii":"Halsur","lat":18.0176,"lng":77.0098,"country":"India","iso2":"IN","iso3":"IND","admin_name":"Karnātaka","capital":"","population":11593},{"city":"Ankli","city_ascii":"Ankli","lat":16.42,"lng":74.58,"country":"India","iso2":"IN","iso3":"IND","admin_name":"Karnātaka","capital":"","population":11593},{"city":"Huandacareo","city_ascii":"Huandacareo","lat":19.9906,"lng":-101.275,"country":"Mexico","iso2":"MX","iso3":"MEX","admin_name":"Michoacán","capital":"minor","population":11592},{"city":"Zero Branco","city_ascii":"Zero Branco","lat":45.6,"lng":12.1667,"country":"Italy","iso2":"IT","iso3":"ITA","admin_name":"Veneto","capital":"","population":11592},{"city":"Markham","city_ascii":"Markham","lat":41.6,"lng":-87.6904,"country":"United States","iso2":"US","iso3":"USA","admin_name":"Illinois","capital":"","population":11592},{"city":"Lawrenceburg","city_ascii":"Lawrenceburg","lat":35.2497,"lng":-87.3325,"country":"United States","iso2":"US","iso3":"USA","admin_name":"Tennessee","capital":"","population":11592},{"city":"Loreto","city_ascii":"Loreto","lat":-7.0839,"lng":-45.1408,"country":"Brazil","iso2":"BR","iso3":"BRA","admin_name":"Maranhão","capital":"minor","population":11591},{"city":"Santa Lucía","city_ascii":"Santa Lucia","lat":-28.9833,"lng":-59.1,"country":"Argentina","iso2":"AR","iso3":"ARG","admin_name":"Corrientes","capital":"minor","population":11589},{"city":"Chambray-lès-Tours","city_ascii":"Chambray-les-Tours","lat":47.3383,"lng":0.7144,"country":"France","iso2":"FR","iso3":"FRA","admin_name":"Centre-Val de Loire","capital":"","population":11589},{"city":"Sablan","city_ascii":"Sablan","lat":16.4967,"lng":120.4875,"country":"Philippines","iso2":"PH","iso3":"PHL","admin_name":"Benguet","capital":"","population":11588},{"city":"Ross-Bétio","city_ascii":"Ross-Betio","lat":16.2667,"lng":-16.1333,"country":"Senegal","iso2":"SN","iso3":"SEN","admin_name":"Saint-Louis","capital":"","population":11588},{"city":"Tummalacheruvu","city_ascii":"Tummalacheruvu","lat":16.5246,"lng":79.7988,"country":"India","iso2":"IN","iso3":"IND","admin_name":"Andhra Pradesh","capital":"","population":11588},{"city":"Weeze","city_ascii":"Weeze","lat":51.6267,"lng":6.1967,"country":"Germany","iso2":"DE","iso3":"DEU","admin_name":"North Rhine-Westphalia","capital":"","population":11587},{"city":"Sākib","city_ascii":"Sakib","lat":32.2854,"lng":35.8113,"country":"Jordan","iso2":"JO","iso3":"JOR","admin_name":"Jarash","capital":"","population":11586},{"city":"St. Clements","city_ascii":"St. Clements","lat":50.2689,"lng":-96.6742,"country":"Canada","iso2":"CA","iso3":"CAN","admin_name":"Manitoba","capital":"","population":11586},{"city":"Khimlāsa","city_ascii":"Khimlasa","lat":24.2058,"lng":78.3639,"country":"India","iso2":"IN","iso3":"IND","admin_name":"Madhya Pradesh","capital":"","population":11585},{"city":"Morūr","city_ascii":"Morur","lat":11.4221,"lng":77.8743,"country":"India","iso2":"IN","iso3":"IND","admin_name":"Tamil Nādu","capital":"","population":11585},{"city":"Casteldaccia","city_ascii":"Casteldaccia","lat":38.0542,"lng":13.5306,"country":"Italy","iso2":"IT","iso3":"ITA","admin_name":"Sicilia","capital":"","population":11585},{"city":"Gainza","city_ascii":"Gainza","lat":13.6167,"lng":123.1414,"country":"Philippines","iso2":"PH","iso3":"PHL","admin_name":"Camarines Sur","capital":"","population":11584},{"city":"Santa Lucía","city_ascii":"Santa Lucia","lat":10.3167,"lng":-74.95,"country":"Colombia","iso2":"CO","iso3":"COL","admin_name":"Atlántico","capital":"minor","population":11584},{"city":"Vadakkumbāgam","city_ascii":"Vadakkumbagam","lat":10.1487,"lng":76.4159,"country":"India","iso2":"IN","iso3":"IND","admin_name":"Kerala","capital":"","population":11584},{"city":"Mangabe","city_ascii":"Mangabe","lat":-16.95,"lng":49.3333,"country":"Madagascar","iso2":"MG","iso3":"MDG","admin_name":"Toamasina","capital":"","population":11583},{"city":"Kurabalakota","city_ascii":"Kurabalakota","lat":13.65,"lng":78.4833,"country":"India","iso2":"IN","iso3":"IND","admin_name":"Andhra Pradesh","capital":"","population":11583},{"city":"Novoīshīmskīy","city_ascii":"Novoishimskiy","lat":53.1981,"lng":66.7694,"country":"Kazakhstan","iso2":"KZ","iso3":"KAZ","admin_name":"North Kazakhstan","capital":"minor","population":11583},{"city":"Roessleville","city_ascii":"Roessleville","lat":42.6969,"lng":-73.7964,"country":"United States","iso2":"US","iso3":"USA","admin_name":"New York","capital":"","population":11583},{"city":"Yercaud","city_ascii":"Yercaud","lat":11.7794,"lng":78.2034,"country":"India","iso2":"IN","iso3":"IND","admin_name":"Tamil Nādu","capital":"","population":11582},{"city":"Minnehaha","city_ascii":"Minnehaha","lat":45.6577,"lng":-122.6204,"country":"United States","iso2":"US","iso3":"USA","admin_name":"Washington","capital":"","population":11582},{"city":"Moss Bluff","city_ascii":"Moss Bluff","lat":30.3039,"lng":-93.2051,"country":"United States","iso2":"US","iso3":"USA","admin_name":"Louisiana","capital":"","population":11582},{"city":"Oulad Friha","city_ascii":"Oulad Friha","lat":32.6108,"lng":-7.625,"country":"Morocco","iso2":"MA","iso3":"MAR","admin_name":"Casablanca-Settat","capital":"","population":11581},{"city":"Santa Genoveva de Docordó","city_ascii":"Santa Genoveva de Docordo","lat":4.2586,"lng":-77.3675,"country":"Colombia","iso2":"CO","iso3":"COL","admin_name":"Chocó","capital":"minor","population":11579},{"city":"San Josecito","city_ascii":"San Josecito","lat":10.0126,"lng":-84.1119,"country":"Costa Rica","iso2":"CR","iso3":"CRI","admin_name":"Heredia","capital":"","population":11579},{"city":"Wichelen","city_ascii":"Wichelen","lat":51,"lng":3.9667,"country":"Belgium","iso2":"BE","iso3":"BEL","admin_name":"Flanders","capital":"","population":11578},{"city":"Oulad Hamdane","city_ascii":"Oulad Hamdane","lat":32.3333,"lng":-6.3667,"country":"Morocco","iso2":"MA","iso3":"MAR","admin_name":"Béni Mellal-Khénifra","capital":"","population":11577},{"city":"Patterson","city_ascii":"Patterson","lat":41.4849,"lng":-73.5921,"country":"United States","iso2":"US","iso3":"USA","admin_name":"New York","capital":"","population":11577},{"city":"Chegem Vtoroy","city_ascii":"Chegem Vtoroy","lat":43.5667,"lng":43.5833,"country":"Russia","iso2":"RU","iso3":"RUS","admin_name":"Kabardino-Balkariya","capital":"","population":11575},{"city":"Ipaporanga","city_ascii":"Ipaporanga","lat":-4.9,"lng":-40.7667,"country":"Brazil","iso2":"BR","iso3":"BRA","admin_name":"Ceará","capital":"minor","population":11575},{"city":"Town and Country","city_ascii":"Town and Country","lat":38.6317,"lng":-90.479,"country":"United States","iso2":"US","iso3":"USA","admin_name":"Missouri","capital":"","population":11575},{"city":"View Royal","city_ascii":"View Royal","lat":48.4517,"lng":-123.4339,"country":"Canada","iso2":"CA","iso3":"CAN","admin_name":"British Columbia","capital":"","population":11575},{"city":"Nazareth","city_ascii":"Nazareth","lat":50.9667,"lng":3.6,"country":"Belgium","iso2":"BE","iso3":"BEL","admin_name":"Flanders","capital":"","population":11574},{"city":"Melle","city_ascii":"Melle","lat":51,"lng":3.8,"country":"Belgium","iso2":"BE","iso3":"BEL","admin_name":"Flanders","capital":"","population":11574},{"city":"Gopālapuram","city_ascii":"Gopalapuram","lat":17.1007,"lng":81.5406,"country":"India","iso2":"IN","iso3":"IND","admin_name":"Andhra Pradesh","capital":"","population":11573},{"city":"Le Haillan","city_ascii":"Le Haillan","lat":44.8725,"lng":-0.6758,"country":"France","iso2":"FR","iso3":"FRA","admin_name":"Nouvelle-Aquitaine","capital":"","population":11572},{"city":"Naīgarhi","city_ascii":"Naigarhi","lat":24.7869,"lng":81.7787,"country":"India","iso2":"IN","iso3":"IND","admin_name":"Madhya Pradesh","capital":"","population":11572},{"city":"Jethuli","city_ascii":"Jethuli","lat":25.5378,"lng":85.2841,"country":"India","iso2":"IN","iso3":"IND","admin_name":"Bihār","capital":"","population":11572},{"city":"Castenedolo","city_ascii":"Castenedolo","lat":45.5333,"lng":10.2333,"country":"Italy","iso2":"IT","iso3":"ITA","admin_name":"Lombardy","capital":"","population":11572},{"city":"Bahādarpur","city_ascii":"Bahadarpur","lat":21.2922,"lng":76.1806,"country":"India","iso2":"IN","iso3":"IND","admin_name":"Madhya Pradesh","capital":"","population":11571},{"city":"Pettaivāyttalai","city_ascii":"Pettaivayttalai","lat":10.9014,"lng":78.494,"country":"India","iso2":"IN","iso3":"IND","admin_name":"Tamil Nādu","capital":"","population":11571},{"city":"Jarābulus","city_ascii":"Jarabulus","lat":36.8175,"lng":38.0111,"country":"Syria","iso2":"SY","iso3":"SYR","admin_name":"Ḩalab","capital":"minor","population":11570},{"city":"Haradok","city_ascii":"Haradok","lat":55.4667,"lng":30,"country":"Belarus","iso2":"BY","iso3":"BLR","admin_name":"Vitsyebskaya Voblasts’","capital":"minor","population":11570},{"city":"Jīdigunta","city_ascii":"Jidigunta","lat":16.9098,"lng":81.8553,"country":"India","iso2":"IN","iso3":"IND","admin_name":"Andhra Pradesh","capital":"","population":11570},{"city":"Okuizumo","city_ascii":"Okuizumo","lat":35.1975,"lng":133.0025,"country":"Japan","iso2":"JP","iso3":"JPN","admin_name":"Shimane","capital":"","population":11570},{"city":"Ban Mae Kham Lang Wat","city_ascii":"Ban Mae Kham Lang Wat","lat":20.2225,"lng":99.8561,"country":"Thailand","iso2":"TH","iso3":"THA","admin_name":"Chiang Rai","capital":"","population":11569},{"city":"Ban Wiang Phan","city_ascii":"Ban Wiang Phan","lat":20.4128,"lng":99.8853,"country":"Thailand","iso2":"TH","iso3":"THA","admin_name":"Chiang Rai","capital":"","population":11569},{"city":"Caraguatay","city_ascii":"Caraguatay","lat":-25.2333,"lng":-56.8167,"country":"Paraguay","iso2":"PY","iso3":"PRY","admin_name":"Cordillera","capital":"","population":11568},{"city":"Schwieberdingen","city_ascii":"Schwieberdingen","lat":48.8778,"lng":9.075,"country":"Germany","iso2":"DE","iso3":"DEU","admin_name":"Baden-Württemberg","capital":"","population":11568},{"city":"River Forest","city_ascii":"River Forest","lat":41.895,"lng":-87.8194,"country":"United States","iso2":"US","iso3":"USA","admin_name":"Illinois","capital":"","population":11568},{"city":"Santa Cruz da Baixa Verde","city_ascii":"Santa Cruz da Baixa Verde","lat":-7.8167,"lng":-38.1667,"country":"Brazil","iso2":"BR","iso3":"BRA","admin_name":"Pernambuco","capital":"","population":11567},{"city":"Oñate","city_ascii":"Onate","lat":43.0333,"lng":-2.4167,"country":"Spain","iso2":"ES","iso3":"ESP","admin_name":"Basque Country","capital":"","population":11567},{"city":"Isola della Scala","city_ascii":"Isola della Scala","lat":45.2667,"lng":11.1333,"country":"Italy","iso2":"IT","iso3":"ITA","admin_name":"Veneto","capital":"","population":11567},{"city":"Pampas","city_ascii":"Pampas","lat":-12.3989,"lng":-74.8667,"country":"Peru","iso2":"PE","iso3":"PER","admin_name":"Huancavelica","capital":"minor","population":11566},{"city":"La Unión","city_ascii":"La Union","lat":8.8606,"lng":-75.2806,"country":"Colombia","iso2":"CO","iso3":"COL","admin_name":"Sucre","capital":"minor","population":11566},{"city":"Kennebunk","city_ascii":"Kennebunk","lat":43.3972,"lng":-70.5707,"country":"United States","iso2":"US","iso3":"USA","admin_name":"Maine","capital":"","population":11566},{"city":"Eijsden","city_ascii":"Eijsden","lat":50.7778,"lng":5.7083,"country":"Netherlands","iso2":"NL","iso3":"NLD","admin_name":"Limburg","capital":"minor","population":11565},{"city":"Landsmeer","city_ascii":"Landsmeer","lat":52.4333,"lng":4.9167,"country":"Netherlands","iso2":"NL","iso3":"NLD","admin_name":"Noord-Holland","capital":"minor","population":11565},{"city":"Nieuwpoort","city_ascii":"Nieuwpoort","lat":51.1167,"lng":2.75,"country":"Belgium","iso2":"BE","iso3":"BEL","admin_name":"Flanders","capital":"","population":11565},{"city":"Gold Canyon","city_ascii":"Gold Canyon","lat":33.3639,"lng":-111.423,"country":"United States","iso2":"US","iso3":"USA","admin_name":"Arizona","capital":"","population":11565},{"city":"Gardere","city_ascii":"Gardere","lat":30.3582,"lng":-91.1346,"country":"United States","iso2":"US","iso3":"USA","admin_name":"Louisiana","capital":"","population":11565},{"city":"Puerto Suárez","city_ascii":"Puerto Suarez","lat":-18.9667,"lng":-57.7981,"country":"Bolivia","iso2":"BO","iso3":"BOL","admin_name":"Santa Cruz","capital":"","population":11564},{"city":"Überherrn","city_ascii":"Uberherrn","lat":49.25,"lng":6.7,"country":"Germany","iso2":"DE","iso3":"DEU","admin_name":"Saarland","capital":"","population":11564},{"city":"Loutráki","city_ascii":"Loutraki","lat":37.975,"lng":22.9767,"country":"Greece","iso2":"GR","iso3":"GRC","admin_name":"Pelopónnisos","capital":"minor","population":11564},{"city":"Ghal Kalān","city_ascii":"Ghal Kalan","lat":30.8189,"lng":75.1063,"country":"India","iso2":"IN","iso3":"IND","admin_name":"Punjab","capital":"","population":11563},{"city":"Kushmanchi","city_ascii":"Kushmanchi","lat":17.2263,"lng":79.9668,"country":"India","iso2":"IN","iso3":"IND","admin_name":"Telangāna","capital":"","population":11563},{"city":"Severnyy","city_ascii":"Severnyy","lat":67.6083,"lng":64.1233,"country":"Russia","iso2":"RU","iso3":"RUS","admin_name":"Komi","capital":"","population":11562},{"city":"Navarro","city_ascii":"Navarro","lat":-35.0167,"lng":-59.2667,"country":"Argentina","iso2":"AR","iso3":"ARG","admin_name":"Buenos Aires","capital":"minor","population":11562},{"city":"Kopervik","city_ascii":"Kopervik","lat":59.2801,"lng":5.3016,"country":"Norway","iso2":"NO","iso3":"NOR","admin_name":"Rogaland","capital":"minor","population":11561},{"city":"Yangiqo‘rg‘on","city_ascii":"Yangiqo`rg`on","lat":41.1872,"lng":71.7333,"country":"Uzbekistan","iso2":"UZ","iso3":"UZB","admin_name":"Namangan","capital":"","population":11561},{"city":"Xiaoba","city_ascii":"Xiaoba","lat":26.7217,"lng":106.9236,"country":"China","iso2":"CN","iso3":"CHN","admin_name":"Guizhou","capital":"","population":11560},{"city":"Meßstetten","city_ascii":"Messstetten","lat":48.1806,"lng":8.9625,"country":"Germany","iso2":"DE","iso3":"DEU","admin_name":"Baden-Württemberg","capital":"","population":11560},{"city":"Ghinda’e","city_ascii":"Ghinda'e","lat":15.45,"lng":39.0833,"country":"Eritrea","iso2":"ER","iso3":"ERI","admin_name":"Semienawi K’eyyĭḥ Baḥri","capital":"","population":11560},{"city":"Yorktown","city_ascii":"Yorktown","lat":40.183,"lng":-85.5123,"country":"United States","iso2":"US","iso3":"USA","admin_name":"Indiana","capital":"","population":11560},{"city":"Mistelbach","city_ascii":"Mistelbach","lat":48.5667,"lng":16.5667,"country":"Austria","iso2":"AT","iso3":"AUT","admin_name":"Niederösterreich","capital":"minor","population":11559},{"city":"Silves","city_ascii":"Silves","lat":-2.8389,"lng":-58.2092,"country":"Brazil","iso2":"BR","iso3":"BRA","admin_name":"Amazonas","capital":"minor","population":11559},{"city":"Sathmalpur","city_ascii":"Sathmalpur","lat":25.8749,"lng":85.8567,"country":"India","iso2":"IN","iso3":"IND","admin_name":"Bihār","capital":"","population":11559},{"city":"Khandpara","city_ascii":"Khandpara","lat":20.2644,"lng":85.1767,"country":"India","iso2":"IN","iso3":"IND","admin_name":"Odisha","capital":"","population":11559},{"city":"Forest","city_ascii":"Forest","lat":37.3728,"lng":-79.2831,"country":"United States","iso2":"US","iso3":"USA","admin_name":"Virginia","capital":"","population":11559},{"city":"Belgrave","city_ascii":"Belgrave","lat":52.6566,"lng":-1.1262,"country":"United Kingdom","iso2":"GB","iso3":"GBR","admin_name":"Leicester","capital":"","population":11558},{"city":"Araçás","city_ascii":"Aracas","lat":-12.22,"lng":-38.2028,"country":"Brazil","iso2":"BR","iso3":"BRA","admin_name":"Bahia","capital":"minor","population":11557},{"city":"Perches","city_ascii":"Perches","lat":19.5167,"lng":-71.9167,"country":"Haiti","iso2":"HT","iso3":"HTI","admin_name":"Nord-Est","capital":"","population":11556},{"city":"Gulgam","city_ascii":"Gulgam","lat":34.55,"lng":74.2173,"country":"India","iso2":"IN","iso3":"IND","admin_name":"Jammu and Kashmīr","capital":"","population":11556},{"city":"Cisneros","city_ascii":"Cisneros","lat":6.5383,"lng":-75.0886,"country":"Colombia","iso2":"CO","iso3":"COL","admin_name":"Antioquia","capital":"minor","population":11555},{"city":"Esperanza","city_ascii":"Esperanza","lat":22.4472,"lng":-80.0966,"country":"Cuba","iso2":"CU","iso3":"CUB","admin_name":"Villa Clara","capital":"","population":11555},{"city":"Anatolí","city_ascii":"Anatoli","lat":39.6333,"lng":20.8667,"country":"Greece","iso2":"GR","iso3":"GRC","admin_name":"Ípeiros","capital":"","population":11555},{"city":"Stuarts Draft","city_ascii":"Stuarts Draft","lat":38.0188,"lng":-79.0354,"country":"United States","iso2":"US","iso3":"USA","admin_name":"Virginia","capital":"","population":11554},{"city":"Molteno","city_ascii":"Molteno","lat":-31.3961,"lng":26.3631,"country":"South Africa","iso2":"ZA","iso3":"ZAF","admin_name":"Eastern Cape","capital":"","population":11553},{"city":"Kundiawa","city_ascii":"Kundiawa","lat":-6.0167,"lng":144.9667,"country":"Papua New Guinea","iso2":"PG","iso3":"PNG","admin_name":"Chimbu","capital":"admin","population":11553},{"city":"Leāma","city_ascii":"Leama","lat":26.214,"lng":85.998,"country":"India","iso2":"IN","iso3":"IND","admin_name":"Bihār","capital":"","population":11553},{"city":"Espita","city_ascii":"Espita","lat":21.0128,"lng":-88.3047,"country":"Mexico","iso2":"MX","iso3":"MEX","admin_name":"Yucatán","capital":"minor","population":11551},{"city":"Itainópolis","city_ascii":"Itainopolis","lat":-7.4,"lng":-41.5167,"country":"Brazil","iso2":"BR","iso3":"BRA","admin_name":"Piauí","capital":"minor","population":11551},{"city":"Perumbakkam","city_ascii":"Perumbakkam","lat":13.0133,"lng":80.143,"country":"India","iso2":"IN","iso3":"IND","admin_name":"Tamil Nādu","capital":"","population":11551},{"city":"Tadapurambākkam","city_ascii":"Tadapurambakkam","lat":13.3205,"lng":80.1959,"country":"India","iso2":"IN","iso3":"IND","admin_name":"Tamil Nādu","capital":"","population":11551},{"city":"Esil","city_ascii":"Esil","lat":51.9556,"lng":66.4042,"country":"Kazakhstan","iso2":"KZ","iso3":"KAZ","admin_name":"Aqmola","capital":"minor","population":11551},{"city":"Saint-Estève","city_ascii":"Saint-Esteve","lat":42.7142,"lng":2.8428,"country":"France","iso2":"FR","iso3":"FRA","admin_name":"Occitanie","capital":"","population":11550},{"city":"Dąbrowa Tarnowska","city_ascii":"Dabrowa Tarnowska","lat":50.1667,"lng":20.9833,"country":"Poland","iso2":"PL","iso3":"POL","admin_name":"Małopolskie","capital":"minor","population":11549},{"city":"Krosūru","city_ascii":"Krosuru","lat":16.55,"lng":80.1331,"country":"India","iso2":"IN","iso3":"IND","admin_name":"Andhra Pradesh","capital":"","population":11549},{"city":"Sussex","city_ascii":"Sussex","lat":43.1346,"lng":-88.2226,"country":"United States","iso2":"US","iso3":"USA","admin_name":"Wisconsin","capital":"","population":11549},{"city":"Derdara","city_ascii":"Derdara","lat":35.1103,"lng":-5.2872,"country":"Morocco","iso2":"MA","iso3":"MAR","admin_name":"Tanger-Tétouan-Al Hoceïma","capital":"","population":11547},{"city":"Bugongi","city_ascii":"Bugongi","lat":-0.6356,"lng":30.2528,"country":"Uganda","iso2":"UG","iso3":"UGA","admin_name":"Sheema","capital":"","population":11547},{"city":"Broome","city_ascii":"Broome","lat":-17.9619,"lng":122.2361,"country":"Australia","iso2":"AU","iso3":"AUS","admin_name":"Western Australia","capital":"","population":11547},{"city":"Carmo da Cachoeira","city_ascii":"Carmo da Cachoeira","lat":-21.4608,"lng":-45.2239,"country":"Brazil","iso2":"BR","iso3":"BRA","admin_name":"Minas Gerais","capital":"","population":11547},{"city":"Amelia","city_ascii":"Amelia","lat":42.55,"lng":12.4167,"country":"Italy","iso2":"IT","iso3":"ITA","admin_name":"Umbria","capital":"","population":11547},{"city":"Patera","city_ascii":"Patera","lat":23.996,"lng":79.6837,"country":"India","iso2":"IN","iso3":"IND","admin_name":"Madhya Pradesh","capital":"","population":11546},{"city":"Downpatrick","city_ascii":"Downpatrick","lat":54.322,"lng":-5.703,"country":"United Kingdom","iso2":"GB","iso3":"GBR","admin_name":"Newry, Mourne and Down","capital":"","population":11545},{"city":"Ghambiraopet","city_ascii":"Ghambiraopet","lat":18.3,"lng":78.5833,"country":"India","iso2":"IN","iso3":"IND","admin_name":"Telangāna","capital":"","population":11545},{"city":"Port Lavaca","city_ascii":"Port Lavaca","lat":28.6181,"lng":-96.6278,"country":"United States","iso2":"US","iso3":"USA","admin_name":"Texas","capital":"","population":11545},{"city":"Wanstead","city_ascii":"Wanstead","lat":51.5778,"lng":0.0286,"country":"United Kingdom","iso2":"GB","iso3":"GBR","admin_name":"Redbridge","capital":"","population":11543},{"city":"Muroto-misakicho","city_ascii":"Muroto-misakicho","lat":33.29,"lng":134.1519,"country":"Japan","iso2":"JP","iso3":"JPN","admin_name":"Kōchi","capital":"","population":11543},{"city":"Platteville","city_ascii":"Platteville","lat":42.728,"lng":-90.4681,"country":"United States","iso2":"US","iso3":"USA","admin_name":"Wisconsin","capital":"","population":11543},{"city":"Den Chai","city_ascii":"Den Chai","lat":17.9835,"lng":100.0519,"country":"Thailand","iso2":"TH","iso3":"THA","admin_name":"Phrae","capital":"minor","population":11542},{"city":"Chennūr","city_ascii":"Chennur","lat":14.1473,"lng":79.8477,"country":"India","iso2":"IN","iso3":"IND","admin_name":"Andhra Pradesh","capital":"","population":11542},{"city":"Khorramābād","city_ascii":"Khorramabad","lat":36.7822,"lng":50.8714,"country":"Iran","iso2":"IR","iso3":"IRN","admin_name":"Māzandarān","capital":"","population":11542},{"city":"Chintalavādi","city_ascii":"Chintalavadi","lat":10.9511,"lng":78.3158,"country":"India","iso2":"IN","iso3":"IND","admin_name":"Tamil Nādu","capital":"","population":11540},{"city":"Nyazepetrovsk","city_ascii":"Nyazepetrovsk","lat":56.05,"lng":59.6,"country":"Russia","iso2":"RU","iso3":"RUS","admin_name":"Chelyabinskaya Oblast’","capital":"","population":11539},{"city":"Holešov","city_ascii":"Holesov","lat":49.3333,"lng":17.5783,"country":"Czechia","iso2":"CZ","iso3":"CZE","admin_name":"Zlínský Kraj","capital":"","population":11538},{"city":"Labbaikkudikkādu","city_ascii":"Labbaikkudikkadu","lat":11.3922,"lng":79.0218,"country":"India","iso2":"IN","iso3":"IND","admin_name":"Tamil Nādu","capital":"","population":11538},{"city":"Sidi Kasem","city_ascii":"Sidi Kasem","lat":35.5339,"lng":-5.2183,"country":"Morocco","iso2":"MA","iso3":"MAR","admin_name":"Tanger-Tétouan-Al Hoceïma","capital":"","population":11537},{"city":"Kibungo","city_ascii":"Kibungo","lat":-2.1583,"lng":30.5458,"country":"Rwanda","iso2":"RW","iso3":"RWA","admin_name":"Eastern Province","capital":"","population":11537},{"city":"Dharmāram","city_ascii":"Dharmaram","lat":18.736,"lng":79.2194,"country":"India","iso2":"IN","iso3":"IND","admin_name":"Telangāna","capital":"","population":11537},{"city":"Mangalkot","city_ascii":"Mangalkot","lat":23.5252,"lng":87.9034,"country":"India","iso2":"IN","iso3":"IND","admin_name":"West Bengal","capital":"","population":11537},{"city":"Port Morant","city_ascii":"Port Morant","lat":17.9,"lng":-76.3167,"country":"Jamaica","iso2":"JM","iso3":"JAM","admin_name":"Saint Thomas","capital":"","population":11536},{"city":"Matca","city_ascii":"Matca","lat":45.85,"lng":27.5333,"country":"Romania","iso2":"RO","iso3":"ROU","admin_name":"Galaţi","capital":"","population":11535},{"city":"Pieve di Soligo","city_ascii":"Pieve di Soligo","lat":45.8833,"lng":12.1667,"country":"Italy","iso2":"IT","iso3":"ITA","admin_name":"Veneto","capital":"","population":11535},{"city":"Lamosina","city_ascii":"Lamosina","lat":-21.64,"lng":46.8989,"country":"Madagascar","iso2":"MG","iso3":"MDG","admin_name":"Fianarantsoa","capital":"","population":11534},{"city":"Weinfelden","city_ascii":"Weinfelden","lat":47.5667,"lng":9.1,"country":"Switzerland","iso2":"CH","iso3":"CHE","admin_name":"Thurgau","capital":"minor","population":11534},{"city":"Sinzheim","city_ascii":"Sinzheim","lat":48.7619,"lng":8.1669,"country":"Germany","iso2":"DE","iso3":"DEU","admin_name":"Baden-Württemberg","capital":"","population":11533},{"city":"Nālwār","city_ascii":"Nalwar","lat":16.9436,"lng":76.9919,"country":"India","iso2":"IN","iso3":"IND","admin_name":"Karnātaka","capital":"","population":11533},{"city":"Roma","city_ascii":"Roma","lat":26.4166,"lng":-99.0061,"country":"United States","iso2":"US","iso3":"USA","admin_name":"Texas","capital":"","population":11531},{"city":"Taïneste","city_ascii":"Taineste","lat":34.5573,"lng":-4.136,"country":"Morocco","iso2":"MA","iso3":"MAR","admin_name":"Fès-Meknès","capital":"","population":11530},{"city":"Krapina","city_ascii":"Krapina","lat":46.16,"lng":15.87,"country":"Croatia","iso2":"HR","iso3":"HRV","admin_name":"Krapinsko-Zagorska Županija","capital":"admin","population":11530},{"city":"Kantilo","city_ascii":"Kantilo","lat":20.3615,"lng":85.1921,"country":"India","iso2":"IN","iso3":"IND","admin_name":"Odisha","capital":"","population":11530},{"city":"Saint Helena Bay","city_ascii":"Saint Helena Bay","lat":-32.7583,"lng":18.0278,"country":"South Africa","iso2":"ZA","iso3":"ZAF","admin_name":"Western Cape","capital":"","population":11529},{"city":"Doda","city_ascii":"Doda","lat":30.3844,"lng":74.6394,"country":"India","iso2":"IN","iso3":"IND","admin_name":"Punjab","capital":"","population":11529},{"city":"Mīt Damsīs","city_ascii":"Mit Damsis","lat":30.8267,"lng":31.2226,"country":"Egypt","iso2":"EG","iso3":"EGY","admin_name":"Ad Daqahlīyah","capital":"","population":11528},{"city":"Sunkarevu","city_ascii":"Sunkarevu","lat":16.39,"lng":81.85,"country":"India","iso2":"IN","iso3":"IND","admin_name":"Andhra Pradesh","capital":"","population":11528},{"city":"Bāhāgalpur","city_ascii":"Bahagalpur","lat":24.5934,"lng":87.9536,"country":"India","iso2":"IN","iso3":"IND","admin_name":"West Bengal","capital":"","population":11528},{"city":"Ichhāpur","city_ascii":"Ichhapur","lat":21.1551,"lng":76.1556,"country":"India","iso2":"IN","iso3":"IND","admin_name":"Madhya Pradesh","capital":"","population":11528},{"city":"Smithfield","city_ascii":"Smithfield","lat":35.5133,"lng":-78.3495,"country":"United States","iso2":"US","iso3":"USA","admin_name":"North Carolina","capital":"","population":11527},{"city":"Norfolk","city_ascii":"Norfolk","lat":42.1163,"lng":-71.3295,"country":"United States","iso2":"US","iso3":"USA","admin_name":"Massachusetts","capital":"","population":11527},{"city":"Vohilava","city_ascii":"Vohilava","lat":-20.7,"lng":48.35,"country":"Madagascar","iso2":"MG","iso3":"MDG","admin_name":"Fianarantsoa","capital":"","population":11526},{"city":"Moparipālaiyam","city_ascii":"Moparipalaiyam","lat":11.1332,"lng":77.147,"country":"India","iso2":"IN","iso3":"IND","admin_name":"Tamil Nādu","capital":"","population":11526},{"city":"Maniago","city_ascii":"Maniago","lat":46.1667,"lng":12.7167,"country":"Italy","iso2":"IT","iso3":"ITA","admin_name":"Friuli Venezia Giulia","capital":"","population":11526},{"city":"Okpo","city_ascii":"Okpo","lat":18.1167,"lng":95.6667,"country":"Burma","iso2":"MM","iso3":"MMR","admin_name":"Bago","capital":"","population":11525},{"city":"Nandipeta","city_ascii":"Nandipeta","lat":18.9622,"lng":78.1772,"country":"India","iso2":"IN","iso3":"IND","admin_name":"Telangāna","capital":"","population":11525},{"city":"Ekerö","city_ascii":"Ekero","lat":59.2833,"lng":17.8,"country":"Sweden","iso2":"SE","iso3":"SWE","admin_name":"Stockholm","capital":"minor","population":11524},{"city":"Quatipuru","city_ascii":"Quatipuru","lat":-0.8667,"lng":-46.9833,"country":"Brazil","iso2":"BR","iso3":"BRA","admin_name":"Pará","capital":"minor","population":11524},{"city":"Budha Thēh","city_ascii":"Budha Theh","lat":31.5177,"lng":75.3009,"country":"India","iso2":"IN","iso3":"IND","admin_name":"Punjab","capital":"","population":11524},{"city":"Golet","city_ascii":"Golet","lat":19.239,"lng":79.3891,"country":"India","iso2":"IN","iso3":"IND","admin_name":"Telangāna","capital":"","population":11524},{"city":"Stelle","city_ascii":"Stelle","lat":53.3667,"lng":10.1167,"country":"Germany","iso2":"DE","iso3":"DEU","admin_name":"Lower Saxony","capital":"","population":11523},{"city":"Nīdāmangalam","city_ascii":"Nidamangalam","lat":10.772,"lng":79.4167,"country":"India","iso2":"IN","iso3":"IND","admin_name":"Tamil Nādu","capital":"","population":11523},{"city":"Epazoyucan","city_ascii":"Epazoyucan","lat":20.0177,"lng":-98.6361,"country":"Mexico","iso2":"MX","iso3":"MEX","admin_name":"Hidalgo","capital":"minor","population":11522},{"city":"Sahri","city_ascii":"Sahri","lat":25.4721,"lng":85.7277,"country":"India","iso2":"IN","iso3":"IND","admin_name":"Bihār","capital":"","population":11522},{"city":"Ingurti","city_ascii":"Ingurti","lat":17.6695,"lng":79.8003,"country":"India","iso2":"IN","iso3":"IND","admin_name":"Telangāna","capital":"","population":11522},{"city":"Ramena","city_ascii":"Ramena","lat":-12.2333,"lng":49.35,"country":"Madagascar","iso2":"MG","iso3":"MDG","admin_name":"Antsiranana","capital":"","population":11521},{"city":"Calheta","city_ascii":"Calheta","lat":32.7258,"lng":-17.1658,"country":"Portugal","iso2":"PT","iso3":"PRT","admin_name":"Madeira","capital":"","population":11521},{"city":"Noeux-les-Mines","city_ascii":"Noeux-les-Mines","lat":50.4803,"lng":2.6656,"country":"France","iso2":"FR","iso3":"FRA","admin_name":"Hauts-de-France","capital":"","population":11520},{"city":"Doddappanāyakkanūr","city_ascii":"Doddappanayakkanur","lat":9.981,"lng":77.734,"country":"India","iso2":"IN","iso3":"IND","admin_name":"Tamil Nādu","capital":"","population":11520},{"city":"Shāhpur Baghauni","city_ascii":"Shahpur Baghauni","lat":25.8831,"lng":85.6859,"country":"India","iso2":"IN","iso3":"IND","admin_name":"Bihār","capital":"","population":11520},{"city":"Giffoni Valle Piana","city_ascii":"Giffoni Valle Piana","lat":40.7167,"lng":14.9333,"country":"Italy","iso2":"IT","iso3":"ITA","admin_name":"Campania","capital":"","population":11520},{"city":"Cholpon-Ata","city_ascii":"Cholpon-Ata","lat":42.65,"lng":77.0833,"country":"Kyrgyzstan","iso2":"KG","iso3":"KGZ","admin_name":"Ysyk-Köl","capital":"minor","population":11520},{"city":"Loyalsock","city_ascii":"Loyalsock","lat":41.2743,"lng":-76.9839,"country":"United States","iso2":"US","iso3":"USA","admin_name":"Pennsylvania","capital":"","population":11519},{"city":"Olintla","city_ascii":"Olintla","lat":20.1,"lng":-97.6833,"country":"Mexico","iso2":"MX","iso3":"MEX","admin_name":"Puebla","capital":"","population":11517},{"city":"Jucati","city_ascii":"Jucati","lat":-8.7,"lng":-36.45,"country":"Brazil","iso2":"BR","iso3":"BRA","admin_name":"Pernambuco","capital":"","population":11517},{"city":"Velké Meziříčí","city_ascii":"Velke Mezirici","lat":49.3553,"lng":16.0122,"country":"Czechia","iso2":"CZ","iso3":"CZE","admin_name":"Vysočina","capital":"","population":11517},{"city":"Gorey","city_ascii":"Gorey","lat":52.677,"lng":-6.292,"country":"Ireland","iso2":"IE","iso3":"IRL","admin_name":"Wexford","capital":"","population":11517},{"city":"Kundurpi","city_ascii":"Kundurpi","lat":14.2833,"lng":77.0333,"country":"India","iso2":"IN","iso3":"IND","admin_name":"Andhra Pradesh","capital":"","population":11516},{"city":"Drawsko Pomorskie","city_ascii":"Drawsko Pomorskie","lat":53.5333,"lng":15.8,"country":"Poland","iso2":"PL","iso3":"POL","admin_name":"Zachodniopomorskie","capital":"minor","population":11515},{"city":"Raun","city_ascii":"Raun","lat":25.6462,"lng":86.3869,"country":"India","iso2":"IN","iso3":"IND","admin_name":"Bihār","capital":"","population":11515},{"city":"Blundellsands","city_ascii":"Blundellsands","lat":53.48,"lng":-3.05,"country":"United Kingdom","iso2":"GB","iso3":"GBR","admin_name":"Sefton","capital":"","population":11514},{"city":"Cachoeira Alta","city_ascii":"Cachoeira Alta","lat":-18.7558,"lng":-50.9322,"country":"Brazil","iso2":"BR","iso3":"BRA","admin_name":"Goiás","capital":"","population":11513},{"city":"Desanagi","city_ascii":"Desanagi","lat":16.92,"lng":76.24,"country":"India","iso2":"IN","iso3":"IND","admin_name":"Karnātaka","capital":"","population":11513},{"city":"Mirik","city_ascii":"Mirik","lat":26.887,"lng":88.187,"country":"India","iso2":"IN","iso3":"IND","admin_name":"West Bengal","capital":"","population":11513},{"city":"Grosse Pointe Park","city_ascii":"Grosse Pointe Park","lat":42.3794,"lng":-82.9287,"country":"United States","iso2":"US","iso3":"USA","admin_name":"Michigan","capital":"","population":11513},{"city":"Dolores","city_ascii":"Dolores","lat":17.65,"lng":120.71,"country":"Philippines","iso2":"PH","iso3":"PHL","admin_name":"Abra","capital":"","population":11512},{"city":"San Carlos de Guaroa","city_ascii":"San Carlos de Guaroa","lat":3.7111,"lng":-73.2425,"country":"Colombia","iso2":"CO","iso3":"COL","admin_name":"Meta","capital":"minor","population":11512},{"city":"Hlaingbwe","city_ascii":"Hlaingbwe","lat":17.1333,"lng":97.8333,"country":"Burma","iso2":"MM","iso3":"MMR","admin_name":"Kayin State","capital":"","population":11511},{"city":"Valdivia","city_ascii":"Valdivia","lat":7.2938,"lng":-75.3919,"country":"Colombia","iso2":"CO","iso3":"COL","admin_name":"Antioquia","capital":"","population":11511},{"city":"Brislington","city_ascii":"Brislington","lat":51.4316,"lng":-2.5439,"country":"United Kingdom","iso2":"GB","iso3":"GBR","admin_name":"Bristol, City of","capital":"","population":11511},{"city":"Orchha","city_ascii":"Orchha","lat":25.35,"lng":78.64,"country":"India","iso2":"IN","iso3":"IND","admin_name":"Madhya Pradesh","capital":"","population":11511},{"city":"Kathu","city_ascii":"Kathu","lat":-27.7,"lng":23.05,"country":"South Africa","iso2":"ZA","iso3":"ZAF","admin_name":"Northern Cape","capital":"","population":11510},{"city":"Doukombo","city_ascii":"Doukombo","lat":14.355,"lng":-3.6561,"country":"Mali","iso2":"ML","iso3":"MLI","admin_name":"Mopti","capital":"","population":11510},{"city":"Sagada","city_ascii":"Sagada","lat":17.0842,"lng":120.9008,"country":"Philippines","iso2":"PH","iso3":"PHL","admin_name":"Mountain","capital":"","population":11510},{"city":"Nova Odesa","city_ascii":"Nova Odesa","lat":47.3097,"lng":31.7792,"country":"Ukraine","iso2":"UA","iso3":"UKR","admin_name":"Mykolaivska Oblast","capital":"minor","population":11510},{"city":"Coronel Dorrego","city_ascii":"Coronel Dorrego","lat":-38.7,"lng":-61.2667,"country":"Argentina","iso2":"AR","iso3":"ARG","admin_name":"Buenos Aires","capital":"minor","population":11510},{"city":"Belp","city_ascii":"Belp","lat":46.8833,"lng":7.5,"country":"Switzerland","iso2":"CH","iso3":"CHE","admin_name":"Bern","capital":"","population":11510},{"city":"San Lázaro","city_ascii":"San Lazaro","lat":-22.1083,"lng":-57.97,"country":"Paraguay","iso2":"PY","iso3":"PRY","admin_name":"Concepción","capital":"","population":11509},{"city":"Pākkam","city_ascii":"Pakkam","lat":13.1436,"lng":80.028,"country":"India","iso2":"IN","iso3":"IND","admin_name":"Tamil Nādu","capital":"","population":11509},{"city":"Piprāhi","city_ascii":"Piprahi","lat":26.5871,"lng":86.3773,"country":"India","iso2":"IN","iso3":"IND","admin_name":"Bihār","capital":"","population":11509},{"city":"Żejtun","city_ascii":"Zejtun","lat":35.8556,"lng":14.5333,"country":"Malta","iso2":"MT","iso3":"MLT","admin_name":"Żejtun","capital":"admin","population":11508},{"city":"Newcastle","city_ascii":"Newcastle","lat":35.2401,"lng":-97.5995,"country":"United States","iso2":"US","iso3":"USA","admin_name":"Oklahoma","capital":"","population":11508},{"city":"Sultānpur","city_ascii":"Sultanpur","lat":23.1381,"lng":77.934,"country":"India","iso2":"IN","iso3":"IND","admin_name":"Madhya Pradesh","capital":"","population":11507},{"city":"Xuân Trùng","city_ascii":"Xuan Trung","lat":21.05,"lng":105.2833,"country":"Vietnam","iso2":"VN","iso3":"VNM","admin_name":"Phú Thọ","capital":"","population":11506},{"city":"Burley","city_ascii":"Burley","lat":42.5379,"lng":-113.7926,"country":"United States","iso2":"US","iso3":"USA","admin_name":"Idaho","capital":"","population":11506},{"city":"Radnevo","city_ascii":"Radnevo","lat":42.3,"lng":25.9333,"country":"Bulgaria","iso2":"BG","iso3":"BGR","admin_name":"Stara Zagora","capital":"","population":11504},{"city":"Four Corners","city_ascii":"Four Corners","lat":29.6705,"lng":-95.6596,"country":"United States","iso2":"US","iso3":"USA","admin_name":"Texas","capital":"","population":11504},{"city":"Badou","city_ascii":"Badou","lat":7.5833,"lng":0.6,"country":"Togo","iso2":"TG","iso3":"TGO","admin_name":"Plateaux","capital":"","population":11503},{"city":"Hàng Trạm","city_ascii":"Hang Tram","lat":20.3944,"lng":105.6222,"country":"Vietnam","iso2":"VN","iso3":"VNM","admin_name":"Hòa Bình","capital":"minor","population":11503},{"city":"Slatina","city_ascii":"Slatina","lat":45.7022,"lng":17.7011,"country":"Croatia","iso2":"HR","iso3":"HRV","admin_name":"Virovitičko-Podravska Županija","capital":"minor","population":11503},{"city":"Al M’aziz","city_ascii":"Al M'aziz","lat":33.6667,"lng":-6.3167,"country":"Morocco","iso2":"MA","iso3":"MAR","admin_name":"Rabat-Salé-Kénitra","capital":"","population":11502},{"city":"Estiva","city_ascii":"Estiva","lat":-22.4628,"lng":-46.0169,"country":"Brazil","iso2":"BR","iso3":"BRA","admin_name":"Minas Gerais","capital":"","population":11502},{"city":"Gospić","city_ascii":"Gospic","lat":44.546,"lng":15.375,"country":"Croatia","iso2":"HR","iso3":"HRV","admin_name":"Ličko-Senjska Županija","capital":"admin","population":11502},{"city":"Mexico","city_ascii":"Mexico","lat":39.1625,"lng":-91.8712,"country":"United States","iso2":"US","iso3":"USA","admin_name":"Missouri","capital":"","population":11502},{"city":"Dzouz","city_ascii":"Dzouz","lat":31.89,"lng":-7.32,"country":"Morocco","iso2":"MA","iso3":"MAR","admin_name":"Marrakech-Safi","capital":"","population":11501},{"city":"Beniel","city_ascii":"Beniel","lat":38.0464,"lng":-1.0014,"country":"Spain","iso2":"ES","iso3":"ESP","admin_name":"Murcia","capital":"","population":11501},{"city":"Fort Morgan","city_ascii":"Fort Morgan","lat":40.2537,"lng":-103.7903,"country":"United States","iso2":"US","iso3":"USA","admin_name":"Colorado","capital":"","population":11501},{"city":"Liubashivka","city_ascii":"Liubashivka","lat":47.8358,"lng":30.2642,"country":"Ukraine","iso2":"UA","iso3":"UKR","admin_name":"Odeska Oblast","capital":"minor","population":11500},{"city":"Dang‘ara","city_ascii":"Dang`ara","lat":40.5831,"lng":70.91,"country":"Uzbekistan","iso2":"UZ","iso3":"UZB","admin_name":"Farg‘ona","capital":"minor","population":11500},{"city":"Liman","city_ascii":"Liman","lat":38.8733,"lng":48.8139,"country":"Azerbaijan","iso2":"AZ","iso3":"AZE","admin_name":"Lənkəran","capital":"","population":11500},{"city":"Strombeek-Bever","city_ascii":"Strombeek-Bever","lat":50.91,"lng":4.35,"country":"Belgium","iso2":"BE","iso3":"BEL","admin_name":"Brussels-Capital Region","capital":"","population":11500},{"city":"Kaboua","city_ascii":"Kaboua","lat":8.25,"lng":2.6833,"country":"Benin","iso2":"BJ","iso3":"BEN","admin_name":"Collines","capital":"","population":11500},{"city":"Unterföhring","city_ascii":"Unterfohring","lat":48.2,"lng":11.65,"country":"Germany","iso2":"DE","iso3":"DEU","admin_name":"Bavaria","capital":"","population":11500},{"city":"Ostbevern","city_ascii":"Ostbevern","lat":52.0389,"lng":7.8458,"country":"Germany","iso2":"DE","iso3":"DEU","admin_name":"North Rhine-Westphalia","capital":"","population":11500},{"city":"Elgóibar","city_ascii":"Elgoibar","lat":43.2142,"lng":-2.4169,"country":"Spain","iso2":"ES","iso3":"ESP","admin_name":"Basque Country","capital":"","population":11500},{"city":"Lençóis","city_ascii":"Lencois","lat":-12.5628,"lng":-41.39,"country":"Brazil","iso2":"BR","iso3":"BRA","admin_name":"Bahia","capital":"","population":11499},{"city":"’Aïn Roua","city_ascii":"'Ain Roua","lat":36.3344,"lng":5.1806,"country":"Algeria","iso2":"DZ","iso3":"DZA","admin_name":"Sétif","capital":"","population":11499},{"city":"Devikāpuram","city_ascii":"Devikapuram","lat":12.4744,"lng":79.3475,"country":"India","iso2":"IN","iso3":"IND","admin_name":"Tamil Nādu","capital":"","population":11499},{"city":"Taviano","city_ascii":"Taviano","lat":39.9833,"lng":18.0833,"country":"Italy","iso2":"IT","iso3":"ITA","admin_name":"Puglia","capital":"","population":11499},{"city":"Nova Ubiratã","city_ascii":"Nova Ubirata","lat":-12.9908,"lng":-55.255,"country":"Brazil","iso2":"BR","iso3":"BRA","admin_name":"Mato Grosso","capital":"minor","population":11498},{"city":"Rabat","city_ascii":"Rabat","lat":35.8817,"lng":14.3989,"country":"Malta","iso2":"MT","iso3":"MLT","admin_name":"Rabat","capital":"admin","population":11497},{"city":"Barhi","city_ascii":"Barhi","lat":26.5714,"lng":86.0903,"country":"India","iso2":"IN","iso3":"IND","admin_name":"Bihār","capital":"","population":11497},{"city":"Chauny","city_ascii":"Chauny","lat":49.6164,"lng":3.22,"country":"France","iso2":"FR","iso3":"FRA","admin_name":"Hauts-de-France","capital":"","population":11496},{"city":"Baruāri","city_ascii":"Baruari","lat":26.0305,"lng":86.5965,"country":"India","iso2":"IN","iso3":"IND","admin_name":"Bihār","capital":"","population":11495},{"city":"Lovington","city_ascii":"Lovington","lat":32.9128,"lng":-103.3276,"country":"United States","iso2":"US","iso3":"USA","admin_name":"New Mexico","capital":"","population":11495},{"city":"Bouabout","city_ascii":"Bouabout","lat":31.2667,"lng":-9.1833,"country":"Morocco","iso2":"MA","iso3":"MAR","admin_name":"Marrakech-Safi","capital":"","population":11494},{"city":"Sonāpur","city_ascii":"Sonapur","lat":26.3716,"lng":87.2162,"country":"India","iso2":"IN","iso3":"IND","admin_name":"Bihār","capital":"","population":11494},{"city":"Kemigawa","city_ascii":"Kemigawa","lat":35.6514,"lng":140.0662,"country":"Japan","iso2":"JP","iso3":"JPN","admin_name":"Chiba","capital":"","population":11494},{"city":"Elk City","city_ascii":"Elk City","lat":35.3862,"lng":-99.4301,"country":"United States","iso2":"US","iso3":"USA","admin_name":"Oklahoma","capital":"","population":11494},{"city":"Kamalāpuram","city_ascii":"Kamalapuram","lat":18.268,"lng":80.489,"country":"India","iso2":"IN","iso3":"IND","admin_name":"Telangāna","capital":"","population":11493},{"city":"Cherdakly","city_ascii":"Cherdakly","lat":54.3591,"lng":48.8487,"country":"Russia","iso2":"RU","iso3":"RUS","admin_name":"Ul’yanovskaya Oblast’","capital":"","population":11492},{"city":"Mercogliano","city_ascii":"Mercogliano","lat":40.9258,"lng":14.7428,"country":"Italy","iso2":"IT","iso3":"ITA","admin_name":"Campania","capital":"","population":11492},{"city":"Oskaloosa","city_ascii":"Oskaloosa","lat":41.2922,"lng":-92.6404,"country":"United States","iso2":"US","iso3":"USA","admin_name":"Iowa","capital":"","population":11492},{"city":"Aginskoye","city_ascii":"Aginskoye","lat":51.1031,"lng":114.5228,"country":"Russia","iso2":"RU","iso3":"RUS","admin_name":"Zabaykal’skiy Kray","capital":"","population":11491},{"city":"Zeuthen","city_ascii":"Zeuthen","lat":52.3667,"lng":13.6167,"country":"Germany","iso2":"DE","iso3":"DEU","admin_name":"Brandenburg","capital":"","population":11491},{"city":"Atmākūr","city_ascii":"Atmakur","lat":18.0712,"lng":79.736,"country":"India","iso2":"IN","iso3":"IND","admin_name":"Telangāna","capital":"","population":11491},{"city":"Montmagny","city_ascii":"Montmagny","lat":46.9833,"lng":-70.55,"country":"Canada","iso2":"CA","iso3":"CAN","admin_name":"Quebec","capital":"","population":11491},{"city":"Ihumwa","city_ascii":"Ihumwa","lat":-6.1667,"lng":35.8833,"country":"Tanzania","iso2":"TZ","iso3":"TZA","admin_name":"Dodoma","capital":"","population":11490},{"city":"Guayabal","city_ascii":"Guayabal","lat":4.9633,"lng":-74.9056,"country":"Colombia","iso2":"CO","iso3":"COL","admin_name":"Tolima","capital":"minor","population":11490},{"city":"Wittingen","city_ascii":"Wittingen","lat":52.7167,"lng":10.7333,"country":"Germany","iso2":"DE","iso3":"DEU","admin_name":"Lower Saxony","capital":"","population":11489},{"city":"Mount Fletcher","city_ascii":"Mount Fletcher","lat":-30.692,"lng":28.503,"country":"South Africa","iso2":"ZA","iso3":"ZAF","admin_name":"Eastern Cape","capital":"","population":11488},{"city":"Tawnza","city_ascii":"Tawnza","lat":32.0944,"lng":-6.6025,"country":"Morocco","iso2":"MA","iso3":"MAR","admin_name":"Béni Mellal-Khénifra","capital":"","population":11488},{"city":"Oxelösund","city_ascii":"Oxelosund","lat":58.6667,"lng":17.1167,"country":"Sweden","iso2":"SE","iso3":"SWE","admin_name":"Södermanland","capital":"minor","population":11488},{"city":"Coswig","city_ascii":"Coswig","lat":51.8833,"lng":12.4333,"country":"Germany","iso2":"DE","iso3":"DEU","admin_name":"Saxony-Anhalt","capital":"","population":11488},{"city":"Salisbury","city_ascii":"Salisbury","lat":40.038,"lng":-75.9961,"country":"United States","iso2":"US","iso3":"USA","admin_name":"Pennsylvania","capital":"","population":11488},{"city":"Sathiāla","city_ascii":"Sathiala","lat":31.555,"lng":75.2656,"country":"India","iso2":"IN","iso3":"IND","admin_name":"Punjab","capital":"","population":11486},{"city":"Farmington","city_ascii":"Farmington","lat":42.4614,"lng":-83.3784,"country":"United States","iso2":"US","iso3":"USA","admin_name":"Michigan","capital":"","population":11486},{"city":"Ridgefield","city_ascii":"Ridgefield","lat":45.8114,"lng":-122.7051,"country":"United States","iso2":"US","iso3":"USA","admin_name":"Washington","capital":"","population":11486},{"city":"Moyamba","city_ascii":"Moyamba","lat":8.1606,"lng":-12.4333,"country":"Sierra Leone","iso2":"SL","iso3":"SLE","admin_name":"Southern","capital":"","population":11485},{"city":"Lokhvytsya","city_ascii":"Lokhvytsya","lat":50.3598,"lng":33.2723,"country":"Ukraine","iso2":"UA","iso3":"UKR","admin_name":"Poltavska Oblast","capital":"minor","population":11485},{"city":"Tinogasta","city_ascii":"Tinogasta","lat":-28.0667,"lng":-67.5667,"country":"Argentina","iso2":"AR","iso3":"ARG","admin_name":"Catamarca","capital":"minor","population":11485},{"city":"Nový Bor","city_ascii":"Novy Bor","lat":50.7553,"lng":14.5536,"country":"Czechia","iso2":"CZ","iso3":"CZE","admin_name":"Liberecký Kraj","capital":"","population":11485},{"city":"Westerkappeln","city_ascii":"Westerkappeln","lat":52.3806,"lng":7.6,"country":"Germany","iso2":"DE","iso3":"DEU","admin_name":"North Rhine-Westphalia","capital":"","population":11485},{"city":"San Gregorio di Catania","city_ascii":"San Gregorio di Catania","lat":37.5667,"lng":15.1167,"country":"Italy","iso2":"IT","iso3":"ITA","admin_name":"Sicilia","capital":"","population":11485},{"city":"Leon Valley","city_ascii":"Leon Valley","lat":29.4954,"lng":-98.6143,"country":"United States","iso2":"US","iso3":"USA","admin_name":"Texas","capital":"","population":11485},{"city":"Revúca","city_ascii":"Revuca","lat":48.6831,"lng":20.1133,"country":"Slovakia","iso2":"SK","iso3":"SVK","admin_name":"Banská Bystrica","capital":"minor","population":11484},{"city":"Diósd","city_ascii":"Diosd","lat":47.4042,"lng":18.9458,"country":"Hungary","iso2":"HU","iso3":"HUN","admin_name":"Pest","capital":"","population":11484},{"city":"Bānk","city_ascii":"Bank","lat":24.9539,"lng":84.1928,"country":"India","iso2":"IN","iso3":"IND","admin_name":"Bihār","capital":"","population":11484},{"city":"Peringōttukurusshi","city_ascii":"Peringottukurusshi","lat":10.7536,"lng":76.4883,"country":"India","iso2":"IN","iso3":"IND","admin_name":"Kerala","capital":"","population":11482},{"city":"Yakymivka","city_ascii":"Yakymivka","lat":46.7,"lng":35.1667,"country":"Ukraine","iso2":"UA","iso3":"UKR","admin_name":"Zaporizka Oblast","capital":"minor","population":11481},{"city":"Gaurihar Khāliqnagar","city_ascii":"Gaurihar Khaliqnagar","lat":25.9356,"lng":85.4671,"country":"India","iso2":"IN","iso3":"IND","admin_name":"Bihār","capital":"","population":11481},{"city":"Healdsburg","city_ascii":"Healdsburg","lat":38.6224,"lng":-122.8651,"country":"United States","iso2":"US","iso3":"USA","admin_name":"California","capital":"","population":11481},{"city":"Fatehpur Shāhbāz","city_ascii":"Fatehpur Shahbaz","lat":25.5698,"lng":85.3437,"country":"India","iso2":"IN","iso3":"IND","admin_name":"Bihār","capital":"","population":11480},{"city":"Alto Alegre dos Parecis","city_ascii":"Alto Alegre dos Parecis","lat":-12.1278,"lng":-61.8508,"country":"Brazil","iso2":"BR","iso3":"BRA","admin_name":"Rondônia","capital":"minor","population":11479},{"city":"Myronivka","city_ascii":"Myronivka","lat":49.65,"lng":30.9833,"country":"Ukraine","iso2":"UA","iso3":"UKR","admin_name":"Kyivska Oblast","capital":"minor","population":11478},{"city":"Jamsaut","city_ascii":"Jamsaut","lat":25.61,"lng":85.0148,"country":"India","iso2":"IN","iso3":"IND","admin_name":"Bihār","capital":"","population":11478},{"city":"Pānāpur Langa","city_ascii":"Panapur Langa","lat":25.723,"lng":85.2878,"country":"India","iso2":"IN","iso3":"IND","admin_name":"Bihār","capital":"","population":11478},{"city":"Lindon","city_ascii":"Lindon","lat":40.3414,"lng":-111.7187,"country":"United States","iso2":"US","iso3":"USA","admin_name":"Utah","capital":"","population":11478},{"city":"Alfonsine","city_ascii":"Alfonsine","lat":44.5,"lng":12.05,"country":"Italy","iso2":"IT","iso3":"ITA","admin_name":"Emilia-Romagna","capital":"","population":11477},{"city":"East Glenville","city_ascii":"East Glenville","lat":42.8648,"lng":-73.9256,"country":"United States","iso2":"US","iso3":"USA","admin_name":"New York","capital":"","population":11477},{"city":"Palestina","city_ascii":"Palestina","lat":-20.39,"lng":-49.4331,"country":"Brazil","iso2":"BR","iso3":"BRA","admin_name":"São Paulo","capital":"","population":11476},{"city":"Bek-Abad","city_ascii":"Bek-Abad","lat":40.8472,"lng":72.975,"country":"Kyrgyzstan","iso2":"KG","iso3":"KGZ","admin_name":"Jalal-Abad","capital":"","population":11476},{"city":"Rača","city_ascii":"Raca","lat":44.2333,"lng":20.9833,"country":"Serbia","iso2":"RS","iso3":"SRB","admin_name":"Rača","capital":"admin","population":11475},{"city":"Sárbogárd","city_ascii":"Sarbogard","lat":46.8878,"lng":18.6193,"country":"Hungary","iso2":"HU","iso3":"HUN","admin_name":"Fejér","capital":"minor","population":11475},{"city":"Satyavedu","city_ascii":"Satyavedu","lat":13.437,"lng":79.956,"country":"India","iso2":"IN","iso3":"IND","admin_name":"Andhra Pradesh","capital":"","population":11474},{"city":"Kuriyama","city_ascii":"Kuriyama","lat":43.05,"lng":141.7833,"country":"Japan","iso2":"JP","iso3":"JPN","admin_name":"Hokkaidō","capital":"","population":11474},{"city":"Götzis","city_ascii":"Gotzis","lat":47.3331,"lng":9.6333,"country":"Austria","iso2":"AT","iso3":"AUT","admin_name":"Vorarlberg","capital":"","population":11473},{"city":"Tadley","city_ascii":"Tadley","lat":51.3506,"lng":-1.1376,"country":"United Kingdom","iso2":"GB","iso3":"GBR","admin_name":"Hampshire","capital":"","population":11473},{"city":"Kavaratti","city_ascii":"Kavaratti","lat":10.5626,"lng":72.6369,"country":"India","iso2":"IN","iso3":"IND","admin_name":"Lakshadweep","capital":"admin","population":11473},{"city":"Valea Adâncă","city_ascii":"Valea Adanca","lat":47.1256,"lng":27.5565,"country":"Romania","iso2":"RO","iso3":"ROU","admin_name":"Iaşi","capital":"","population":11472},{"city":"Lebon Régis","city_ascii":"Lebon Regis","lat":-26.9333,"lng":-50.7,"country":"Brazil","iso2":"BR","iso3":"BRA","admin_name":"Santa Catarina","capital":"","population":11472},{"city":"Vengikkal","city_ascii":"Vengikkal","lat":12.2642,"lng":79.0675,"country":"India","iso2":"IN","iso3":"IND","admin_name":"Tamil Nādu","capital":"","population":11472},{"city":"Poldasht","city_ascii":"Poldasht","lat":39.3447,"lng":45.0681,"country":"Iran","iso2":"IR","iso3":"IRN","admin_name":"Āz̄arbāyjān-e Gharbī","capital":"minor","population":11472},{"city":"Bath","city_ascii":"Bath","lat":42.3219,"lng":-77.3083,"country":"United States","iso2":"US","iso3":"USA","admin_name":"New York","capital":"","population":11472},{"city":"Sun Village","city_ascii":"Sun Village","lat":34.5596,"lng":-117.9558,"country":"United States","iso2":"US","iso3":"USA","admin_name":"California","capital":"","population":11472},{"city":"Gonubie","city_ascii":"Gonubie","lat":-32.943,"lng":28.008,"country":"South Africa","iso2":"ZA","iso3":"ZAF","admin_name":"Eastern Cape","capital":"","population":11471},{"city":"Pirangi","city_ascii":"Pirangi","lat":-21.0914,"lng":-48.6578,"country":"Brazil","iso2":"BR","iso3":"BRA","admin_name":"São Paulo","capital":"","population":11471},{"city":"Sinkolo","city_ascii":"Sinkolo","lat":12.0875,"lng":-5.55,"country":"Mali","iso2":"ML","iso3":"MLI","admin_name":"Sikasso","capital":"","population":11470},{"city":"Kishanganj","city_ascii":"Kishanganj","lat":25.6844,"lng":86.9509,"country":"India","iso2":"IN","iso3":"IND","admin_name":"Bihār","capital":"","population":11470},{"city":"Muna","city_ascii":"Muna","lat":20.48,"lng":-89.72,"country":"Mexico","iso2":"MX","iso3":"MEX","admin_name":"Yucatán","capital":"minor","population":11469},{"city":"El Ançor","city_ascii":"El Ancor","lat":35.6833,"lng":-0.8667,"country":"Algeria","iso2":"DZ","iso3":"DZA","admin_name":"Oran","capital":"","population":11469},{"city":"Mios","city_ascii":"Mios","lat":44.6058,"lng":-0.9356,"country":"France","iso2":"FR","iso3":"FRA","admin_name":"Nouvelle-Aquitaine","capital":"","population":11469},{"city":"Hœnheim","city_ascii":"Hoenheim","lat":48.625,"lng":7.7553,"country":"France","iso2":"FR","iso3":"FRA","admin_name":"Grand Est","capital":"","population":11469},{"city":"Kāri","city_ascii":"Kari","lat":24.8368,"lng":78.8665,"country":"India","iso2":"IN","iso3":"IND","admin_name":"Madhya Pradesh","capital":"","population":11469},{"city":"Arasūr","city_ascii":"Arasur","lat":11.0866,"lng":77.1146,"country":"India","iso2":"IN","iso3":"IND","admin_name":"Tamil Nādu","capital":"","population":11469},{"city":"Rupenaguntla","city_ascii":"Rupenaguntla","lat":16.3043,"lng":79.9991,"country":"India","iso2":"IN","iso3":"IND","admin_name":"Andhra Pradesh","capital":"","population":11469},{"city":"Shanmukhasundarapuram","city_ascii":"Shanmukhasundarapuram","lat":10.0065,"lng":77.5982,"country":"India","iso2":"IN","iso3":"IND","admin_name":"Tamil Nādu","capital":"","population":11469},{"city":"Vlasenica","city_ascii":"Vlasenica","lat":44.1833,"lng":18.9333,"country":"Bosnia and Herzegovina","iso2":"BA","iso3":"BIH","admin_name":"Srpska, Republika","capital":"minor","population":11467},{"city":"Cidade Gaúcha","city_ascii":"Cidade Gaucha","lat":-23.3667,"lng":-53.0167,"country":"Brazil","iso2":"BR","iso3":"BRA","admin_name":"Paraná","capital":"","population":11467},{"city":"Prudente de Morais","city_ascii":"Prudente de Morais","lat":-19.4819,"lng":-44.155,"country":"Brazil","iso2":"BR","iso3":"BRA","admin_name":"Minas Gerais","capital":"","population":11466},{"city":"Agamé","city_ascii":"Agame","lat":6.7333,"lng":1.7667,"country":"Benin","iso2":"BJ","iso3":"BEN","admin_name":"Couffo","capital":"","population":11465},{"city":"Bhabānipur","city_ascii":"Bhabanipur","lat":24.7153,"lng":87.9227,"country":"India","iso2":"IN","iso3":"IND","admin_name":"West Bengal","capital":"","population":11465},{"city":"Ridgefield","city_ascii":"Ridgefield","lat":40.8313,"lng":-74.0147,"country":"United States","iso2":"US","iso3":"USA","admin_name":"New Jersey","capital":"","population":11465},{"city":"Fuller Heights","city_ascii":"Fuller Heights","lat":27.9227,"lng":-81.9978,"country":"United States","iso2":"US","iso3":"USA","admin_name":"Florida","capital":"","population":11462},{"city":"Ḑurumā","city_ascii":"Duruma","lat":24.6,"lng":46.1333,"country":"Saudi Arabia","iso2":"SA","iso3":"SAU","admin_name":"Ar Riyāḑ","capital":"","population":11461},{"city":"Mariehamn","city_ascii":"Mariehamn","lat":60.1,"lng":19.9333,"country":"Finland","iso2":"FI","iso3":"FIN","admin_name":"Åland","capital":"admin","population":11461},{"city":"Loran","city_ascii":"Loran","lat":33.8346,"lng":74.3312,"country":"India","iso2":"IN","iso3":"IND","admin_name":"Jammu and Kashmīr","capital":"","population":11461},{"city":"Ninga","city_ascii":"Ninga","lat":25.4616,"lng":86.0757,"country":"India","iso2":"IN","iso3":"IND","admin_name":"Bihār","capital":"","population":11461},{"city":"Kalakada","city_ascii":"Kalakada","lat":13.8167,"lng":78.8,"country":"India","iso2":"IN","iso3":"IND","admin_name":"Andhra Pradesh","capital":"","population":11461},{"city":"Rengāli","city_ascii":"Rengali","lat":21.646,"lng":84.0531,"country":"India","iso2":"IN","iso3":"IND","admin_name":"Odisha","capital":"","population":11460},{"city":"Kashaf","city_ascii":"Kashaf","lat":36.3678,"lng":59.5767,"country":"Iran","iso2":"IR","iso3":"IRN","admin_name":"Khorāsān-e Raẕavī","capital":"","population":11459},{"city":"Douar Trougout","city_ascii":"Douar Trougout","lat":35.18,"lng":-3.77,"country":"Morocco","iso2":"MA","iso3":"MAR","admin_name":"Oriental","capital":"","population":11458},{"city":"Libertad","city_ascii":"Libertad","lat":-34.6333,"lng":-56.6192,"country":"Uruguay","iso2":"UY","iso3":"URY","admin_name":"San José","capital":"","population":11458},{"city":"Vedène","city_ascii":"Vedene","lat":43.9783,"lng":4.9039,"country":"France","iso2":"FR","iso3":"FRA","admin_name":"Provence-Alpes-Côte d’Azur","capital":"","population":11457},{"city":"Eningen unter Achalm","city_ascii":"Eningen unter Achalm","lat":48.4831,"lng":9.2522,"country":"Germany","iso2":"DE","iso3":"DEU","admin_name":"Baden-Württemberg","capital":"","population":11456},{"city":"Fourmies","city_ascii":"Fourmies","lat":50.0181,"lng":4.0539,"country":"France","iso2":"FR","iso3":"FRA","admin_name":"Hauts-de-France","capital":"","population":11456},{"city":"Khāngāon","city_ascii":"Khangaon","lat":25.5146,"lng":84.7528,"country":"India","iso2":"IN","iso3":"IND","admin_name":"Bihār","capital":"","population":11456},{"city":"Maruttuvakkudi","city_ascii":"Maruttuvakkudi","lat":11.0153,"lng":79.4819,"country":"India","iso2":"IN","iso3":"IND","admin_name":"Tamil Nādu","capital":"","population":11455},{"city":"Burām","city_ascii":"Buram","lat":25.9739,"lng":86.3196,"country":"India","iso2":"IN","iso3":"IND","admin_name":"Bihār","capital":"","population":11455},{"city":"Vitry-le-François","city_ascii":"Vitry-le-Francois","lat":48.7256,"lng":4.5853,"country":"France","iso2":"FR","iso3":"FRA","admin_name":"Grand Est","capital":"minor","population":11454},{"city":"Culcheth","city_ascii":"Culcheth","lat":53.4517,"lng":-2.5218,"country":"United Kingdom","iso2":"GB","iso3":"GBR","admin_name":"Warrington","capital":"","population":11454},{"city":"Shingbwiyang","city_ascii":"Shingbwiyang","lat":26.6667,"lng":96.2167,"country":"Burma","iso2":"MM","iso3":"MMR","admin_name":"Kachin State","capital":"","population":11453},{"city":"Mogilno","city_ascii":"Mogilno","lat":52.65,"lng":17.95,"country":"Poland","iso2":"PL","iso3":"POL","admin_name":"Kujawsko-Pomorskie","capital":"minor","population":11453},{"city":"Egelsbach","city_ascii":"Egelsbach","lat":49.9667,"lng":8.6667,"country":"Germany","iso2":"DE","iso3":"DEU","admin_name":"Hesse","capital":"","population":11452},{"city":"Pike Creek Valley","city_ascii":"Pike Creek Valley","lat":39.7294,"lng":-75.6989,"country":"United States","iso2":"US","iso3":"USA","admin_name":"Delaware","capital":"","population":11452},{"city":"Ahlaf","city_ascii":"Ahlaf","lat":33.2833,"lng":-7.2,"country":"Morocco","iso2":"MA","iso3":"MAR","admin_name":"Casablanca-Settat","capital":"","population":11451},{"city":"Cocentaina","city_ascii":"Cocentaina","lat":38.745,"lng":-0.4406,"country":"Spain","iso2":"ES","iso3":"ESP","admin_name":"Valencia","capital":"","population":11451},{"city":"Chakwai","city_ascii":"Chakwai","lat":25.0543,"lng":85.662,"country":"India","iso2":"IN","iso3":"IND","admin_name":"Bihār","capital":"","population":11451},{"city":"Wilton Manors","city_ascii":"Wilton Manors","lat":26.1593,"lng":-80.1395,"country":"United States","iso2":"US","iso3":"USA","admin_name":"Florida","capital":"","population":11451},{"city":"Pontiac","city_ascii":"Pontiac","lat":40.8894,"lng":-88.6409,"country":"United States","iso2":"US","iso3":"USA","admin_name":"Illinois","capital":"","population":11451},{"city":"Bellegarde-sur-Valserine","city_ascii":"Bellegarde-sur-Valserine","lat":46.1083,"lng":5.8267,"country":"France","iso2":"FR","iso3":"FRA","admin_name":"Auvergne-Rhône-Alpes","capital":"","population":11450},{"city":"Jódar","city_ascii":"Jodar","lat":37.8333,"lng":-3.35,"country":"Spain","iso2":"ES","iso3":"ESP","admin_name":"Andalusia","capital":"","population":11449},{"city":"Cantley","city_ascii":"Cantley","lat":45.5667,"lng":-75.7833,"country":"Canada","iso2":"CA","iso3":"CAN","admin_name":"Quebec","capital":"","population":11449},{"city":"Esmoriz","city_ascii":"Esmoriz","lat":40.955,"lng":-8.627,"country":"Portugal","iso2":"PT","iso3":"PRT","admin_name":"Aveiro","capital":"","population":11448},{"city":"Paro","city_ascii":"Paro","lat":27.4333,"lng":89.4167,"country":"Bhutan","iso2":"BT","iso3":"BTN","admin_name":"Paro","capital":"admin","population":11448},{"city":"Chitauria","city_ascii":"Chitauria","lat":25.4869,"lng":87.5511,"country":"India","iso2":"IN","iso3":"IND","admin_name":"Bihār","capital":"","population":11447},{"city":"Florestópolis","city_ascii":"Florestopolis","lat":-22.8667,"lng":-51.4,"country":"Brazil","iso2":"BR","iso3":"BRA","admin_name":"Paraná","capital":"","population":11446},{"city":"Ouro Branco","city_ascii":"Ouro Branco","lat":-9.1667,"lng":-37.3567,"country":"Brazil","iso2":"BR","iso3":"BRA","admin_name":"Alagoas","capital":"minor","population":11446},{"city":"Gräfenhainichen","city_ascii":"Grafenhainichen","lat":51.7167,"lng":12.4333,"country":"Germany","iso2":"DE","iso3":"DEU","admin_name":"Saxony-Anhalt","capital":"","population":11446},{"city":"Sidi Moussa Ben Ali","city_ascii":"Sidi Moussa Ben Ali","lat":33.5594,"lng":-7.3817,"country":"Morocco","iso2":"MA","iso3":"MAR","admin_name":"Casablanca-Settat","capital":"","population":11445},{"city":"Kirchhundem","city_ascii":"Kirchhundem","lat":51.0667,"lng":8.0833,"country":"Germany","iso2":"DE","iso3":"DEU","admin_name":"North Rhine-Westphalia","capital":"","population":11445},{"city":"Odatturai","city_ascii":"Odatturai","lat":11.4577,"lng":77.515,"country":"India","iso2":"IN","iso3":"IND","admin_name":"Tamil Nādu","capital":"","population":11445},{"city":"El Khemis des Beni Chegdal","city_ascii":"El Khemis des Beni Chegdal","lat":32.4441,"lng":-6.9551,"country":"Morocco","iso2":"MA","iso3":"MAR","admin_name":"Béni Mellal-Khénifra","capital":"","population":11444},{"city":"Ban Saeo","city_ascii":"Ban Saeo","lat":20.2158,"lng":100.225,"country":"Thailand","iso2":"TH","iso3":"THA","admin_name":"Chiang Rai","capital":"","population":11444},{"city":"Satuek","city_ascii":"Satuek","lat":15.3008,"lng":103.3013,"country":"Thailand","iso2":"TH","iso3":"THA","admin_name":"Buri Ram","capital":"minor","population":11444},{"city":"Montanhas","city_ascii":"Montanhas","lat":-6.4833,"lng":-35.3,"country":"Brazil","iso2":"BR","iso3":"BRA","admin_name":"Rio Grande do Norte","capital":"minor","population":11444},{"city":"Trostberg an der Alz","city_ascii":"Trostberg an der Alz","lat":48.0167,"lng":12.55,"country":"Germany","iso2":"DE","iso3":"DEU","admin_name":"Bavaria","capital":"","population":11444},{"city":"Baroni Khurd","city_ascii":"Baroni Khurd","lat":25.6852,"lng":78.3746,"country":"India","iso2":"IN","iso3":"IND","admin_name":"Madhya Pradesh","capital":"","population":11444},{"city":"North Wantagh","city_ascii":"North Wantagh","lat":40.6983,"lng":-73.5086,"country":"United States","iso2":"US","iso3":"USA","admin_name":"New York","capital":"","population":11444},{"city":"Covington","city_ascii":"Covington","lat":30.481,"lng":-90.1122,"country":"United States","iso2":"US","iso3":"USA","admin_name":"Louisiana","capital":"","population":11444},{"city":"Sidéradougou","city_ascii":"Sideradougou","lat":10.6876,"lng":-4.2627,"country":"Burkina Faso","iso2":"BF","iso3":"BFA","admin_name":"Cascades","capital":"","population":11443},{"city":"Cumandá","city_ascii":"Cumanda","lat":-2.2058,"lng":-79.1339,"country":"Ecuador","iso2":"EC","iso3":"ECU","admin_name":"Cañar","capital":"","population":11442},{"city":"La Londe-les-Maures","city_ascii":"La Londe-les-Maures","lat":43.1381,"lng":6.2344,"country":"France","iso2":"FR","iso3":"FRA","admin_name":"Provence-Alpes-Côte d’Azur","capital":"","population":11442},{"city":"Milići","city_ascii":"Milici","lat":44.1661,"lng":19.075,"country":"Bosnia and Herzegovina","iso2":"BA","iso3":"BIH","admin_name":"Srpska, Republika","capital":"minor","population":11441},{"city":"New Garden","city_ascii":"New Garden","lat":39.8119,"lng":-75.7517,"country":"United States","iso2":"US","iso3":"USA","admin_name":"Pennsylvania","capital":"","population":11441},{"city":"University of California-Santa Barbara","city_ascii":"University of California-Santa Barbara","lat":34.4151,"lng":-119.8568,"country":"United States","iso2":"US","iso3":"USA","admin_name":"California","capital":"","population":11441},{"city":"Sonoita","city_ascii":"Sonoita","lat":31.8614,"lng":-112.8544,"country":"Mexico","iso2":"MX","iso3":"MEX","admin_name":"Sonora","capital":"minor","population":11440},{"city":"Enghien-les-Bains","city_ascii":"Enghien-les-Bains","lat":48.9697,"lng":2.3081,"country":"France","iso2":"FR","iso3":"FRA","admin_name":"Île-de-France","capital":"","population":11440},{"city":"Port Salerno","city_ascii":"Port Salerno","lat":27.1461,"lng":-80.1894,"country":"United States","iso2":"US","iso3":"USA","admin_name":"Florida","capital":"","population":11440},{"city":"Ajijic","city_ascii":"Ajijic","lat":20.3,"lng":-103.2833,"country":"Mexico","iso2":"MX","iso3":"MEX","admin_name":"Jalisco","capital":"","population":11439},{"city":"Dhalaa","city_ascii":"Dhalaa","lat":35.4611,"lng":7.5472,"country":"Algeria","iso2":"DZ","iso3":"DZA","admin_name":"Khenchela","capital":"","population":11439},{"city":"Erin","city_ascii":"Erin","lat":43.7667,"lng":-80.0667,"country":"Canada","iso2":"CA","iso3":"CAN","admin_name":"Ontario","capital":"","population":11439},{"city":"Amdel","city_ascii":"Amdel","lat":31.5617,"lng":-8.8944,"country":"Morocco","iso2":"MA","iso3":"MAR","admin_name":"Marrakech-Safi","capital":"","population":11438},{"city":"Varzobkala","city_ascii":"Varzobkala","lat":38.7667,"lng":68.8167,"country":"Tajikistan","iso2":"TJ","iso3":"TJK","admin_name":"Nohiyahoi Tobei Jumhurí","capital":"","population":11438},{"city":"Saubara","city_ascii":"Saubara","lat":-12.75,"lng":-38.75,"country":"Brazil","iso2":"BR","iso3":"BRA","admin_name":"Bahia","capital":"minor","population":11438},{"city":"Vlašim","city_ascii":"Vlasim","lat":49.7064,"lng":14.8989,"country":"Czechia","iso2":"CZ","iso3":"CZE","admin_name":"Středočeský Kraj","capital":"","population":11438},{"city":"Harsum","city_ascii":"Harsum","lat":52.2,"lng":9.95,"country":"Germany","iso2":"DE","iso3":"DEU","admin_name":"Lower Saxony","capital":"","population":11438},{"city":"Lendinara","city_ascii":"Lendinara","lat":45.085,"lng":11.6006,"country":"Italy","iso2":"IT","iso3":"ITA","admin_name":"Veneto","capital":"","population":11438},{"city":"Nikel","city_ascii":"Nikel","lat":69.4139,"lng":30.2319,"country":"Russia","iso2":"RU","iso3":"RUS","admin_name":"Murmanskaya Oblast’","capital":"minor","population":11437},{"city":"Caetanópolis","city_ascii":"Caetanopolis","lat":-19.295,"lng":-44.4189,"country":"Brazil","iso2":"BR","iso3":"BRA","admin_name":"Minas Gerais","capital":"","population":11435},{"city":"Gloucester City","city_ascii":"Gloucester City","lat":39.8924,"lng":-75.1172,"country":"United States","iso2":"US","iso3":"USA","admin_name":"New Jersey","capital":"","population":11435},{"city":"Campbellsville","city_ascii":"Campbellsville","lat":37.3445,"lng":-85.3511,"country":"United States","iso2":"US","iso3":"USA","admin_name":"Kentucky","capital":"","population":11434},{"city":"Egersund","city_ascii":"Egersund","lat":58.4497,"lng":6.0087,"country":"Norway","iso2":"NO","iso3":"NOR","admin_name":"Rogaland","capital":"minor","population":11433},{"city":"Puerto Rico","city_ascii":"Puerto Rico","lat":2.9383,"lng":-73.2083,"country":"Colombia","iso2":"CO","iso3":"COL","admin_name":"Meta","capital":"minor","population":11433},{"city":"Barahkurwa","city_ascii":"Barahkurwa","lat":26.146,"lng":86.9237,"country":"India","iso2":"IN","iso3":"IND","admin_name":"Bihār","capital":"","population":11433},{"city":"Gandhāri","city_ascii":"Gandhari","lat":18.3932,"lng":78.1174,"country":"India","iso2":"IN","iso3":"IND","admin_name":"Telangāna","capital":"","population":11432},{"city":"Woods Cross","city_ascii":"Woods Cross","lat":40.8731,"lng":-111.917,"country":"United States","iso2":"US","iso3":"USA","admin_name":"Utah","capital":"","population":11432},{"city":"Tlacolulan","city_ascii":"Tlacolulan","lat":19.6667,"lng":-97,"country":"Mexico","iso2":"MX","iso3":"MEX","admin_name":"Veracruz","capital":"minor","population":11431},{"city":"Hato Corozal","city_ascii":"Hato Corozal","lat":3.1833,"lng":-73.75,"country":"Colombia","iso2":"CO","iso3":"COL","admin_name":"Meta","capital":"","population":11431},{"city":"Méricourt","city_ascii":"Mericourt","lat":50.4031,"lng":2.8667,"country":"France","iso2":"FR","iso3":"FRA","admin_name":"Hauts-de-France","capital":"","population":11431},{"city":"Holyhead","city_ascii":"Holyhead","lat":53.309,"lng":-4.633,"country":"United Kingdom","iso2":"GB","iso3":"GBR","admin_name":"Isle of Anglesey","capital":"","population":11431},{"city":"Dobbs Ferry","city_ascii":"Dobbs Ferry","lat":41.0127,"lng":-73.8697,"country":"United States","iso2":"US","iso3":"USA","admin_name":"New York","capital":"","population":11431},{"city":"Greensburg","city_ascii":"Greensburg","lat":39.3518,"lng":-85.5028,"country":"United States","iso2":"US","iso3":"USA","admin_name":"Indiana","capital":"","population":11431},{"city":"Er Regueb","city_ascii":"Er Regueb","lat":34.8667,"lng":9.7833,"country":"Tunisia","iso2":"TN","iso3":"TUN","admin_name":"Sidi Bouzid","capital":"","population":11430},{"city":"Bad Schwalbach","city_ascii":"Bad Schwalbach","lat":50.1333,"lng":8.0667,"country":"Germany","iso2":"DE","iso3":"DEU","admin_name":"Hesse","capital":"minor","population":11430},{"city":"La Libertad","city_ascii":"La Libertad","lat":12.2167,"lng":-85.1667,"country":"Nicaragua","iso2":"NI","iso3":"NIC","admin_name":"Chontales","capital":"minor","population":11429},{"city":"Shāhpur","city_ascii":"Shahpur","lat":24.0312,"lng":84.0543,"country":"India","iso2":"IN","iso3":"IND","admin_name":"Jhārkhand","capital":"","population":11429},{"city":"Ramallo","city_ascii":"Ramallo","lat":-33.3167,"lng":-60.2,"country":"Argentina","iso2":"AR","iso3":"ARG","admin_name":"Buenos Aires","capital":"minor","population":11428},{"city":"Notre-Dame-de-l'Île-Perrot","city_ascii":"Notre-Dame-de-l'Ile-Perrot","lat":45.3667,"lng":-73.9333,"country":"Canada","iso2":"CA","iso3":"CAN","admin_name":"Quebec","capital":"","population":11427},{"city":"San José de Guaribe","city_ascii":"San Jose de Guaribe","lat":9.8602,"lng":-65.8131,"country":"Venezuela","iso2":"VE","iso3":"VEN","admin_name":"Guárico","capital":"minor","population":11426},{"city":"Mogogelo","city_ascii":"Mogogelo","lat":-25.354,"lng":28.138,"country":"South Africa","iso2":"ZA","iso3":"ZAF","admin_name":"North West","capital":"","population":11425},{"city":"Kumari","city_ascii":"Kumari","lat":25.6564,"lng":87.7112,"country":"India","iso2":"IN","iso3":"IND","admin_name":"Bihār","capital":"","population":11425},{"city":"Stradella","city_ascii":"Stradella","lat":45.0833,"lng":9.3,"country":"Italy","iso2":"IT","iso3":"ITA","admin_name":"Lombardy","capital":"","population":11425},{"city":"Koori","city_ascii":"Koori","lat":37.8494,"lng":140.5164,"country":"Japan","iso2":"JP","iso3":"JPN","admin_name":"Fukushima","capital":"","population":11425},{"city":"Dorog","city_ascii":"Dorog","lat":47.7194,"lng":18.7292,"country":"Hungary","iso2":"HU","iso3":"HUN","admin_name":"Komárom-Esztergom","capital":"","population":11424},{"city":"Kuse","city_ascii":"Kuse","lat":35.0759,"lng":133.7534,"country":"Japan","iso2":"JP","iso3":"JPN","admin_name":"Okayama","capital":"","population":11424},{"city":"Pallipattu","city_ascii":"Pallipattu","lat":13.3361,"lng":79.4413,"country":"India","iso2":"IN","iso3":"IND","admin_name":"Andhra Pradesh","capital":"","population":11423},{"city":"Ain Legdah","city_ascii":"Ain Legdah","lat":34.1667,"lng":-4.5,"country":"Morocco","iso2":"MA","iso3":"MAR","admin_name":"Fès-Meknès","capital":"","population":11422},{"city":"Malo Crniće","city_ascii":"Malo Crnice","lat":44.5667,"lng":21.2833,"country":"Serbia","iso2":"RS","iso3":"SRB","admin_name":"Malo Crniće","capital":"admin","population":11422},{"city":"Höhenkirchen-Siegertsbrunn","city_ascii":"Hohenkirchen-Siegertsbrunn","lat":48.0167,"lng":11.7333,"country":"Germany","iso2":"DE","iso3":"DEU","admin_name":"Bavaria","capital":"","population":11422},{"city":"Bridgeton","city_ascii":"Bridgeton","lat":38.7673,"lng":-90.4275,"country":"United States","iso2":"US","iso3":"USA","admin_name":"Missouri","capital":"","population":11422},{"city":"Vakhrusheve","city_ascii":"Vakhrusheve","lat":48.1667,"lng":38.8333,"country":"Ukraine","iso2":"UA","iso3":"UKR","admin_name":"Luhanska Oblast","capital":"","population":11421},{"city":"Nemyriv","city_ascii":"Nemyriv","lat":48.9667,"lng":28.85,"country":"Ukraine","iso2":"UA","iso3":"UKR","admin_name":"Vinnytska Oblast","capital":"minor","population":11421},{"city":"Velimeşe","city_ascii":"Velimese","lat":41.25,"lng":27.8833,"country":"Turkey","iso2":"TR","iso3":"TUR","admin_name":"Tekirdağ","capital":"","population":11420},{"city":"Laqraqra","city_ascii":"Laqraqra","lat":32.4333,"lng":-7.4333,"country":"Morocco","iso2":"MA","iso3":"MAR","admin_name":"Marrakech-Safi","capital":"","population":11419},{"city":"Kinattukkadavu","city_ascii":"Kinattukkadavu","lat":10.8225,"lng":77.0196,"country":"India","iso2":"IN","iso3":"IND","admin_name":"Tamil Nādu","capital":"","population":11419},{"city":"Hanover","city_ascii":"Hanover","lat":41.2012,"lng":-75.929,"country":"United States","iso2":"US","iso3":"USA","admin_name":"Pennsylvania","capital":"","population":11419},{"city":"Dautphe","city_ascii":"Dautphe","lat":50.8333,"lng":8.55,"country":"Germany","iso2":"DE","iso3":"DEU","admin_name":"Hesse","capital":"","population":11418},{"city":"Kondhāli","city_ascii":"Kondhali","lat":21.1383,"lng":78.6408,"country":"India","iso2":"IN","iso3":"IND","admin_name":"Mahārāshtra","capital":"","population":11418},{"city":"Sorsk","city_ascii":"Sorsk","lat":54.0333,"lng":90.25,"country":"Russia","iso2":"RU","iso3":"RUS","admin_name":"Khakasiya","capital":"","population":11416},{"city":"Haydock","city_ascii":"Haydock","lat":53.4678,"lng":-2.6609,"country":"United Kingdom","iso2":"GB","iso3":"GBR","admin_name":"St. Helens","capital":"","population":11416},{"city":"Casièr","city_ascii":"Casier","lat":45.65,"lng":12.3,"country":"Italy","iso2":"IT","iso3":"ITA","admin_name":"Veneto","capital":"","population":11416},{"city":"Sanniquellie","city_ascii":"Sanniquellie","lat":7.3622,"lng":-8.7061,"country":"Liberia","iso2":"LR","iso3":"LBR","admin_name":"Nimba","capital":"admin","population":11415},{"city":"Yuryuzan","city_ascii":"Yuryuzan","lat":54.8667,"lng":58.4333,"country":"Russia","iso2":"RU","iso3":"RUS","admin_name":"Chelyabinskaya Oblast’","capital":"","population":11415},{"city":"Qax","city_ascii":"Qax","lat":41.4225,"lng":46.9242,"country":"Azerbaijan","iso2":"AZ","iso3":"AZE","admin_name":"Qax","capital":"admin","population":11415},{"city":"Naliya","city_ascii":"Naliya","lat":23.2611,"lng":68.8267,"country":"India","iso2":"IN","iso3":"IND","admin_name":"Gujarāt","capital":"","population":11415},{"city":"Bytča","city_ascii":"Bytca","lat":49.2242,"lng":18.5642,"country":"Slovakia","iso2":"SK","iso3":"SVK","admin_name":"Žilina","capital":"minor","population":11414},{"city":"Cadolzburg","city_ascii":"Cadolzburg","lat":49.45,"lng":10.8667,"country":"Germany","iso2":"DE","iso3":"DEU","admin_name":"Bavaria","capital":"","population":11414},{"city":"Jimaní","city_ascii":"Jimani","lat":18.49,"lng":-71.85,"country":"Dominican Republic","iso2":"DO","iso3":"DOM","admin_name":"Enriquillo","capital":"minor","population":11414},{"city":"Tourougoumbé","city_ascii":"Tourougoumbe","lat":15.266,"lng":-9.229,"country":"Mali","iso2":"ML","iso3":"MLI","admin_name":"Kayes","capital":"","population":11412},{"city":"Mahāgama","city_ascii":"Mahagama","lat":25.0342,"lng":87.3187,"country":"India","iso2":"IN","iso3":"IND","admin_name":"Jhārkhand","capital":"","population":11412},{"city":"Kostinbrod","city_ascii":"Kostinbrod","lat":42.8167,"lng":23.2167,"country":"Bulgaria","iso2":"BG","iso3":"BGR","admin_name":"Sofia","capital":"","population":11411},{"city":"Guinagourou","city_ascii":"Guinagourou","lat":9.5667,"lng":2.95,"country":"Benin","iso2":"BJ","iso3":"BEN","admin_name":"Borgou","capital":"","population":11411},{"city":"Sales Oliveira","city_ascii":"Sales Oliveira","lat":-20.7719,"lng":-47.8381,"country":"Brazil","iso2":"BR","iso3":"BRA","admin_name":"São Paulo","capital":"","population":11411},{"city":"Pothia","city_ascii":"Pothia","lat":25.5413,"lng":87.2637,"country":"India","iso2":"IN","iso3":"IND","admin_name":"Bihār","capital":"","population":11411},{"city":"Senduriā","city_ascii":"Senduria","lat":26.7469,"lng":84.6754,"country":"India","iso2":"IN","iso3":"IND","admin_name":"Bihār","capital":"","population":11411},{"city":"Rāibāri Mahuawa","city_ascii":"Raibari Mahuawa","lat":27.098,"lng":84.2963,"country":"India","iso2":"IN","iso3":"IND","admin_name":"Bihār","capital":"","population":11411},{"city":"Ulricehamn","city_ascii":"Ulricehamn","lat":57.7833,"lng":13.4167,"country":"Sweden","iso2":"SE","iso3":"SWE","admin_name":"Västra Götaland","capital":"minor","population":11410},{"city":"Florennes","city_ascii":"Florennes","lat":50.25,"lng":4.6167,"country":"Belgium","iso2":"BE","iso3":"BEL","admin_name":"Wallonia","capital":"","population":11410},{"city":"Sào Amaro das Brotas","city_ascii":"Sao Amaro das Brotas","lat":-10.7889,"lng":-37.0539,"country":"Brazil","iso2":"BR","iso3":"BRA","admin_name":"Sergipe","capital":"","population":11410},{"city":"Cabo Verde","city_ascii":"Cabo Verde","lat":-21.4719,"lng":-46.3958,"country":"Brazil","iso2":"BR","iso3":"BRA","admin_name":"Minas Gerais","capital":"","population":11410},{"city":"Barro Alto","city_ascii":"Barro Alto","lat":-14.9683,"lng":-48.92,"country":"Brazil","iso2":"BR","iso3":"BRA","admin_name":"Goiás","capital":"","population":11408},{"city":"Sociedad","city_ascii":"Sociedad","lat":13.7,"lng":-88.0167,"country":"El Salvador","iso2":"SV","iso3":"SLV","admin_name":"Morazán","capital":"","population":11406},{"city":"Lopon","city_ascii":"Lopon","lat":30.6715,"lng":75.3438,"country":"India","iso2":"IN","iso3":"IND","admin_name":"Punjab","capital":"","population":11406},{"city":"Pratāparāmpuram","city_ascii":"Prataparampuram","lat":10.6741,"lng":79.8512,"country":"India","iso2":"IN","iso3":"IND","admin_name":"Tamil Nādu","capital":"","population":11406},{"city":"Tysvær","city_ascii":"Tysvaer","lat":59.3617,"lng":5.5428,"country":"Norway","iso2":"NO","iso3":"NOR","admin_name":"Rogaland","capital":"","population":11405},{"city":"Lumaco","city_ascii":"Lumaco","lat":-38.15,"lng":-72.9167,"country":"Chile","iso2":"CL","iso3":"CHL","admin_name":"Araucanía","capital":"","population":11405},{"city":"Majdal Shams","city_ascii":"Majdal Shams","lat":33.2667,"lng":35.7667,"country":"Israel","iso2":"IL","iso3":"ISR","admin_name":"Northern","capital":"","population":11405},{"city":"Gänserndorf","city_ascii":"Ganserndorf","lat":48.3406,"lng":16.7175,"country":"Austria","iso2":"AT","iso3":"AUT","admin_name":"Niederösterreich","capital":"minor","population":11404},{"city":"Scottburgh","city_ascii":"Scottburgh","lat":-30.2833,"lng":30.75,"country":"South Africa","iso2":"ZA","iso3":"ZAF","admin_name":"KwaZulu-Natal","capital":"","population":11403},{"city":"Pelileo","city_ascii":"Pelileo","lat":-1.3306,"lng":-78.5428,"country":"Ecuador","iso2":"EC","iso3":"ECU","admin_name":"Tungurahua","capital":"","population":11403},{"city":"Laren","city_ascii":"Laren","lat":52.25,"lng":5.2333,"country":"Netherlands","iso2":"NL","iso3":"NLD","admin_name":"Noord-Holland","capital":"minor","population":11400},{"city":"Buzhum","city_ascii":"Buzhum","lat":40.01,"lng":70.83,"country":"Kyrgyzstan","iso2":"KG","iso3":"KGZ","admin_name":"Batken","capital":"minor","population":11400},{"city":"Dawley","city_ascii":"Dawley","lat":52.663,"lng":-2.467,"country":"United Kingdom","iso2":"GB","iso3":"GBR","admin_name":"Telford and Wrekin","capital":"","population":11399},{"city":"Saint-Cyprien","city_ascii":"Saint-Cyprien","lat":42.6189,"lng":3.0069,"country":"France","iso2":"FR","iso3":"FRA","admin_name":"Occitanie","capital":"","population":11398},{"city":"Rostraver","city_ascii":"Rostraver","lat":40.169,"lng":-79.8087,"country":"United States","iso2":"US","iso3":"USA","admin_name":"Pennsylvania","capital":"","population":11398},{"city":"Plan-de-Cuques","city_ascii":"Plan-de-Cuques","lat":43.3478,"lng":5.4639,"country":"France","iso2":"FR","iso3":"FRA","admin_name":"Provence-Alpes-Côte d’Azur","capital":"","population":11396},{"city":"Babayevo","city_ascii":"Babayevo","lat":59.3833,"lng":35.9167,"country":"Russia","iso2":"RU","iso3":"RUS","admin_name":"Vologodskaya Oblast’","capital":"","population":11395},{"city":"Byerazino","city_ascii":"Byerazino","lat":53.8333,"lng":28.9833,"country":"Belarus","iso2":"BY","iso3":"BLR","admin_name":"Minskaya Voblasts’","capital":"","population":11395},{"city":"Gundrājukuppam","city_ascii":"Gundrajukuppam","lat":13.3406,"lng":79.5687,"country":"India","iso2":"IN","iso3":"IND","admin_name":"Andhra Pradesh","capital":"","population":11395},{"city":"Wealdstone","city_ascii":"Wealdstone","lat":51.5957,"lng":-0.3352,"country":"United Kingdom","iso2":"GB","iso3":"GBR","admin_name":"Brent","capital":"","population":11394},{"city":"San Michele al Tagliamento","city_ascii":"San Michele al Tagliamento","lat":45.7636,"lng":12.9953,"country":"Italy","iso2":"IT","iso3":"ITA","admin_name":"Veneto","capital":"","population":11393},{"city":"Enebakk","city_ascii":"Enebakk","lat":59.7742,"lng":11.1019,"country":"Norway","iso2":"NO","iso3":"NOR","admin_name":"Viken","capital":"","population":11392},{"city":"São João das Lampas","city_ascii":"Sao Joao das Lampas","lat":38.87,"lng":-9.421,"country":"Portugal","iso2":"PT","iso3":"PRT","admin_name":"Lisboa","capital":"","population":11392},{"city":"Montegrotto Terme","city_ascii":"Montegrotto Terme","lat":45.3333,"lng":11.7833,"country":"Italy","iso2":"IT","iso3":"ITA","admin_name":"Veneto","capital":"","population":11391},{"city":"Saverne","city_ascii":"Saverne","lat":48.74,"lng":7.36,"country":"France","iso2":"FR","iso3":"FRA","admin_name":"Grand Est","capital":"minor","population":11390},{"city":"Yāllūru","city_ascii":"Yalluru","lat":15.3063,"lng":78.4559,"country":"India","iso2":"IN","iso3":"IND","admin_name":"Andhra Pradesh","capital":"","population":11390},{"city":"Greetland","city_ascii":"Greetland","lat":53.6869,"lng":-1.8714,"country":"United Kingdom","iso2":"GB","iso3":"GBR","admin_name":"Calderdale","capital":"","population":11389},{"city":"Higashiizu","city_ascii":"Higashiizu","lat":34.7667,"lng":139.0333,"country":"Japan","iso2":"JP","iso3":"JPN","admin_name":"Shizuoka","capital":"","population":11389},{"city":"Kincardine","city_ascii":"Kincardine","lat":44.1667,"lng":-81.6333,"country":"Canada","iso2":"CA","iso3":"CAN","admin_name":"Ontario","capital":"","population":11389},{"city":"Marktheidenfeld","city_ascii":"Marktheidenfeld","lat":49.85,"lng":9.6,"country":"Germany","iso2":"DE","iso3":"DEU","admin_name":"Bavaria","capital":"","population":11388},{"city":"Nyírbátor","city_ascii":"Nyirbator","lat":47.8333,"lng":22.1333,"country":"Hungary","iso2":"HU","iso3":"HUN","admin_name":"Szabolcs-Szatmár-Bereg","capital":"minor","population":11388},{"city":"Simrāhi","city_ascii":"Simrahi","lat":26.3135,"lng":86.8454,"country":"India","iso2":"IN","iso3":"IND","admin_name":"Bihār","capital":"","population":11388},{"city":"Clawson","city_ascii":"Clawson","lat":42.5367,"lng":-83.1504,"country":"United States","iso2":"US","iso3":"USA","admin_name":"Michigan","capital":"","population":11388},{"city":"Douar Sgarta","city_ascii":"Douar Sgarta","lat":32.1667,"lng":-7.6333,"country":"Morocco","iso2":"MA","iso3":"MAR","admin_name":"Marrakech-Safi","capital":"","population":11387},{"city":"Saint-Junien","city_ascii":"Saint-Junien","lat":45.8881,"lng":0.9019,"country":"France","iso2":"FR","iso3":"FRA","admin_name":"Nouvelle-Aquitaine","capital":"","population":11387},{"city":"Newport","city_ascii":"Newport","lat":52.7691,"lng":-2.3787,"country":"United Kingdom","iso2":"GB","iso3":"GBR","admin_name":"Telford and Wrekin","capital":"","population":11387},{"city":"Eldorado","city_ascii":"Eldorado","lat":-23.7869,"lng":-54.2839,"country":"Brazil","iso2":"BR","iso3":"BRA","admin_name":"Mato Grosso do Sul","capital":"","population":11386},{"city":"Sidi Tabet","city_ascii":"Sidi Tabet","lat":36.9139,"lng":10.0361,"country":"Tunisia","iso2":"TN","iso3":"TUN","admin_name":"L’Ariana","capital":"","population":11385},{"city":"Guachetá","city_ascii":"Guacheta","lat":5.3856,"lng":-73.6856,"country":"Colombia","iso2":"CO","iso3":"COL","admin_name":"Cundinamarca","capital":"minor","population":11385},{"city":"Yvetot","city_ascii":"Yvetot","lat":49.62,"lng":0.75,"country":"France","iso2":"FR","iso3":"FRA","admin_name":"Normandie","capital":"","population":11385},{"city":"Falimāri","city_ascii":"Falimari","lat":26.3856,"lng":89.8233,"country":"India","iso2":"IN","iso3":"IND","admin_name":"West Bengal","capital":"","population":11385},