[{"city":"Bartlett","city_ascii":"Bartlett","lat":35.2337,"lng":-89.8195,"country":"United States","iso2":"US","iso3":"USA","admin_name":"Tennessee","capital":"","population":57481},{"city":"Humaitá","city_ascii":"Humaita","lat":-7.5061,"lng":-63.0208,"country":"Brazil","iso2":"BR","iso3":"BRA","admin_name":"Amazonas","capital":"minor","population":57473},{"city":"Santiago Tuxtla","city_ascii":"Santiago Tuxtla","lat":18.4653,"lng":-95.3025,"country":"Mexico","iso2":"MX","iso3":"MEX","admin_name":"Veracruz","capital":"minor","population":57466},{"city":"Cosquín","city_ascii":"Cosquin","lat":-31.2436,"lng":-64.4653,"country":"Argentina","iso2":"AR","iso3":"ARG","admin_name":"Córdoba","capital":"minor","population":57458},{"city":"Tanauan","city_ascii":"Tanauan","lat":11.12,"lng":125.02,"country":"Philippines","iso2":"PH","iso3":"PHL","admin_name":"Leyte","capital":"","population":57455},{"city":"Chintalapalli","city_ascii":"Chintalapalli","lat":18.331,"lng":79.674,"country":"India","iso2":"IN","iso3":"IND","admin_name":"Telangāna","capital":"","population":57434},{"city":"Meerbusch","city_ascii":"Meerbusch","lat":51.2667,"lng":6.6667,"country":"Germany","iso2":"DE","iso3":"DEU","admin_name":"North Rhine-Westphalia","capital":"","population":57422},{"city":"Lohārdagā","city_ascii":"Lohardaga","lat":23.4331,"lng":84.6799,"country":"India","iso2":"IN","iso3":"IND","admin_name":"Jhārkhand","capital":"","population":57411},{"city":"Buluan","city_ascii":"Buluan","lat":6.7154,"lng":124.7854,"country":"Philippines","iso2":"PH","iso3":"PHL","admin_name":"Maguindanao","capital":"admin","population":57406},{"city":"Sinop","city_ascii":"Sinop","lat":42.0267,"lng":35.1511,"country":"Turkey","iso2":"TR","iso3":"TUR","admin_name":"Sinop","capital":"admin","population":57404},{"city":"Cuvelai","city_ascii":"Cuvelai","lat":-15.6667,"lng":15.8,"country":"Angola","iso2":"AO","iso3":"AGO","admin_name":"Cunene","capital":"","population":57398},{"city":"Ponte Nova","city_ascii":"Ponte Nova","lat":-20.4158,"lng":-42.9089,"country":"Brazil","iso2":"BR","iso3":"BRA","admin_name":"Minas Gerais","capital":"","population":57390},{"city":"Richards Bay","city_ascii":"Richards Bay","lat":-28.7694,"lng":32.0594,"country":"South Africa","iso2":"ZA","iso3":"ZAF","admin_name":"KwaZulu-Natal","capital":"","population":57387},{"city":"Acará","city_ascii":"Acara","lat":-1.9608,"lng":-48.1969,"country":"Brazil","iso2":"BR","iso3":"BRA","admin_name":"Pará","capital":"minor","population":57385},{"city":"South Whittier","city_ascii":"South Whittier","lat":33.9336,"lng":-118.0312,"country":"United States","iso2":"US","iso3":"USA","admin_name":"California","capital":"","population":57383},{"city":"Foumbot","city_ascii":"Foumbot","lat":5.5,"lng":10.6333,"country":"Cameroon","iso2":"CM","iso3":"CMR","admin_name":"Ouest","capital":"","population":57367},{"city":"Antsinanantsena","city_ascii":"Antsinanantsena","lat":-18.8333,"lng":47.55,"country":"Madagascar","iso2":"MG","iso3":"MDG","admin_name":"Antananarivo","capital":"","population":57363},{"city":"Huaniu","city_ascii":"Huaniu","lat":34.5658,"lng":105.8215,"country":"China","iso2":"CN","iso3":"CHN","admin_name":"Gansu","capital":"","population":57360},{"city":"Qianwu","city_ascii":"Qianwu","lat":22.1635,"lng":113.2217,"country":"China","iso2":"CN","iso3":"CHN","admin_name":"Guangdong","capital":"","population":57352},{"city":"Nacaome","city_ascii":"Nacaome","lat":13.5167,"lng":-87.4833,"country":"Honduras","iso2":"HN","iso3":"HND","admin_name":"Valle","capital":"admin","population":57345},{"city":"Bebington","city_ascii":"Bebington","lat":53.35,"lng":-3.003,"country":"United Kingdom","iso2":"GB","iso3":"GBR","admin_name":"Wirral","capital":"","population":57336},{"city":"Molfetta","city_ascii":"Molfetta","lat":41.2,"lng":16.6,"country":"Italy","iso2":"IT","iso3":"ITA","admin_name":"Puglia","capital":"","population":57329},{"city":"Tieshansi","city_ascii":"Tieshansi","lat":30.2064,"lng":114.9003,"country":"China","iso2":"CN","iso3":"CHN","admin_name":"Hubei","capital":"","population":57327},{"city":"Eldorado","city_ascii":"Eldorado","lat":-26.4,"lng":-54.6333,"country":"Argentina","iso2":"AR","iso3":"ARG","admin_name":"Misiones","capital":"minor","population":57323},{"city":"Mali","city_ascii":"Mali","lat":23.1338,"lng":104.708,"country":"China","iso2":"CN","iso3":"CHN","admin_name":"Yunnan","capital":"minor","population":57320},{"city":"Roermond","city_ascii":"Roermond","lat":51.2,"lng":5.9833,"country":"Netherlands","iso2":"NL","iso3":"NLD","admin_name":"Limburg","capital":"minor","population":57308},{"city":"Weymouth","city_ascii":"Weymouth","lat":42.1981,"lng":-70.9466,"country":"United States","iso2":"US","iso3":"USA","admin_name":"Massachusetts","capital":"","population":57300},{"city":"Coruripe","city_ascii":"Coruripe","lat":-10.1258,"lng":-36.1758,"country":"Brazil","iso2":"BR","iso3":"BRA","admin_name":"Alagoas","capital":"","population":57294},{"city":"Lake Havasu City","city_ascii":"Lake Havasu City","lat":34.5006,"lng":-114.3113,"country":"United States","iso2":"US","iso3":"USA","admin_name":"Arizona","capital":"","population":57294},{"city":"Mācherla","city_ascii":"Macherla","lat":16.48,"lng":79.43,"country":"India","iso2":"IN","iso3":"IND","admin_name":"Andhra Pradesh","capital":"","population":57290},{"city":"Boac","city_ascii":"Boac","lat":13.45,"lng":121.83,"country":"Philippines","iso2":"PH","iso3":"PHL","admin_name":"Marinduque","capital":"admin","population":57283},{"city":"Gümüşhane","city_ascii":"Gumushane","lat":40.4597,"lng":39.4778,"country":"Turkey","iso2":"TR","iso3":"TUR","admin_name":"Gümüşhane","capital":"admin","population":57269},{"city":"Bīmgal","city_ascii":"Bimgal","lat":18.7,"lng":78.4667,"country":"India","iso2":"IN","iso3":"IND","admin_name":"Telangāna","capital":"","population":57262},{"city":"Nova Esperança","city_ascii":"Nova Esperanca","lat":-6.7333,"lng":15.9,"country":"Angola","iso2":"AO","iso3":"AGO","admin_name":"Uíge","capital":"","population":57248},{"city":"Içara","city_ascii":"Icara","lat":-28.7133,"lng":-49.3,"country":"Brazil","iso2":"BR","iso3":"BRA","admin_name":"Santa Catarina","capital":"","population":57247},{"city":"Kandukūr","city_ascii":"Kandukur","lat":15.2167,"lng":79.9042,"country":"India","iso2":"IN","iso3":"IND","admin_name":"Andhra Pradesh","capital":"","population":57246},{"city":"Tres Arroyos","city_ascii":"Tres Arroyos","lat":-38.3667,"lng":-60.2667,"country":"Argentina","iso2":"AR","iso3":"ARG","admin_name":"Buenos Aires","capital":"minor","population":57244},{"city":"Saint-Hyacinthe","city_ascii":"Saint-Hyacinthe","lat":45.6167,"lng":-72.95,"country":"Canada","iso2":"CA","iso3":"CAN","admin_name":"Quebec","capital":"","population":57239},{"city":"Keonjhargarh","city_ascii":"Keonjhargarh","lat":21.63,"lng":85.58,"country":"India","iso2":"IN","iso3":"IND","admin_name":"Odisha","capital":"","population":57232},{"city":"Krymsk","city_ascii":"Krymsk","lat":44.9233,"lng":37.9806,"country":"Russia","iso2":"RU","iso3":"RUS","admin_name":"Krasnodarskiy Kray","capital":"minor","population":57229},{"city":"Riosucio","city_ascii":"Riosucio","lat":7.4406,"lng":-77.1189,"country":"Colombia","iso2":"CO","iso3":"COL","admin_name":"Chocó","capital":"minor","population":57220},{"city":"Villa Hayes","city_ascii":"Villa Hayes","lat":-25.1,"lng":-57.5667,"country":"Paraguay","iso2":"PY","iso3":"PRY","admin_name":"Presidente Hayes","capital":"admin","population":57217},{"city":"Aldershot","city_ascii":"Aldershot","lat":51.2483,"lng":-0.7614,"country":"United Kingdom","iso2":"GB","iso3":"GBR","admin_name":"Hampshire","capital":"","population":57211},{"city":"Bilhorod-Dnistrovskyi","city_ascii":"Bilhorod-Dnistrovskyi","lat":46.1833,"lng":30.35,"country":"Ukraine","iso2":"UA","iso3":"UKR","admin_name":"Odeska Oblast","capital":"minor","population":57210},{"city":"Cupang","city_ascii":"Cupang","lat":14.4315,"lng":121.0486,"country":"Philippines","iso2":"PH","iso3":"PHL","admin_name":"Muntinlupa","capital":"","population":57196},{"city":"Alangalang","city_ascii":"Alangalang","lat":11.2061,"lng":124.8478,"country":"Philippines","iso2":"PH","iso3":"PHL","admin_name":"Leyte","capital":"","population":57185},{"city":"Samannūd","city_ascii":"Samannud","lat":30.9667,"lng":31.25,"country":"Egypt","iso2":"EG","iso3":"EGY","admin_name":"Al Gharbīyah","capital":"","population":57177},{"city":"Belize City","city_ascii":"Belize City","lat":17.4986,"lng":-88.1886,"country":"Belize","iso2":"BZ","iso3":"BLZ","admin_name":"Belize","capital":"admin","population":57169},{"city":"Bulungu","city_ascii":"Bulungu","lat":-4.55,"lng":18.6,"country":"Congo (Kinshasa)","iso2":"CD","iso3":"COD","admin_name":"Kwilu","capital":"","population":57168},{"city":"Uson","city_ascii":"Uson","lat":12.2253,"lng":123.7834,"country":"Philippines","iso2":"PH","iso3":"PHL","admin_name":"Masbate","capital":"","population":57166},{"city":"Boufarik","city_ascii":"Boufarik","lat":36.5706,"lng":2.9108,"country":"Algeria","iso2":"DZ","iso3":"DZA","admin_name":"Blida","capital":"","population":57162},{"city":"Ping’an","city_ascii":"Ping'an","lat":36.502,"lng":102.1082,"country":"China","iso2":"CN","iso3":"CHN","admin_name":"Qinghai","capital":"","population":57152},{"city":"Kollegāl","city_ascii":"Kollegal","lat":12.1539,"lng":77.101,"country":"India","iso2":"IN","iso3":"IND","admin_name":"Karnātaka","capital":"","population":57149},{"city":"Cosamaloapan","city_ascii":"Cosamaloapan","lat":18.3667,"lng":-95.8,"country":"Mexico","iso2":"MX","iso3":"MEX","admin_name":"Veracruz","capital":"minor","population":57147},{"city":"Sarapiquí","city_ascii":"Sarapiqui","lat":10.4853,"lng":-83.9362,"country":"Costa Rica","iso2":"CR","iso3":"CRI","admin_name":"Heredia","capital":"","population":57147},{"city":"Moknine","city_ascii":"Moknine","lat":35.6333,"lng":10.9,"country":"Tunisia","iso2":"TN","iso3":"TUN","admin_name":"Monastir","capital":"","population":57111},{"city":"Bel Air South","city_ascii":"Bel Air South","lat":39.5022,"lng":-76.3113,"country":"United States","iso2":"US","iso3":"USA","admin_name":"Maryland","capital":"","population":57109},{"city":"Unjha","city_ascii":"Unjha","lat":23.8,"lng":72.4,"country":"India","iso2":"IN","iso3":"IND","admin_name":"Gujarāt","capital":"","population":57108},{"city":"Benslimane","city_ascii":"Benslimane","lat":33.6167,"lng":-7.1167,"country":"Morocco","iso2":"MA","iso3":"MAR","admin_name":"Casablanca-Settat","capital":"","population":57101},{"city":"Uki","city_ascii":"Uki","lat":32.645,"lng":130.6864,"country":"Japan","iso2":"JP","iso3":"JPN","admin_name":"Kumamoto","capital":"","population":57096},{"city":"Nonoichi","city_ascii":"Nonoichi","lat":36.5194,"lng":136.6098,"country":"Japan","iso2":"JP","iso3":"JPN","admin_name":"Ishikawa","capital":"","population":57090},{"city":"Moramanga","city_ascii":"Moramanga","lat":-18.9469,"lng":48.2303,"country":"Madagascar","iso2":"MG","iso3":"MDG","admin_name":"Toamasina","capital":"","population":57084},{"city":"Fréjus","city_ascii":"Frejus","lat":43.433,"lng":6.737,"country":"France","iso2":"FR","iso3":"FRA","admin_name":"Provence-Alpes-Côte d’Azur","capital":"","population":57082},{"city":"Borūjen","city_ascii":"Borujen","lat":31.9678,"lng":51.2894,"country":"Iran","iso2":"IR","iso3":"IRN","admin_name":"Chahār Maḩāl va Bakhtīārī","capital":"minor","population":57071},{"city":"Devrek","city_ascii":"Devrek","lat":41.2333,"lng":31.9667,"country":"Turkey","iso2":"TR","iso3":"TUR","admin_name":"Zonguldak","capital":"minor","population":57069},{"city":"Maun","city_ascii":"Maun","lat":-19.9833,"lng":23.4167,"country":"Botswana","iso2":"BW","iso3":"BWA","admin_name":"North West","capital":"admin","population":57067},{"city":"Fountainebleau","city_ascii":"Fountainebleau","lat":25.7723,"lng":-80.346,"country":"United States","iso2":"US","iso3":"USA","admin_name":"Florida","capital":"","population":57066},{"city":"Wylie","city_ascii":"Wylie","lat":33.0362,"lng":-96.5161,"country":"United States","iso2":"US","iso3":"USA","admin_name":"Texas","capital":"","population":57063},{"city":"Mafeteng","city_ascii":"Mafeteng","lat":-29.8167,"lng":27.25,"country":"Lesotho","iso2":"LS","iso3":"LSO","admin_name":"Mafeteng","capital":"admin","population":57059},{"city":"Bail-Hongal","city_ascii":"Bail-Hongal","lat":15.8137,"lng":74.8589,"country":"India","iso2":"IN","iso3":"IND","admin_name":"Karnātaka","capital":"","population":57057},{"city":"Jasaan","city_ascii":"Jasaan","lat":8.65,"lng":124.75,"country":"Philippines","iso2":"PH","iso3":"PHL","admin_name":"Misamis Oriental","capital":"","population":57055},{"city":"Shuya","city_ascii":"Shuya","lat":56.85,"lng":41.3667,"country":"Russia","iso2":"RU","iso3":"RUS","admin_name":"Ivanovskaya Oblast’","capital":"minor","population":57039},{"city":"Dehdasht","city_ascii":"Dehdasht","lat":30.7953,"lng":50.5653,"country":"Iran","iso2":"IR","iso3":"IRN","admin_name":"Kohgīlūyeh va Bowyer Aḩmad","capital":"minor","population":57036},{"city":"Semara","city_ascii":"Semara","lat":26.7394,"lng":-11.6703,"country":"Morocco","iso2":"MA","iso3":"MAR","admin_name":"Laâyoune-Sakia El Hamra","capital":"","population":57035},{"city":"Alvarado","city_ascii":"Alvarado","lat":18.7811,"lng":-95.7572,"country":"Mexico","iso2":"MX","iso3":"MEX","admin_name":"Veracruz","capital":"minor","population":57035},{"city":"Baden-Baden","city_ascii":"Baden-Baden","lat":48.7628,"lng":8.2408,"country":"Germany","iso2":"DE","iso3":"DEU","admin_name":"Baden-Württemberg","capital":"minor","population":57025},{"city":"Lunglei","city_ascii":"Lunglei","lat":22.88,"lng":92.73,"country":"India","iso2":"IN","iso3":"IND","admin_name":"Mizoram","capital":"","population":57011},{"city":"Neryungri","city_ascii":"Neryungri","lat":56.6833,"lng":124.6667,"country":"Russia","iso2":"RU","iso3":"RUS","admin_name":"Sakha (Yakutiya)","capital":"","population":57009},{"city":"Minokamo","city_ascii":"Minokamo","lat":35.4402,"lng":137.0157,"country":"Japan","iso2":"JP","iso3":"JPN","admin_name":"Gifu","capital":"","population":57007},{"city":"Ipele","city_ascii":"Ipele","lat":7.1333,"lng":5.6667,"country":"Nigeria","iso2":"NG","iso3":"NGA","admin_name":"Ondo","capital":"","population":57000},{"city":"Bura","city_ascii":"Bura","lat":3.1722,"lng":42.1411,"country":"Somalia","iso2":"SO","iso3":"SOM","admin_name":"Gedo","capital":"","population":57000},{"city":"Zushi","city_ascii":"Zushi","lat":35.2833,"lng":139.5833,"country":"Japan","iso2":"JP","iso3":"JPN","admin_name":"Kanagawa","capital":"","population":56996},{"city":"Talagante","city_ascii":"Talagante","lat":-33.6667,"lng":-70.8667,"country":"Chile","iso2":"CL","iso3":"CHL","admin_name":"Región Metropolitana","capital":"minor","population":56990},{"city":"Rîbniţa","city_ascii":"Ribnita","lat":47.7667,"lng":29,"country":"Moldova","iso2":"MD","iso3":"MDA","admin_name":"Stînga Nistrului","capital":"","population":56988},{"city":"Nasīrabād","city_ascii":"Nasirabad","lat":26.3,"lng":74.73,"country":"India","iso2":"IN","iso3":"IND","admin_name":"Rājasthān","capital":"","population":56980},{"city":"Cerignola","city_ascii":"Cerignola","lat":41.2667,"lng":15.9,"country":"Italy","iso2":"IT","iso3":"ITA","admin_name":"Puglia","capital":"","population":56978},{"city":"Ródos","city_ascii":"Rodos","lat":36.4412,"lng":28.2225,"country":"Greece","iso2":"GR","iso3":"GRC","admin_name":"Nótio Aigaío","capital":"minor","population":56969},{"city":"Madison","city_ascii":"Madison","lat":34.7114,"lng":-86.7626,"country":"United States","iso2":"US","iso3":"USA","admin_name":"Alabama","capital":"","population":56967},{"city":"Cuemba","city_ascii":"Cuemba","lat":-12.15,"lng":18.0833,"country":"Angola","iso2":"AO","iso3":"AGO","admin_name":"Bié","capital":"","population":56963},{"city":"Tezonapa","city_ascii":"Tezonapa","lat":18.6,"lng":-96.6833,"country":"Mexico","iso2":"MX","iso3":"MEX","admin_name":"Veracruz","capital":"minor","population":56956},{"city":"Ushuaia","city_ascii":"Ushuaia","lat":-54.8019,"lng":-68.3031,"country":"Argentina","iso2":"AR","iso3":"ARG","admin_name":"Tierra del Fuego, Antártida e Islas del Atlántico Sur","capital":"admin","population":56956},{"city":"Ban Bang Kaeo","city_ascii":"Ban Bang Kaeo","lat":13.6371,"lng":100.6636,"country":"Thailand","iso2":"TH","iso3":"THA","admin_name":"Samut Prakan","capital":"","population":56949},{"city":"Cachoeiras de Macacu","city_ascii":"Cachoeiras de Macacu","lat":-22.4628,"lng":-42.6528,"country":"Brazil","iso2":"BR","iso3":"BRA","admin_name":"Rio de Janeiro","capital":"","population":56943},{"city":"Machang","city_ascii":"Machang","lat":5.7608,"lng":102.2158,"country":"Malaysia","iso2":"MY","iso3":"MYS","admin_name":"Kelantan","capital":"","population":56937},{"city":"Huaixiangcun","city_ascii":"Huaixiangcun","lat":22.4817,"lng":111.0542,"country":"China","iso2":"CN","iso3":"CHN","admin_name":"Guangdong","capital":"","population":56936},{"city":"San Luis","city_ascii":"San Luis","lat":18.55,"lng":-69.7,"country":"Dominican Republic","iso2":"DO","iso3":"DOM","admin_name":"Ozama","capital":"","population":56933},{"city":"Kędzierzyn-Koźle","city_ascii":"Kedzierzyn-Kozle","lat":50.35,"lng":18.2,"country":"Poland","iso2":"PL","iso3":"POL","admin_name":"Opolskie","capital":"minor","population":56931},{"city":"Puerto Boyacá","city_ascii":"Puerto Boyaca","lat":6,"lng":-74.4167,"country":"Colombia","iso2":"CO","iso3":"COL","admin_name":"Boyacá","capital":"minor","population":56930},{"city":"Azzaba","city_ascii":"Azzaba","lat":36.7333,"lng":7.1,"country":"Algeria","iso2":"DZ","iso3":"DZA","admin_name":"Skikda","capital":"","population":56922},{"city":"Hagonoy","city_ascii":"Hagonoy","lat":6.68,"lng":125.3,"country":"Philippines","iso2":"PH","iso3":"PHL","admin_name":"Davao del Sur","capital":"","population":56919},{"city":"Mora","city_ascii":"Mora","lat":10.0088,"lng":-84.0216,"country":"Costa Rica","iso2":"CR","iso3":"CRI","admin_name":"Heredia","capital":"","population":56919},{"city":"Xam Nua","city_ascii":"Xam Nua","lat":20.415,"lng":104.048,"country":"Laos","iso2":"LA","iso3":"LAO","admin_name":"Houaphan","capital":"admin","population":56900},{"city":"Limbang","city_ascii":"Limbang","lat":4.7592,"lng":115.0067,"country":"Malaysia","iso2":"MY","iso3":"MYS","admin_name":"Sarawak","capital":"","population":56900},{"city":"Dina","city_ascii":"Dina","lat":33.0283,"lng":73.6011,"country":"Pakistan","iso2":"PK","iso3":"PAK","admin_name":"Azad Kashmir","capital":"","population":56886},{"city":"Gūdalur","city_ascii":"Gudalur","lat":11.5014,"lng":76.4916,"country":"India","iso2":"IN","iso3":"IND","admin_name":"Tamil Nādu","capital":"","population":56886},{"city":"Ipirá","city_ascii":"Ipira","lat":-12.1583,"lng":-39.7389,"country":"Brazil","iso2":"BR","iso3":"BRA","admin_name":"Bahia","capital":"minor","population":56873},{"city":"Caacupé","city_ascii":"Caacupe","lat":-25.3861,"lng":-57.1408,"country":"Paraguay","iso2":"PY","iso3":"PRY","admin_name":"Cordillera","capital":"admin","population":56864},{"city":"Miragoâne","city_ascii":"Miragoane","lat":18.4458,"lng":-73.09,"country":"Haiti","iso2":"HT","iso3":"HTI","admin_name":"Nippes","capital":"admin","population":56864},{"city":"Sāmalkot","city_ascii":"Samalkot","lat":17.0531,"lng":82.1695,"country":"India","iso2":"IN","iso3":"IND","admin_name":"Andhra Pradesh","capital":"","population":56864},{"city":"Karīmganj","city_ascii":"Karimganj","lat":24.87,"lng":92.35,"country":"India","iso2":"IN","iso3":"IND","admin_name":"Assam","capital":"","population":56854},{"city":"Brookhaven","city_ascii":"Brookhaven","lat":33.8743,"lng":-84.3314,"country":"United States","iso2":"US","iso3":"USA","admin_name":"Georgia","capital":"","population":56848},{"city":"Acambay","city_ascii":"Acambay","lat":19.9539,"lng":-99.8431,"country":"Mexico","iso2":"MX","iso3":"MEX","admin_name":"México","capital":"minor","population":56847},{"city":"Santa Rosa","city_ascii":"Santa Rosa","lat":-3.4522,"lng":-79.9617,"country":"Ecuador","iso2":"EC","iso3":"ECU","admin_name":"El Oro","capital":"","population":56842},{"city":"Pinagkaisahan","city_ascii":"Pinagkaisahan","lat":14.5229,"lng":121.0555,"country":"Philippines","iso2":"PH","iso3":"PHL","admin_name":"Makati","capital":"","population":56835},{"city":"Bobbili","city_ascii":"Bobbili","lat":18.5667,"lng":83.3667,"country":"India","iso2":"IN","iso3":"IND","admin_name":"Andhra Pradesh","capital":"","population":56819},{"city":"Irpin","city_ascii":"Irpin","lat":50.5167,"lng":30.25,"country":"Ukraine","iso2":"UA","iso3":"UKR","admin_name":"Kyivska Oblast","capital":"","population":56806},{"city":"Bebandem","city_ascii":"Bebandem","lat":-8.4046,"lng":115.5395,"country":"Indonesia","iso2":"ID","iso3":"IDN","admin_name":"Bali","capital":"minor","population":56800},{"city":"Chinhoyi","city_ascii":"Chinhoyi","lat":-17.3497,"lng":30.1944,"country":"Zimbabwe","iso2":"ZW","iso3":"ZWE","admin_name":"Mashonaland West","capital":"admin","population":56794},{"city":"Highland","city_ascii":"Highland","lat":34.1113,"lng":-117.165,"country":"United States","iso2":"US","iso3":"USA","admin_name":"California","capital":"","population":56789},{"city":"Fussa","city_ascii":"Fussa","lat":35.7333,"lng":139.3333,"country":"Japan","iso2":"JP","iso3":"JPN","admin_name":"Tōkyō","capital":"","population":56786},{"city":"Fountain Valley","city_ascii":"Fountain Valley","lat":33.7105,"lng":-117.9514,"country":"United States","iso2":"US","iso3":"USA","admin_name":"California","capital":"","population":56754},{"city":"Bowmanville","city_ascii":"Bowmanville","lat":43.9125,"lng":-78.6871,"country":"Canada","iso2":"CA","iso3":"CAN","admin_name":"Ontario","capital":"","population":56742},{"city":"Düziçi","city_ascii":"Duzici","lat":37.2431,"lng":36.4567,"country":"Turkey","iso2":"TR","iso3":"TUR","admin_name":"Osmaniye","capital":"minor","population":56724},{"city":"Kālna","city_ascii":"Kalna","lat":23.22,"lng":88.37,"country":"India","iso2":"IN","iso3":"IND","admin_name":"West Bengal","capital":"","population":56722},{"city":"Sattenapalle","city_ascii":"Sattenapalle","lat":16.3962,"lng":80.1497,"country":"India","iso2":"IN","iso3":"IND","admin_name":"Andhra Pradesh","capital":"","population":56721},{"city":"Tulcán","city_ascii":"Tulcan","lat":0.8117,"lng":-77.7186,"country":"Ecuador","iso2":"EC","iso3":"ECU","admin_name":"Carchi","capital":"admin","population":56719},{"city":"Al Hoceïma","city_ascii":"Al Hoceima","lat":35.2472,"lng":-3.9322,"country":"Morocco","iso2":"MA","iso3":"MAR","admin_name":"Tanger-Tétouan-Al Hoceïma","capital":"","population":56716},{"city":"Lagonoy","city_ascii":"Lagonoy","lat":13.7353,"lng":123.5208,"country":"Philippines","iso2":"PH","iso3":"PHL","admin_name":"Camarines Sur","capital":"","population":56714},{"city":"Basey","city_ascii":"Basey","lat":11.2817,"lng":125.0683,"country":"Philippines","iso2":"PH","iso3":"PHL","admin_name":"Samar","capital":"","population":56685},{"city":"Beauvais","city_ascii":"Beauvais","lat":49.4303,"lng":2.0952,"country":"France","iso2":"FR","iso3":"FRA","admin_name":"Hauts-de-France","capital":"minor","population":56677},{"city":"Kudamatsu","city_ascii":"Kudamatsu","lat":34.015,"lng":131.8703,"country":"Japan","iso2":"JP","iso3":"JPN","admin_name":"Yamaguchi","capital":"","population":56661},{"city":"Pau d’Alho","city_ascii":"Pau d'Alho","lat":-7.8969,"lng":-35.18,"country":"Brazil","iso2":"BR","iso3":"BRA","admin_name":"Pernambuco","capital":"minor","population":56659},{"city":"Hod HaSharon","city_ascii":"Hod HaSharon","lat":32.15,"lng":34.8833,"country":"Israel","iso2":"IL","iso3":"ISR","admin_name":"Central","capital":"","population":56659},{"city":"Pirapora","city_ascii":"Pirapora","lat":-17.3478,"lng":-44.9436,"country":"Brazil","iso2":"BR","iso3":"BRA","admin_name":"Minas Gerais","capital":"","population":56640},{"city":"Barabai","city_ascii":"Barabai","lat":-2.5833,"lng":115.3833,"country":"Indonesia","iso2":"ID","iso3":"IDN","admin_name":"Kalimantan Selatan","capital":"minor","population":56628},{"city":"Muğla","city_ascii":"Mugla","lat":37.2167,"lng":28.3667,"country":"Turkey","iso2":"TR","iso3":"TUR","admin_name":"Muğla","capital":"admin","population":56619},{"city":"Vrindāvan","city_ascii":"Vrindavan","lat":27.58,"lng":77.7,"country":"India","iso2":"IN","iso3":"IND","admin_name":"Uttar Pradesh","capital":"","population":56618},{"city":"Chini","city_ascii":"Chini","lat":23.3916,"lng":113.0755,"country":"China","iso2":"CN","iso3":"CHN","admin_name":"Guangdong","capital":"","population":56609},{"city":"Iskitim","city_ascii":"Iskitim","lat":54.64,"lng":83.3061,"country":"Russia","iso2":"RU","iso3":"RUS","admin_name":"Novosibirskaya Oblast’","capital":"","population":56602},{"city":"Acámbaro","city_ascii":"Acambaro","lat":20.0361,"lng":-100.7314,"country":"Mexico","iso2":"MX","iso3":"MEX","admin_name":"Guanajuato","capital":"minor","population":56597},{"city":"Diglipur","city_ascii":"Diglipur","lat":13.2667,"lng":93,"country":"India","iso2":"IN","iso3":"IND","admin_name":"Andaman and Nicobar Islands","capital":"","population":56597},{"city":"Khāsh","city_ascii":"Khash","lat":28.22,"lng":61.2114,"country":"Iran","iso2":"IR","iso3":"IRN","admin_name":"Sīstān va Balūchestān","capital":"minor","population":56584},{"city":"Beni Enzar","city_ascii":"Beni Enzar","lat":35.2667,"lng":-2.9333,"country":"Morocco","iso2":"MA","iso3":"MAR","admin_name":"Oriental","capital":"","population":56582},{"city":"Den Helder","city_ascii":"Den Helder","lat":52.9333,"lng":4.75,"country":"Netherlands","iso2":"NL","iso3":"NLD","admin_name":"Noord-Holland","capital":"minor","population":56582},{"city":"Forest","city_ascii":"Forest","lat":50.8131,"lng":4.3247,"country":"Belgium","iso2":"BE","iso3":"BEL","admin_name":"Brussels-Capital Region","capital":"","population":56581},{"city":"Macclesfield","city_ascii":"Macclesfield","lat":53.25,"lng":-2.13,"country":"United Kingdom","iso2":"GB","iso3":"GBR","admin_name":"Cheshire East","capital":"","population":56581},{"city":"Pangantocan","city_ascii":"Pangantocan","lat":7.8331,"lng":124.8294,"country":"Philippines","iso2":"PH","iso3":"PHL","admin_name":"Bukidnon","capital":"","population":56580},{"city":"Görlitz","city_ascii":"Gorlitz","lat":51.1528,"lng":14.9872,"country":"Germany","iso2":"DE","iso3":"DEU","admin_name":"Saxony","capital":"minor","population":56574},{"city":"Wellingborough","city_ascii":"Wellingborough","lat":52.3028,"lng":-0.6944,"country":"United Kingdom","iso2":"GB","iso3":"GBR","admin_name":"Northamptonshire","capital":"","population":56564},{"city":"Tāybād","city_ascii":"Taybad","lat":34.7408,"lng":60.7792,"country":"Iran","iso2":"IR","iso3":"IRN","admin_name":"Khorāsān-e Raẕavī","capital":"minor","population":56562},{"city":"Mafra","city_ascii":"Mafra","lat":-26.1167,"lng":-49.8,"country":"Brazil","iso2":"BR","iso3":"BRA","admin_name":"Santa Catarina","capital":"","population":56561},{"city":"Berwyn","city_ascii":"Berwyn","lat":41.8433,"lng":-87.7909,"country":"United States","iso2":"US","iso3":"USA","admin_name":"Illinois","capital":"","population":56556},{"city":"Ar Riqqah","city_ascii":"Ar Riqqah","lat":29.1489,"lng":48.1057,"country":"Kuwait","iso2":"KW","iso3":"KWT","admin_name":"Al Aḩmadī","capital":"","population":56554},{"city":"San Pedro Sacatepéquez","city_ascii":"San Pedro Sacatepequez","lat":14.6833,"lng":-90.6333,"country":"Guatemala","iso2":"GT","iso3":"GTM","admin_name":"Guatemala","capital":"minor","population":56545},{"city":"Lingen","city_ascii":"Lingen","lat":52.5231,"lng":7.3231,"country":"Germany","iso2":"DE","iso3":"DEU","admin_name":"Lower Saxony","capital":"","population":56542},{"city":"Ramon","city_ascii":"Ramon","lat":16.78,"lng":121.53,"country":"Philippines","iso2":"PH","iso3":"PHL","admin_name":"Isabela","capital":"","population":56523},{"city":"Ixtahuacán","city_ascii":"Ixtahuacan","lat":15.4167,"lng":-91.7667,"country":"Guatemala","iso2":"GT","iso3":"GTM","admin_name":"Huehuetenango","capital":"minor","population":56511},{"city":"Limoeiro","city_ascii":"Limoeiro","lat":-7.875,"lng":-35.45,"country":"Brazil","iso2":"BR","iso3":"BRA","admin_name":"Pernambuco","capital":"minor","population":56510},{"city":"Porto Feliz","city_ascii":"Porto Feliz","lat":-23.2147,"lng":-47.5239,"country":"Brazil","iso2":"BR","iso3":"BRA","admin_name":"São Paulo","capital":"","population":56497},{"city":"Naugaon Sādāt","city_ascii":"Naugaon Sadat","lat":28.9833,"lng":78.4167,"country":"India","iso2":"IN","iso3":"IND","admin_name":"Uttar Pradesh","capital":"","population":56493},{"city":"Colomba","city_ascii":"Colomba","lat":14.7167,"lng":-91.7333,"country":"Guatemala","iso2":"GT","iso3":"GTM","admin_name":"Quetzaltenango","capital":"minor","population":56487},{"city":"Sendhwa","city_ascii":"Sendhwa","lat":21.6847,"lng":75.0953,"country":"India","iso2":"IN","iso3":"IND","admin_name":"Madhya Pradesh","capital":"","population":56485},{"city":"Athiémé","city_ascii":"Athieme","lat":6.5833,"lng":1.6667,"country":"Benin","iso2":"BJ","iso3":"BEN","admin_name":"Mono","capital":"","population":56483},{"city":"El Cerrito","city_ascii":"El Cerrito","lat":3.6667,"lng":-76.1667,"country":"Colombia","iso2":"CO","iso3":"COL","admin_name":"Valle del Cauca","capital":"minor","population":56470},{"city":"Bartolomé Masó","city_ascii":"Bartolome Maso","lat":20.1686,"lng":-76.9428,"country":"Cuba","iso2":"CU","iso3":"CUB","admin_name":"Granma","capital":"minor","population":56460},{"city":"Stolberg","city_ascii":"Stolberg","lat":50.7667,"lng":6.2333,"country":"Germany","iso2":"DE","iso3":"DEU","admin_name":"North Rhine-Westphalia","capital":"","population":56455},{"city":"Moyobamba","city_ascii":"Moyobamba","lat":-6.0333,"lng":-76.9667,"country":"Peru","iso2":"PE","iso3":"PER","admin_name":"San Martín","capital":"admin","population":56452},{"city":"Bianyang","city_ascii":"Bianyang","lat":25.6194,"lng":106.535,"country":"China","iso2":"CN","iso3":"CHN","admin_name":"Guizhou","capital":"","population":56451},{"city":"Tiwi","city_ascii":"Tiwi","lat":13.4585,"lng":123.6805,"country":"Philippines","iso2":"PH","iso3":"PHL","admin_name":"Albay","capital":"","population":56444},{"city":"Severn","city_ascii":"Severn","lat":39.1355,"lng":-76.6956,"country":"United States","iso2":"US","iso3":"USA","admin_name":"Maryland","capital":"","population":56438},{"city":"Talegaon Dābhāde","city_ascii":"Talegaon Dabhade","lat":18.72,"lng":73.68,"country":"India","iso2":"IN","iso3":"IND","admin_name":"Mahārāshtra","capital":"","population":56435},{"city":"Tama","city_ascii":"Tama","lat":34.4886,"lng":133.9486,"country":"Japan","iso2":"JP","iso3":"JPN","admin_name":"Okayama","capital":"","population":56431},{"city":"Rafael Calzada","city_ascii":"Rafael Calzada","lat":-34.7833,"lng":-58.3667,"country":"Argentina","iso2":"AR","iso3":"ARG","admin_name":"Buenos Aires","capital":"","population":56419},{"city":"Wote","city_ascii":"Wote","lat":-1.7833,"lng":37.6333,"country":"Kenya","iso2":"KE","iso3":"KEN","admin_name":"Makueni","capital":"admin","population":56419},{"city":"Hassa","city_ascii":"Hassa","lat":36.7994,"lng":36.5178,"country":"Turkey","iso2":"TR","iso3":"TUR","admin_name":"Hatay","capital":"minor","population":56409},{"city":"Rolim de Moura","city_ascii":"Rolim de Moura","lat":-11.7256,"lng":-61.7781,"country":"Brazil","iso2":"BR","iso3":"BRA","admin_name":"Rondônia","capital":"minor","population":56406},{"city":"Mocoa","city_ascii":"Mocoa","lat":1.15,"lng":-76.6475,"country":"Colombia","iso2":"CO","iso3":"COL","admin_name":"Putumayo","capital":"admin","population":56398},{"city":"Boudouaou","city_ascii":"Boudouaou","lat":36.73,"lng":3.41,"country":"Algeria","iso2":"DZ","iso3":"DZA","admin_name":"Boumerdes","capital":"","population":56398},{"city":"Narbonne","city_ascii":"Narbonne","lat":43.1836,"lng":3.0042,"country":"France","iso2":"FR","iso3":"FRA","admin_name":"Occitanie","capital":"minor","population":56395},{"city":"Villarrica","city_ascii":"Villarrica","lat":-25.75,"lng":-56.4333,"country":"Paraguay","iso2":"PY","iso3":"PRY","admin_name":"Guairá","capital":"admin","population":56385},{"city":"Binalonan","city_ascii":"Binalonan","lat":16.05,"lng":120.6,"country":"Philippines","iso2":"PH","iso3":"PHL","admin_name":"Pangasinan","capital":"","population":56382},{"city":"Longxing","city_ascii":"Longxing","lat":35.6091,"lng":111.2304,"country":"China","iso2":"CN","iso3":"CHN","admin_name":"Shanxi","capital":"minor","population":56381},{"city":"Sankt Augustin","city_ascii":"Sankt Augustin","lat":50.77,"lng":7.1867,"country":"Germany","iso2":"DE","iso3":"DEU","admin_name":"North Rhine-Westphalia","capital":"","population":56369},{"city":"Sucat","city_ascii":"Sucat","lat":14.46,"lng":121.05,"country":"Philippines","iso2":"PH","iso3":"PHL","admin_name":"Muntinlupa","capital":"","population":56354},{"city":"Albany","city_ascii":"Albany","lat":44.6272,"lng":-123.0965,"country":"United States","iso2":"US","iso3":"USA","admin_name":"Oregon","capital":"","population":56348},{"city":"National City","city_ascii":"National City","lat":32.6654,"lng":-117.0983,"country":"United States","iso2":"US","iso3":"USA","admin_name":"California","capital":"","population":56345},{"city":"Placer","city_ascii":"Placer","lat":11.8689,"lng":123.9167,"country":"Philippines","iso2":"PH","iso3":"PHL","admin_name":"Masbate","capital":"","population":56340},{"city":"Paços de Ferreira","city_ascii":"Pacos de Ferreira","lat":41.2667,"lng":-8.4,"country":"Portugal","iso2":"PT","iso3":"PRT","admin_name":"Porto","capital":"minor","population":56340},{"city":"Rosh Ha‘Ayin","city_ascii":"Rosh Ha`Ayin","lat":32.0956,"lng":34.9567,"country":"Israel","iso2":"IL","iso3":"ISR","admin_name":"Central","capital":"","population":56300},{"city":"Korkuteli","city_ascii":"Korkuteli","lat":37.0667,"lng":30.2,"country":"Turkey","iso2":"TR","iso3":"TUR","admin_name":"Antalya","capital":"minor","population":56285},{"city":"Lian","city_ascii":"Lian","lat":14.03,"lng":120.65,"country":"Philippines","iso2":"PH","iso3":"PHL","admin_name":"Batangas","capital":"","population":56280},{"city":"Narammala","city_ascii":"Narammala","lat":7.4344,"lng":80.2214,"country":"Sri Lanka","iso2":"LK","iso3":"LKA","admin_name":"North Western","capital":"","population":56279},{"city":"Libungan","city_ascii":"Libungan","lat":7.25,"lng":124.52,"country":"Philippines","iso2":"PH","iso3":"PHL","admin_name":"Cotabato","capital":"","population":56269},{"city":"Amarante","city_ascii":"Amarante","lat":41.2703,"lng":-8.0808,"country":"Portugal","iso2":"PT","iso3":"PRT","admin_name":"Porto","capital":"minor","population":56264},{"city":"Magsaysay","city_ascii":"Magsaysay","lat":6.77,"lng":125.18,"country":"Philippines","iso2":"PH","iso3":"PHL","admin_name":"Davao del Sur","capital":"","population":56263},{"city":"Lacey","city_ascii":"Lacey","lat":47.0462,"lng":-122.7933,"country":"United States","iso2":"US","iso3":"USA","admin_name":"Washington","capital":"","population":56263},{"city":"Bihać","city_ascii":"Bihac","lat":44.8167,"lng":15.8667,"country":"Bosnia and Herzegovina","iso2":"BA","iso3":"BIH","admin_name":"Bosnia and Herzegovina, Federation of","capital":"minor","population":56261},{"city":"Pèlèngana","city_ascii":"Pelengana","lat":13.4278,"lng":-6.2153,"country":"Mali","iso2":"ML","iso3":"MLI","admin_name":"Ségou","capital":"","population":56259},{"city":"Esquipulas","city_ascii":"Esquipulas","lat":14.5667,"lng":-89.35,"country":"Guatemala","iso2":"GT","iso3":"GTM","admin_name":"Chiquimula","capital":"minor","population":56253},{"city":"Kūt-e ‘Abdollāh","city_ascii":"Kut-e `Abdollah","lat":31.2447,"lng":48.6594,"country":"Iran","iso2":"IR","iso3":"IRN","admin_name":"Khūzestān","capital":"minor","population":56252},{"city":"Klimovsk","city_ascii":"Klimovsk","lat":55.3667,"lng":37.5333,"country":"Russia","iso2":"RU","iso3":"RUS","admin_name":"Moskovskaya Oblast’","capital":"","population":56239},{"city":"Poonamallee","city_ascii":"Poonamallee","lat":13.0465,"lng":80.11,"country":"India","iso2":"IN","iso3":"IND","admin_name":"Tamil Nādu","capital":"","population":56237},{"city":"Sarikei","city_ascii":"Sarikei","lat":2.1256,"lng":111.5219,"country":"Malaysia","iso2":"MY","iso3":"MYS","admin_name":"Sarawak","capital":"","population":56228},{"city":"M’diq","city_ascii":"M'diq","lat":35.6858,"lng":-5.3253,"country":"Morocco","iso2":"MA","iso3":"MAR","admin_name":"Tanger-Tétouan-Al Hoceïma","capital":"","population":56227},{"city":"Shali","city_ascii":"Shali","lat":43.15,"lng":45.9,"country":"Russia","iso2":"RU","iso3":"RUS","admin_name":"Chechnya","capital":"minor","population":56226},{"city":"Kettering","city_ascii":"Kettering","lat":52.3931,"lng":-0.7229,"country":"United Kingdom","iso2":"GB","iso3":"GBR","admin_name":"Northamptonshire","capital":"","population":56226},{"city":"Gangārāmpur","city_ascii":"Gangarampur","lat":25.4,"lng":88.52,"country":"India","iso2":"IN","iso3":"IND","admin_name":"West Bengal","capital":"","population":56217},{"city":"Rahovec","city_ascii":"Rahovec","lat":42.3994,"lng":20.6547,"country":"Kosovo","iso2":"XK","iso3":"XKS","admin_name":"Rahovec","capital":"admin","population":56208},{"city":"Oosterhout","city_ascii":"Oosterhout","lat":51.6333,"lng":4.8667,"country":"Netherlands","iso2":"NL","iso3":"NLD","admin_name":"Noord-Brabant","capital":"minor","population":56206},{"city":"Hohoe","city_ascii":"Hohoe","lat":7.149,"lng":0.4746,"country":"Ghana","iso2":"GH","iso3":"GHA","admin_name":"Volta","capital":"","population":56202},{"city":"Mount Prospect","city_ascii":"Mount Prospect","lat":42.0641,"lng":-87.9375,"country":"United States","iso2":"US","iso3":"USA","admin_name":"Illinois","capital":"","population":56191},{"city":"Arcadia","city_ascii":"Arcadia","lat":34.1342,"lng":-118.0373,"country":"United States","iso2":"US","iso3":"USA","admin_name":"California","capital":"","population":56181},{"city":"Dongola","city_ascii":"Dongola","lat":19.1698,"lng":30.4749,"country":"Sudan","iso2":"SD","iso3":"SDN","admin_name":"Northern","capital":"admin","population":56167},{"city":"Mota","city_ascii":"Mota","lat":11.0833,"lng":37.8667,"country":"Ethiopia","iso2":"ET","iso3":"ETH","admin_name":"Āmara","capital":"","population":56156},{"city":"Mukōchō","city_ascii":"Mukocho","lat":34.9486,"lng":135.6983,"country":"Japan","iso2":"JP","iso3":"JPN","admin_name":"Kyōto","capital":"","population":56152},{"city":"Khlong Luang","city_ascii":"Khlong Luang","lat":14.0647,"lng":100.6458,"country":"Thailand","iso2":"TH","iso3":"THA","admin_name":"Pathum Thani","capital":"minor","population":56128},{"city":"Tilakpur","city_ascii":"Tilakpur","lat":28.525,"lng":81.1208,"country":"Nepal","iso2":"NP","iso3":"NPL","admin_name":"","capital":"","population":56127},{"city":"Moncalieri","city_ascii":"Moncalieri","lat":45,"lng":7.6833,"country":"Italy","iso2":"IT","iso3":"ITA","admin_name":"Piedmont","capital":"","population":56117},{"city":"Castelo Branco","city_ascii":"Castelo Branco","lat":39.8167,"lng":-7.5,"country":"Portugal","iso2":"PT","iso3":"PRT","admin_name":"Castelo Branco","capital":"admin","population":56109},{"city":"Mizuho","city_ascii":"Mizuho","lat":35.3918,"lng":136.6909,"country":"Japan","iso2":"JP","iso3":"JPN","admin_name":"Gifu","capital":"","population":56106},{"city":"Diffun","city_ascii":"Diffun","lat":16.5936,"lng":121.5025,"country":"Philippines","iso2":"PH","iso3":"PHL","admin_name":"Quirino","capital":"","population":56102},{"city":"Cuizhuangzi","city_ascii":"Cuizhuangzi","lat":38.2897,"lng":116.5472,"country":"China","iso2":"CN","iso3":"CHN","admin_name":"Hebei","capital":"","population":56096},{"city":"Waiblingen","city_ascii":"Waiblingen","lat":48.8303,"lng":9.3169,"country":"Germany","iso2":"DE","iso3":"DEU","admin_name":"Baden-Württemberg","capital":"minor","population":56081},{"city":"Tiruvallūr","city_ascii":"Tiruvallur","lat":13.1231,"lng":79.912,"country":"India","iso2":"IN","iso3":"IND","admin_name":"Tamil Nādu","capital":"","population":56074},{"city":"Mandapeta","city_ascii":"Mandapeta","lat":16.87,"lng":81.93,"country":"India","iso2":"IN","iso3":"IND","admin_name":"Andhra Pradesh","capital":"","population":56063},{"city":"San Andrés Villa Seca","city_ascii":"San Andres Villa Seca","lat":14.5667,"lng":-91.5833,"country":"Guatemala","iso2":"GT","iso3":"GTM","admin_name":"Retalhuleu","capital":"minor","population":56060},{"city":"Tirur","city_ascii":"Tirur","lat":10.9,"lng":75.92,"country":"India","iso2":"IN","iso3":"IND","admin_name":"Kerala","capital":"","population":56058},{"city":"Mendi","city_ascii":"Mendi","lat":-6.1478,"lng":143.6572,"country":"Papua New Guinea","iso2":"PG","iso3":"PNG","admin_name":"Southern Highlands","capital":"admin","population":56055},{"city":"Takizawa","city_ascii":"Takizawa","lat":39.7347,"lng":141.0771,"country":"Japan","iso2":"JP","iso3":"JPN","admin_name":"Iwate","capital":"","population":56050},{"city":"Kimilili","city_ascii":"Kimilili","lat":0.7833,"lng":34.7167,"country":"Kenya","iso2":"KE","iso3":"KEN","admin_name":"Bungoma","capital":"","population":56050},{"city":"Uman","city_ascii":"Uman","lat":20.8833,"lng":-89.75,"country":"Mexico","iso2":"MX","iso3":"MEX","admin_name":"Yucatán","capital":"minor","population":56049},{"city":"Eschweiler","city_ascii":"Eschweiler","lat":50.8167,"lng":6.2833,"country":"Germany","iso2":"DE","iso3":"DEU","admin_name":"North Rhine-Westphalia","capital":"","population":56049},{"city":"Bonga","city_ascii":"Bonga","lat":7.2667,"lng":36.2333,"country":"Ethiopia","iso2":"ET","iso3":"ETH","admin_name":"YeDebub M‘irab Ītyop’iya Hizboch","capital":"admin","population":56045},{"city":"Pithorāgarh","city_ascii":"Pithoragarh","lat":29.58,"lng":80.22,"country":"India","iso2":"IN","iso3":"IND","admin_name":"Uttarākhand","capital":"","population":56044},{"city":"Kengri","city_ascii":"Kengri","lat":12.9122,"lng":77.4827,"country":"India","iso2":"IN","iso3":"IND","admin_name":"Karnātaka","capital":"","population":56040},{"city":"Huaquillas","city_ascii":"Huaquillas","lat":-3.4814,"lng":-80.2432,"country":"Ecuador","iso2":"EC","iso3":"ECU","admin_name":"El Oro","capital":"","population":56021},{"city":"Myaungmya","city_ascii":"Myaungmya","lat":16.6036,"lng":94.9289,"country":"Burma","iso2":"MM","iso3":"MMR","admin_name":"Ayeyarwady","capital":"","population":56018},{"city":"Intibucá","city_ascii":"Intibuca","lat":14.3121,"lng":-88.1781,"country":"Honduras","iso2":"HN","iso3":"HND","admin_name":"Intibucá","capital":"","population":56017},{"city":"Bluefields","city_ascii":"Bluefields","lat":12,"lng":-83.75,"country":"Nicaragua","iso2":"NI","iso3":"NIC","admin_name":"Costa Caribe Sur","capital":"admin","population":56005},{"city":"Oke-Mesi","city_ascii":"Oke-Mesi","lat":7.8167,"lng":4.9167,"country":"Nigeria","iso2":"NG","iso3":"NGA","admin_name":"Ekiti","capital":"","population":56000},{"city":"Langtang","city_ascii":"Langtang","lat":27.9636,"lng":111.11,"country":"China","iso2":"CN","iso3":"CHN","admin_name":"Hunan","capital":"","population":56000},{"city":"Ropar","city_ascii":"Ropar","lat":30.9664,"lng":76.5331,"country":"India","iso2":"IN","iso3":"IND","admin_name":"Punjab","capital":"","population":56000},{"city":"Parsippany-Troy Hills","city_ascii":"Parsippany-Troy Hills","lat":40.8601,"lng":-74.4237,"country":"United States","iso2":"US","iso3":"USA","admin_name":"New Jersey","capital":"","population":55970},{"city":"Abū Za‘bal","city_ascii":"Abu Za`bal","lat":30.2415,"lng":31.411,"country":"Egypt","iso2":"EG","iso3":"EGY","admin_name":"Al Qalyūbīyah","capital":"","population":55938},{"city":"Chiapa de Corzo","city_ascii":"Chiapa de Corzo","lat":16.7069,"lng":-93.0139,"country":"Mexico","iso2":"MX","iso3":"MEX","admin_name":"Chiapas","capital":"minor","population":55931},{"city":"Lower Bicutan","city_ascii":"Lower Bicutan","lat":14.5033,"lng":121.0642,"country":"Philippines","iso2":"PH","iso3":"PHL","admin_name":"Taguig","capital":"","population":55928},{"city":"General Tinio","city_ascii":"General Tinio","lat":15.35,"lng":121.05,"country":"Philippines","iso2":"PH","iso3":"PHL","admin_name":"Nueva Ecija","capital":"","population":55925},{"city":"Takaishi","city_ascii":"Takaishi","lat":34.5167,"lng":135.45,"country":"Japan","iso2":"JP","iso3":"JPN","admin_name":"Ōsaka","capital":"","population":55910},{"city":"Acul du Nord","city_ascii":"Acul du Nord","lat":19.6833,"lng":-72.3167,"country":"Haiti","iso2":"HT","iso3":"HTI","admin_name":"Nord","capital":"","population":55908},{"city":"Ajodhya","city_ascii":"Ajodhya","lat":26.7992,"lng":82.2044,"country":"India","iso2":"IN","iso3":"IND","admin_name":"Uttar Pradesh","capital":"","population":55890},{"city":"DeSoto","city_ascii":"DeSoto","lat":32.5992,"lng":-96.8633,"country":"United States","iso2":"US","iso3":"USA","admin_name":"Texas","capital":"","population":55882},{"city":"Poblacion","city_ascii":"Poblacion","lat":10.47,"lng":123.97,"country":"Philippines","iso2":"PH","iso3":"PHL","admin_name":"Cebu","capital":"","population":55874},{"city":"Smyrna","city_ascii":"Smyrna","lat":33.8633,"lng":-84.5168,"country":"United States","iso2":"US","iso3":"USA","admin_name":"Georgia","capital":"","population":55863},{"city":"Bungoma","city_ascii":"Bungoma","lat":0.5667,"lng":34.5667,"country":"Kenya","iso2":"KE","iso3":"KEN","admin_name":"Bungoma","capital":"admin","population":55857},{"city":"Longmen","city_ascii":"Longmen","lat":35.6119,"lng":110.5746,"country":"China","iso2":"CN","iso3":"CHN","admin_name":"Shaanxi","capital":"","population":55847},{"city":"Khān Shaykhūn","city_ascii":"Khan Shaykhun","lat":35.4389,"lng":36.6511,"country":"Syria","iso2":"SY","iso3":"SYR","admin_name":"Idlib","capital":"minor","population":55843},{"city":"Changling","city_ascii":"Changling","lat":44.27,"lng":123.99,"country":"China","iso2":"CN","iso3":"CHN","admin_name":"Jilin","capital":"minor","population":55841},{"city":"Belampalli","city_ascii":"Belampalli","lat":19.0756,"lng":79.4881,"country":"India","iso2":"IN","iso3":"IND","admin_name":"Telangāna","capital":"","population":55841},{"city":"Kharar","city_ascii":"Kharar","lat":30.74,"lng":76.65,"country":"India","iso2":"IN","iso3":"IND","admin_name":"Punjab","capital":"","population":55821},{"city":"Viramgām","city_ascii":"Viramgam","lat":23.12,"lng":72.03,"country":"India","iso2":"IN","iso3":"IND","admin_name":"Gujarāt","capital":"","population":55821},{"city":"Zarrīn Shahr","city_ascii":"Zarrin Shahr","lat":32.3889,"lng":51.3733,"country":"Iran","iso2":"IR","iso3":"IRN","admin_name":"Eşfahān","capital":"minor","population":55817},{"city":"Sidi Bennour","city_ascii":"Sidi Bennour","lat":32.65,"lng":-8.4333,"country":"Morocco","iso2":"MA","iso3":"MAR","admin_name":"Casablanca-Settat","capital":"","population":55815},{"city":"Hilden","city_ascii":"Hilden","lat":51.1714,"lng":6.9394,"country":"Germany","iso2":"DE","iso3":"DEU","admin_name":"North Rhine-Westphalia","capital":"","population":55815},{"city":"Bradenton","city_ascii":"Bradenton","lat":27.4901,"lng":-82.5757,"country":"United States","iso2":"US","iso3":"USA","admin_name":"Florida","capital":"","population":55795},{"city":"Braintree","city_ascii":"Braintree","lat":51.878,"lng":0.55,"country":"United Kingdom","iso2":"GB","iso3":"GBR","admin_name":"Essex","capital":"","population":55792},{"city":"Bambang","city_ascii":"Bambang","lat":16.3872,"lng":121.1075,"country":"Philippines","iso2":"PH","iso3":"PHL","admin_name":"Nueva Vizcaya","capital":"","population":55789},{"city":"Biswān","city_ascii":"Biswan","lat":27.5,"lng":81,"country":"India","iso2":"IN","iso3":"IND","admin_name":"Uttar Pradesh","capital":"","population":55780},{"city":"Tsévié","city_ascii":"Tsevie","lat":6.4333,"lng":1.2167,"country":"Togo","iso2":"TG","iso3":"TGO","admin_name":"Maritime","capital":"","population":55775},{"city":"Union","city_ascii":"Union","lat":42.1258,"lng":-76.0329,"country":"United States","iso2":"US","iso3":"USA","admin_name":"New York","capital":"","population":55775},{"city":"Rengo","city_ascii":"Rengo","lat":-34.4167,"lng":-70.8667,"country":"Chile","iso2":"CL","iso3":"CHL","admin_name":"Libertador General Bernardo O’Higgins","capital":"","population":55757},{"city":"Gulariyā","city_ascii":"Gulariya","lat":28.2331,"lng":81.3331,"country":"Nepal","iso2":"NP","iso3":"NPL","admin_name":"","capital":"","population":55747},{"city":"Cuneo","city_ascii":"Cuneo","lat":44.3894,"lng":7.5478,"country":"Italy","iso2":"IT","iso3":"ITA","admin_name":"Piedmont","capital":"minor","population":55744},{"city":"Umm Ruwaba","city_ascii":"Umm Ruwaba","lat":12.9046,"lng":31.2079,"country":"Sudan","iso2":"SD","iso3":"SDN","admin_name":"North Kordofan","capital":"","population":55742},{"city":"Kannamangalam","city_ascii":"Kannamangalam","lat":10.05,"lng":77.05,"country":"India","iso2":"IN","iso3":"IND","admin_name":"Kerala","capital":"","population":55738},{"city":"Royal Leamington Spa","city_ascii":"Royal Leamington Spa","lat":52.2919,"lng":-1.5358,"country":"United Kingdom","iso2":"GB","iso3":"GBR","admin_name":"Warwickshire","capital":"","population":55733},{"city":"Lesosibirsk","city_ascii":"Lesosibirsk","lat":58.2358,"lng":92.4828,"country":"Russia","iso2":"RU","iso3":"RUS","admin_name":"Krasnoyarskiy Kray","capital":"","population":55730},{"city":"Azul","city_ascii":"Azul","lat":-36.7833,"lng":-59.85,"country":"Argentina","iso2":"AR","iso3":"ARG","admin_name":"Buenos Aires","capital":"minor","population":55728},{"city":"Atchampeta","city_ascii":"Atchampeta","lat":15.5412,"lng":78.9503,"country":"India","iso2":"IN","iso3":"IND","admin_name":"Andhra Pradesh","capital":"","population":55722},{"city":"Oulad Yaïch","city_ascii":"Oulad Yaich","lat":36.5039,"lng":2.8619,"country":"Algeria","iso2":"DZ","iso3":"DZA","admin_name":"Blida","capital":"","population":55719},{"city":"New Brunswick","city_ascii":"New Brunswick","lat":40.487,"lng":-74.445,"country":"United States","iso2":"US","iso3":"USA","admin_name":"New Jersey","capital":"","population":55718},{"city":"Apatity","city_ascii":"Apatity","lat":67.5667,"lng":33.4,"country":"Russia","iso2":"RU","iso3":"RUS","admin_name":"Murmanskaya Oblast’","capital":"minor","population":55713},{"city":"Nōgata","city_ascii":"Nogata","lat":33.7417,"lng":130.7322,"country":"Japan","iso2":"JP","iso3":"JPN","admin_name":"Fukuoka","capital":"","population":55705},{"city":"Asadābād","city_ascii":"Asadabad","lat":34.7825,"lng":48.1219,"country":"Iran","iso2":"IR","iso3":"IRN","admin_name":"Hamadān","capital":"minor","population":55703},{"city":"Tursunzoda","city_ascii":"Tursunzoda","lat":38.5108,"lng":68.2303,"country":"Tajikistan","iso2":"TJ","iso3":"TJK","admin_name":"Nohiyahoi Tobei Jumhurí","capital":"minor","population":55700},{"city":"Paombong","city_ascii":"Paombong","lat":14.8311,"lng":120.7892,"country":"Philippines","iso2":"PH","iso3":"PHL","admin_name":"Bulacan","capital":"","population":55696},{"city":"Będzin","city_ascii":"Bedzin","lat":50.3333,"lng":19.1167,"country":"Poland","iso2":"PL","iso3":"POL","admin_name":"Śląskie","capital":"minor","population":55695},{"city":"Zile","city_ascii":"Zile","lat":40.3,"lng":35.8833,"country":"Turkey","iso2":"TR","iso3":"TUR","admin_name":"Tokat","capital":"minor","population":55673},{"city":"Dzerzhinskiy","city_ascii":"Dzerzhinskiy","lat":55.6333,"lng":37.85,"country":"Russia","iso2":"RU","iso3":"RUS","admin_name":"Moskovskaya Oblast’","capital":"minor","population":55669},{"city":"Nawucun","city_ascii":"Nawucun","lat":22.0039,"lng":110.5874,"country":"China","iso2":"CN","iso3":"CHN","admin_name":"Guangdong","capital":"","population":55658},{"city":"Siliancun","city_ascii":"Siliancun","lat":22.7155,"lng":111.3163,"country":"China","iso2":"CN","iso3":"CHN","admin_name":"Guangdong","capital":"","population":55642},{"city":"Hashtgerd","city_ascii":"Hashtgerd","lat":35.9619,"lng":50.6889,"country":"Iran","iso2":"IR","iso3":"IRN","admin_name":"Alborz","capital":"minor","population":55640},{"city":"Kāndi","city_ascii":"Kandi","lat":23.95,"lng":88.03,"country":"India","iso2":"IN","iso3":"IND","admin_name":"West Bengal","capital":"","population":55632},{"city":"Nueva Loja","city_ascii":"Nueva Loja","lat":0.0847,"lng":-76.8828,"country":"Ecuador","iso2":"EC","iso3":"ECU","admin_name":"Sucumbíos","capital":"admin","population":55627},{"city":"Meaux","city_ascii":"Meaux","lat":48.9603,"lng":2.8883,"country":"France","iso2":"FR","iso3":"FRA","admin_name":"Île-de-France","capital":"minor","population":55616},{"city":"Portimão","city_ascii":"Portimao","lat":37.1369,"lng":-8.5383,"country":"Portugal","iso2":"PT","iso3":"PRT","admin_name":"Faro","capital":"minor","population":55614},{"city":"Hoogeveen","city_ascii":"Hoogeveen","lat":52.7333,"lng":6.4833,"country":"Netherlands","iso2":"NL","iso3":"NLD","admin_name":"Drenthe","capital":"minor","population":55603},{"city":"Nyenga","city_ascii":"Nyenga","lat":0.38,"lng":33.15,"country":"Uganda","iso2":"UG","iso3":"UGA","admin_name":"Buikwe","capital":"","population":55600},{"city":"Guliston","city_ascii":"Guliston","lat":40.4833,"lng":68.7833,"country":"Uzbekistan","iso2":"UZ","iso3":"UZB","admin_name":"Sirdaryo","capital":"admin","population":55600},{"city":"Yongqing","city_ascii":"Yongqing","lat":34.7522,"lng":106.1312,"country":"China","iso2":"CN","iso3":"CHN","admin_name":"Gansu","capital":"minor","population":55595},{"city":"Apple Valley","city_ascii":"Apple Valley","lat":44.7457,"lng":-93.2004,"country":"United States","iso2":"US","iso3":"USA","admin_name":"Minnesota","capital":"","population":55594},{"city":"Iba","city_ascii":"Iba","lat":15.33,"lng":119.98,"country":"Philippines","iso2":"PH","iso3":"PHL","admin_name":"Zambales","capital":"admin","population":55581},{"city":"Mulanay","city_ascii":"Mulanay","lat":13.5222,"lng":122.4042,"country":"Philippines","iso2":"PH","iso3":"PHL","admin_name":"Quezon","capital":"","population":55576},{"city":"Kuala Kapuas","city_ascii":"Kuala Kapuas","lat":-3.0013,"lng":114.3916,"country":"Indonesia","iso2":"ID","iso3":"IDN","admin_name":"Kalimantan Tengah","capital":"minor","population":55573},{"city":"Tinley Park","city_ascii":"Tinley Park","lat":41.567,"lng":-87.8049,"country":"United States","iso2":"US","iso3":"USA","admin_name":"Illinois","capital":"","population":55571},{"city":"Finote Selam","city_ascii":"Finote Selam","lat":10.7,"lng":37.2667,"country":"Ethiopia","iso2":"ET","iso3":"ETH","admin_name":"Āmara","capital":"","population":55567},{"city":"Hà Giang","city_ascii":"Ha Giang","lat":22.8333,"lng":104.9833,"country":"Vietnam","iso2":"VN","iso3":"VNM","admin_name":"Hà Giang","capital":"admin","population":55559},{"city":"Trapani","city_ascii":"Trapani","lat":38.0175,"lng":12.515,"country":"Italy","iso2":"IT","iso3":"ITA","admin_name":"Sicilia","capital":"minor","population":55559},{"city":"Urbiztondo","city_ascii":"Urbiztondo","lat":15.8227,"lng":120.3295,"country":"Philippines","iso2":"PH","iso3":"PHL","admin_name":"Pangasinan","capital":"","population":55557},{"city":"Saravena","city_ascii":"Saravena","lat":6.9556,"lng":-71.8722,"country":"Colombia","iso2":"CO","iso3":"COL","admin_name":"Arauca","capital":"minor","population":55554},{"city":"Nuevo Casas Grandes","city_ascii":"Nuevo Casas Grandes","lat":30.4167,"lng":-107.9167,"country":"Mexico","iso2":"MX","iso3":"MEX","admin_name":"Chihuahua","capital":"minor","population":55553},{"city":"Buthidaung","city_ascii":"Buthidaung","lat":20.8667,"lng":92.5333,"country":"Burma","iso2":"MM","iso3":"MMR","admin_name":"Rakhine State","capital":"","population":55545},{"city":"Wellington","city_ascii":"Wellington","lat":-33.6333,"lng":18.9833,"country":"South Africa","iso2":"ZA","iso3":"ZAF","admin_name":"Western Cape","capital":"","population":55543},{"city":"Raxaul","city_ascii":"Raxaul","lat":26.9833,"lng":84.85,"country":"India","iso2":"IN","iso3":"IND","admin_name":"Bihār","capital":"","population":55537},{"city":"Pulheim","city_ascii":"Pulheim","lat":51,"lng":6.8,"country":"Germany","iso2":"DE","iso3":"DEU","admin_name":"North Rhine-Westphalia","capital":"","population":55530},{"city":"Kidderminster","city_ascii":"Kidderminster","lat":52.3885,"lng":-2.249,"country":"United Kingdom","iso2":"GB","iso3":"GBR","admin_name":"Worcestershire","capital":"","population":55530},{"city":"Shendi","city_ascii":"Shendi","lat":16.6833,"lng":33.4333,"country":"Sudan","iso2":"SD","iso3":"SDN","admin_name":"River Nile","capital":"","population":55516},{"city":"Sankt Pölten","city_ascii":"Sankt Polten","lat":48.2,"lng":15.6167,"country":"Austria","iso2":"AT","iso3":"AUT","admin_name":"Niederösterreich","capital":"admin","population":55514},{"city":"Opava","city_ascii":"Opava","lat":49.9381,"lng":17.9044,"country":"Czechia","iso2":"CZ","iso3":"CZE","admin_name":"Moravskoslezský Kraj","capital":"","population":55512},{"city":"Agrigento","city_ascii":"Agrigento","lat":37.3167,"lng":13.5833,"country":"Italy","iso2":"IT","iso3":"ITA","admin_name":"Sicilia","capital":"minor","population":55512},{"city":"Chystiakove","city_ascii":"Chystiakove","lat":48.0219,"lng":38.6264,"country":"Ukraine","iso2":"UA","iso3":"UKR","admin_name":"Donetska Oblast","capital":"","population":55511},{"city":"San Agustín Acasaguastlán","city_ascii":"San Agustin Acasaguastlan","lat":14.95,"lng":-89.9667,"country":"Guatemala","iso2":"GT","iso3":"GTM","admin_name":"El Progreso","capital":"minor","population":55508},{"city":"Sarasota","city_ascii":"Sarasota","lat":27.3387,"lng":-82.5432,"country":"United States","iso2":"US","iso3":"USA","admin_name":"Florida","capital":"","population":55508},{"city":"Barwāni","city_ascii":"Barwani","lat":22.03,"lng":74.9,"country":"India","iso2":"IN","iso3":"IND","admin_name":"Madhya Pradesh","capital":"","population":55504},{"city":"Porto Alexandre","city_ascii":"PortoAlexandre","lat":-15.8,"lng":11.85,"country":"Angola","iso2":"AO","iso3":"AGO","admin_name":"Namibe","capital":"","population":55494},{"city":"Barrow in Furness","city_ascii":"Barrow in Furness","lat":54.1108,"lng":-3.2261,"country":"United Kingdom","iso2":"GB","iso3":"GBR","admin_name":"Cumbria","capital":"","population":55489},{"city":"Batac","city_ascii":"Batac","lat":18.0554,"lng":120.5649,"country":"Philippines","iso2":"PH","iso3":"PHL","admin_name":"Ilocos Norte","capital":"","population":55484},{"city":"Villarrica","city_ascii":"Villarrica","lat":-39.2667,"lng":-72.2167,"country":"Chile","iso2":"CL","iso3":"CHL","admin_name":"Araucanía","capital":"","population":55478},{"city":"Videira","city_ascii":"Videira","lat":-27.0078,"lng":-51.1519,"country":"Brazil","iso2":"BR","iso3":"BRA","admin_name":"Santa Catarina","capital":"","population":55466},{"city":"Qiryat Ata","city_ascii":"Qiryat Ata","lat":32.8,"lng":35.1,"country":"Israel","iso2":"IL","iso3":"ISR","admin_name":"Haifa","capital":"","population":55464},{"city":"Hacienda Heights","city_ascii":"Hacienda Heights","lat":33.997,"lng":-117.9727,"country":"United States","iso2":"US","iso3":"USA","admin_name":"California","capital":"","population":55461},{"city":"Chicopee","city_ascii":"Chicopee","lat":42.1764,"lng":-72.5719,"country":"United States","iso2":"US","iso3":"USA","admin_name":"Massachusetts","capital":"","population":55441},{"city":"Nansan","city_ascii":"Nansan","lat":23.7784,"lng":98.8253,"country":"China","iso2":"CN","iso3":"CHN","admin_name":"Yunnan","capital":"minor","population":55436},{"city":"Tonekābon","city_ascii":"Tonekabon","lat":36.8153,"lng":50.8711,"country":"Iran","iso2":"IR","iso3":"IRN","admin_name":"Māzandarān","capital":"minor","population":55434},{"city":"Zalaegerszeg","city_ascii":"Zalaegerszeg","lat":46.8392,"lng":16.8511,"country":"Hungary","iso2":"HU","iso3":"HUN","admin_name":"Zala","capital":"admin","population":55433},{"city":"Biała Podlaska","city_ascii":"Biala Podlaska","lat":52.0333,"lng":23.1167,"country":"Poland","iso2":"PL","iso3":"POL","admin_name":"Lubelskie","capital":"minor","population":55429},{"city":"Xinqing","city_ascii":"Xinqing","lat":48.2363,"lng":129.5059,"country":"China","iso2":"CN","iso3":"CHN","admin_name":"Heilongjiang","capital":"","population":55415},{"city":"Monte Mor","city_ascii":"Monte Mor","lat":-22.9467,"lng":-47.315,"country":"Brazil","iso2":"BR","iso3":"BRA","admin_name":"São Paulo","capital":"","population":55409},{"city":"Tatalon","city_ascii":"Tatalon","lat":14.6242,"lng":121.0153,"country":"Philippines","iso2":"PH","iso3":"PHL","admin_name":"Quezon","capital":"","population":55404},{"city":"Ovar","city_ascii":"Ovar","lat":40.8667,"lng":-8.6333,"country":"Portugal","iso2":"PT","iso3":"PRT","admin_name":"Aveiro","capital":"minor","population":55398},{"city":"Sacapulas","city_ascii":"Sacapulas","lat":15.2892,"lng":-91.0892,"country":"Guatemala","iso2":"GT","iso3":"GTM","admin_name":"Quiché","capital":"minor","population":55398},{"city":"Asturias","city_ascii":"Asturias","lat":10.5679,"lng":123.7172,"country":"Philippines","iso2":"PH","iso3":"PHL","admin_name":"Cebu","capital":"","population":55397},{"city":"Toki","city_ascii":"Toki","lat":35.4192,"lng":137.1832,"country":"Japan","iso2":"JP","iso3":"JPN","admin_name":"Gifu","capital":"","population":55388},{"city":"Erumaippatti","city_ascii":"Erumaippatti","lat":11.58,"lng":77.85,"country":"India","iso2":"IN","iso3":"IND","admin_name":"Tamil Nādu","capital":"","population":55385},{"city":"Khorramdarreh","city_ascii":"Khorramdarreh","lat":36.2072,"lng":49.1992,"country":"Iran","iso2":"IR","iso3":"IRN","admin_name":"Zanjān","capital":"minor","population":55368},{"city":"Langenhagen","city_ascii":"Langenhagen","lat":52.4394,"lng":9.74,"country":"Germany","iso2":"DE","iso3":"DEU","admin_name":"Lower Saxony","capital":"","population":55367},{"city":"Thérmi","city_ascii":"Thermi","lat":40.55,"lng":23.0167,"country":"Greece","iso2":"GR","iso3":"GRC","admin_name":"Kentrikí Makedonía","capital":"minor","population":55358},{"city":"Yamasá","city_ascii":"Yamasa","lat":18.7667,"lng":-70.0167,"country":"Dominican Republic","iso2":"DO","iso3":"DOM","admin_name":"Higuamo","capital":"","population":55348},{"city":"Taliwang","city_ascii":"Taliwang","lat":-8.7336,"lng":116.8667,"country":"Indonesia","iso2":"ID","iso3":"IDN","admin_name":"Nusa Tenggara Barat","capital":"minor","population":55340},{"city":"West Haven","city_ascii":"West Haven","lat":41.2739,"lng":-72.9672,"country":"United States","iso2":"US","iso3":"USA","admin_name":"Connecticut","capital":"","population":55336},{"city":"Mercedes","city_ascii":"Mercedes","lat":14.1093,"lng":123.0109,"country":"Philippines","iso2":"PH","iso3":"PHL","admin_name":"Camarines Norte","capital":"","population":55334},{"city":"Winneba","city_ascii":"Winneba","lat":5.35,"lng":-0.625,"country":"Ghana","iso2":"GH","iso3":"GHA","admin_name":"Central","capital":"","population":55331},{"city":"Harpanahalli","city_ascii":"Harpanahalli","lat":14.7877,"lng":75.9886,"country":"India","iso2":"IN","iso3":"IND","admin_name":"Karnātaka","capital":"","population":55317},{"city":"Buta","city_ascii":"Buta","lat":2.8,"lng":24.7333,"country":"Congo (Kinshasa)","iso2":"CD","iso3":"COD","admin_name":"Bas-Uélé","capital":"admin","population":55313},{"city":"Midalt","city_ascii":"Midalt","lat":32.68,"lng":-4.73,"country":"Morocco","iso2":"MA","iso3":"MAR","admin_name":"Drâa-Tafilalet","capital":"","population":55304},{"city":"Herriman","city_ascii":"Herriman","lat":40.4899,"lng":-112.017,"country":"United States","iso2":"US","iso3":"USA","admin_name":"Utah","capital":"","population":55301},{"city":"Umm el Faḥm","city_ascii":"Umm el Fahm","lat":32.5194,"lng":35.1536,"country":"Israel","iso2":"IL","iso3":"ISR","admin_name":"Haifa","capital":"","population":55300},{"city":"Meyerton","city_ascii":"Meyerton","lat":-26.5583,"lng":28.0197,"country":"South Africa","iso2":"ZA","iso3":"ZAF","admin_name":"Gauteng","capital":"","population":55283},{"city":"Periya Semūr","city_ascii":"Periya Semur","lat":11.37,"lng":77.6908,"country":"India","iso2":"IN","iso3":"IND","admin_name":"Tamil Nādu","capital":"","population":55282},{"city":"Moreno","city_ascii":"Moreno","lat":-8.1186,"lng":-35.0922,"country":"Brazil","iso2":"BR","iso3":"BRA","admin_name":"Pernambuco","capital":"minor","population":55268},{"city":"Três Pontas","city_ascii":"Tres Pontas","lat":-21.3703,"lng":-45.5122,"country":"Brazil","iso2":"BR","iso3":"BRA","admin_name":"Minas Gerais","capital":"","population":55259},{"city":"Wangguanzhuang Sicun","city_ascii":"Wangguanzhuang Sicun","lat":37.0183,"lng":115.5773,"country":"China","iso2":"CN","iso3":"CHN","admin_name":"Hebei","capital":"","population":55258},{"city":"Nordhorn","city_ascii":"Nordhorn","lat":52.4319,"lng":7.0678,"country":"Germany","iso2":"DE","iso3":"DEU","admin_name":"Lower Saxony","capital":"minor","population":55242},{"city":"Madhupur","city_ascii":"Madhupur","lat":24.26,"lng":86.65,"country":"India","iso2":"IN","iso3":"IND","admin_name":"Jhārkhand","capital":"","population":55238},{"city":"Foligno","city_ascii":"Foligno","lat":42.95,"lng":12.7,"country":"Italy","iso2":"IT","iso3":"ITA","admin_name":"Umbria","capital":"","population":55226},{"city":"Perth Amboy","city_ascii":"Perth Amboy","lat":40.5202,"lng":-74.2724,"country":"United States","iso2":"US","iso3":"USA","admin_name":"New Jersey","capital":"","population":55226},{"city":"Rijswijk","city_ascii":"Rijswijk","lat":52.0333,"lng":4.3167,"country":"Netherlands","iso2":"NL","iso3":"NLD","admin_name":"Zuid-Holland","capital":"minor","population":55220},{"city":"Porirua","city_ascii":"Porirua","lat":-41.1333,"lng":174.85,"country":"New Zealand","iso2":"NZ","iso3":"NZL","admin_name":"Wellington","capital":"","population":55218},{"city":"Pombal","city_ascii":"Pombal","lat":39.9161,"lng":-8.6281,"country":"Portugal","iso2":"PT","iso3":"PRT","admin_name":"Leiria","capital":"minor","population":55217},{"city":"Chālil","city_ascii":"Chalil","lat":11.7519,"lng":75.5959,"country":"India","iso2":"IN","iso3":"IND","admin_name":"Kerala","capital":"","population":55216},{"city":"Pinto","city_ascii":"Pinto","lat":40.25,"lng":-3.7,"country":"Spain","iso2":"ES","iso3":"ESP","admin_name":"Madrid","capital":"","population":55208},{"city":"Verviers","city_ascii":"Verviers","lat":50.5833,"lng":5.85,"country":"Belgium","iso2":"BE","iso3":"BEL","admin_name":"Wallonia","capital":"minor","population":55198},{"city":"Colmenar Viejo","city_ascii":"Colmenar Viejo","lat":40.6589,"lng":-3.7658,"country":"Spain","iso2":"ES","iso3":"ESP","admin_name":"Madrid","capital":"","population":55198},{"city":"Challakere","city_ascii":"Challakere","lat":14.312,"lng":76.651,"country":"India","iso2":"IN","iso3":"IND","admin_name":"Karnātaka","capital":"","population":55194},{"city":"Casa Grande","city_ascii":"Casa Grande","lat":32.9069,"lng":-111.7624,"country":"United States","iso2":"US","iso3":"USA","admin_name":"Arizona","capital":"","population":55186},{"city":"Wuhuang","city_ascii":"Wuhuang","lat":29.9649,"lng":104.7883,"country":"China","iso2":"CN","iso3":"CHN","admin_name":"Sichuan","capital":"","population":55180},{"city":"Tigard","city_ascii":"Tigard","lat":45.4237,"lng":-122.7845,"country":"United States","iso2":"US","iso3":"USA","admin_name":"Oregon","capital":"","population":55161},{"city":"Biel/Bienne","city_ascii":"Biel/Bienne","lat":47.1333,"lng":7.25,"country":"Switzerland","iso2":"CH","iso3":"CHE","admin_name":"Bern","capital":"","population":55159},{"city":"Kronjo","city_ascii":"Kronjo","lat":-6.0667,"lng":106.4167,"country":"Indonesia","iso2":"ID","iso3":"IDN","admin_name":"Jawa Barat","capital":"","population":55152},{"city":"Puthiyangādi","city_ascii":"Puthiyangadi","lat":12.0189,"lng":75.2588,"country":"India","iso2":"IN","iso3":"IND","admin_name":"Puducherry","capital":"","population":55149},{"city":"Lazarevac","city_ascii":"Lazarevac","lat":44.3667,"lng":20.25,"country":"Serbia","iso2":"RS","iso3":"SRB","admin_name":"Beograd","capital":"minor","population":55146},{"city":"Nāmakkal","city_ascii":"Namakkal","lat":11.2167,"lng":78.1667,"country":"India","iso2":"IN","iso3":"IND","admin_name":"Tamil Nādu","capital":"","population":55145},{"city":"Vranje","city_ascii":"Vranje","lat":42.55,"lng":21.9,"country":"Serbia","iso2":"RS","iso3":"SRB","admin_name":"Vranje","capital":"admin","population":55138},{"city":"Ibiporã","city_ascii":"Ibipora","lat":-23.2833,"lng":-51.05,"country":"Brazil","iso2":"BR","iso3":"BRA","admin_name":"Paraná","capital":"","population":55131},{"city":"Santa Cruz","city_ascii":"Santa Cruz","lat":10.2358,"lng":-85.6408,"country":"Costa Rica","iso2":"CR","iso3":"CRI","admin_name":"Guanacaste","capital":"","population":55104},{"city":"Hyères","city_ascii":"Hyeres","lat":43.1199,"lng":6.1316,"country":"France","iso2":"FR","iso3":"FRA","admin_name":"Provence-Alpes-Côte d’Azur","capital":"","population":55103},{"city":"Stryi","city_ascii":"Stryi","lat":49.25,"lng":23.85,"country":"Ukraine","iso2":"UA","iso3":"UKR","admin_name":"Lvivska Oblast","capital":"minor","population":55100},{"city":"Linares","city_ascii":"Linares","lat":38.0833,"lng":-3.6333,"country":"Spain","iso2":"ES","iso3":"ESP","admin_name":"Andalusia","capital":"","population":55096},{"city":"Māngrol","city_ascii":"Mangrol","lat":21.12,"lng":70.12,"country":"India","iso2":"IN","iso3":"IND","admin_name":"Gujarāt","capital":"","population":55094},{"city":"Shijōnawate","city_ascii":"Shijonawate","lat":34.74,"lng":135.6394,"country":"Japan","iso2":"JP","iso3":"JPN","admin_name":"Ōsaka","capital":"","population":55094},{"city":"Békéscsaba","city_ascii":"Bekescsaba","lat":46.679,"lng":21.091,"country":"Hungary","iso2":"HU","iso3":"HUN","admin_name":"Békés","capital":"admin","population":55091},{"city":"Novohrad-Volynskyi","city_ascii":"Novohrad-Volynskyi","lat":50.5833,"lng":27.6333,"country":"Ukraine","iso2":"UA","iso3":"UKR","admin_name":"Zhytomyrska Oblast","capital":"minor","population":55086},{"city":"Manapla","city_ascii":"Manapla","lat":10.958,"lng":123.123,"country":"Philippines","iso2":"PH","iso3":"PHL","admin_name":"Negros Occidental","capital":"","population":55083},{"city":"Chonthrhu","city_ascii":"Chonthrhu","lat":32.4865,"lng":75.9941,"country":"India","iso2":"IN","iso3":"IND","admin_name":"Himāchal Pradesh","capital":"","population":55083},{"city":"Bhīmunipatnam","city_ascii":"Bhimunipatnam","lat":17.8846,"lng":83.4393,"country":"India","iso2":"IN","iso3":"IND","admin_name":"Andhra Pradesh","capital":"","population":55082},{"city":"Zgierz","city_ascii":"Zgierz","lat":51.85,"lng":19.4167,"country":"Poland","iso2":"PL","iso3":"POL","admin_name":"Łódzkie","capital":"minor","population":55079},{"city":"Olímpia","city_ascii":"Olimpia","lat":-20.7372,"lng":-48.9147,"country":"Brazil","iso2":"BR","iso3":"BRA","admin_name":"São Paulo","capital":"minor","population":55075},{"city":"Eqbālīyeh","city_ascii":"Eqbaliyeh","lat":36.2306,"lng":49.9225,"country":"Iran","iso2":"IR","iso3":"IRN","admin_name":"Qazvīn","capital":"","population":55066},{"city":"Rangewala","city_ascii":"Rangewala","lat":30.8222,"lng":74.2611,"country":"Pakistan","iso2":"PK","iso3":"PAK","admin_name":"Punjab","capital":"","population":55057},{"city":"Bobigny","city_ascii":"Bobigny","lat":48.9106,"lng":2.4397,"country":"France","iso2":"FR","iso3":"FRA","admin_name":"Île-de-France","capital":"minor","population":55056},{"city":"Apopka","city_ascii":"Apopka","lat":28.7015,"lng":-81.5316,"country":"United States","iso2":"US","iso3":"USA","admin_name":"Florida","capital":"","population":55056},{"city":"Ucuma","city_ascii":"Ucuma","lat":-12.85,"lng":15.0667,"country":"Angola","iso2":"AO","iso3":"AGO","admin_name":"Huambo","capital":"","population":55054},{"city":"Lampang","city_ascii":"Lampang","lat":18.3,"lng":99.5,"country":"Thailand","iso2":"TH","iso3":"THA","admin_name":"Lampang","capital":"admin","population":55044},{"city":"Fālākāta","city_ascii":"Falakata","lat":26.53,"lng":89.2,"country":"India","iso2":"IN","iso3":"IND","admin_name":"West Bengal","capital":"","population":55039},{"city":"União da Vitória","city_ascii":"Uniao da Vitoria","lat":-26.2167,"lng":-51.0833,"country":"Brazil","iso2":"BR","iso3":"BRA","admin_name":"Paraná","capital":"","population":55033},{"city":"Chino","city_ascii":"Chino","lat":35.9955,"lng":138.1588,"country":"Japan","iso2":"JP","iso3":"JPN","admin_name":"Nagano","capital":"","population":55018},{"city":"Canoinhas","city_ascii":"Canoinhas","lat":-26.1769,"lng":-50.39,"country":"Brazil","iso2":"BR","iso3":"BRA","admin_name":"Santa Catarina","capital":"","population":55016},{"city":"Touba","city_ascii":"Touba","lat":8.2833,"lng":-7.6833,"country":"Côte d’Ivoire","iso2":"CI","iso3":"CIV","admin_name":"Woroba","capital":"minor","population":55013},{"city":"Agbangnizoun","city_ascii":"Agbangnizoun","lat":7.0667,"lng":1.9667,"country":"Benin","iso2":"BJ","iso3":"BEN","admin_name":"Zou","capital":"","population":55001},{"city":"Bilis Qooqaani","city_ascii":"Bilis Qooqaani","lat":0.2822,"lng":41.7144,"country":"Somalia","iso2":"SO","iso3":"SOM","admin_name":"Jubbada Hoose","capital":"","population":55000},{"city":"Elenga","city_ascii":"Elenga","lat":24.3386,"lng":89.9219,"country":"Bangladesh","iso2":"BD","iso3":"BGD","admin_name":"Dhaka","capital":"","population":55000},{"city":"Polūr","city_ascii":"Polur","lat":12.5119,"lng":79.1258,"country":"India","iso2":"IN","iso3":"IND","admin_name":"Tamil Nādu","capital":"","population":55000},{"city":"Bhongīr","city_ascii":"Bhongir","lat":17.51,"lng":78.89,"country":"India","iso2":"IN","iso3":"IND","admin_name":"Telangāna","capital":"","population":55000},{"city":"Tāsgaon","city_ascii":"Tasgaon","lat":17.03,"lng":74.6,"country":"India","iso2":"IN","iso3":"IND","admin_name":"Mahārāshtra","capital":"","population":55000},{"city":"Bad Homburg","city_ascii":"Bad Homburg","lat":50.2167,"lng":8.6,"country":"Germany","iso2":"DE","iso3":"DEU","admin_name":"Hesse","capital":"minor","population":54996},{"city":"Narutochō-mitsuishi","city_ascii":"Narutocho-mitsuishi","lat":34.1667,"lng":134.6167,"country":"Japan","iso2":"JP","iso3":"JPN","admin_name":"Tokushima","capital":"","population":54989},{"city":"Dompu","city_ascii":"Dompu","lat":-8.5364,"lng":118.4633,"country":"Indonesia","iso2":"ID","iso3":"IDN","admin_name":"Nusa Tenggara Barat","capital":"minor","population":54987},{"city":"Songjiangcun","city_ascii":"Songjiangcun","lat":42.1756,"lng":127.4842,"country":"China","iso2":"CN","iso3":"CHN","admin_name":"Jilin","capital":"","population":54986},{"city":"Catu","city_ascii":"Catu","lat":-12.3497,"lng":-38.3831,"country":"Brazil","iso2":"BR","iso3":"BRA","admin_name":"Bahia","capital":"minor","population":54970},{"city":"Şırnak","city_ascii":"Sirnak","lat":37.52,"lng":42.459,"country":"Turkey","iso2":"TR","iso3":"TUR","admin_name":"Şırnak","capital":"admin","population":54955},{"city":"La Roche-sur-Yon","city_ascii":"La Roche-sur-Yon","lat":46.6705,"lng":-1.426,"country":"France","iso2":"FR","iso3":"FRA","admin_name":"Pays de la Loire","capital":"minor","population":54952},{"city":"Granadilla de Abona","city_ascii":"Granadilla de Abona","lat":28.1167,"lng":-16.5667,"country":"Spain","iso2":"ES","iso3":"ESP","admin_name":"Canary Islands","capital":"","population":54942},{"city":"Trani","city_ascii":"Trani","lat":41.2667,"lng":16.4167,"country":"Italy","iso2":"IT","iso3":"ITA","admin_name":"Puglia","capital":"minor","population":54941},{"city":"Oxchuc","city_ascii":"Oxchuc","lat":16.7833,"lng":-92.2833,"country":"Mexico","iso2":"MX","iso3":"MEX","admin_name":"Chiapas","capital":"minor","population":54932},{"city":"Tequisquiapan","city_ascii":"Tequisquiapan","lat":20.5206,"lng":-99.8958,"country":"Mexico","iso2":"MX","iso3":"MEX","admin_name":"Querétaro","capital":"minor","population":54929},{"city":"Corby","city_ascii":"Corby","lat":52.4877,"lng":-0.7013,"country":"United Kingdom","iso2":"GB","iso3":"GBR","admin_name":"Northamptonshire","capital":"","population":54927},{"city":"Nāndod","city_ascii":"Nandod","lat":21.8706,"lng":73.5028,"country":"India","iso2":"IN","iso3":"IND","admin_name":"Gujarāt","capital":"","population":54923},{"city":"Tivoli","city_ascii":"Tivoli","lat":41.9597,"lng":12.7981,"country":"Italy","iso2":"IT","iso3":"ITA","admin_name":"Lazio","capital":"","population":54916},{"city":"Southaven","city_ascii":"Southaven","lat":34.9514,"lng":-89.9786,"country":"United States","iso2":"US","iso3":"USA","admin_name":"Mississippi","capital":"","population":54908},{"city":"Imarichō-kō","city_ascii":"Imaricho-ko","lat":33.2667,"lng":129.8833,"country":"Japan","iso2":"JP","iso3":"JPN","admin_name":"Saga","capital":"","population":54907},{"city":"Acıpayam","city_ascii":"Acipayam","lat":37.425,"lng":29.3539,"country":"Turkey","iso2":"TR","iso3":"TUR","admin_name":"Denizli","capital":"minor","population":54888},{"city":"Luquembo","city_ascii":"Luquembo","lat":-10.7333,"lng":17.8833,"country":"Angola","iso2":"AO","iso3":"AGO","admin_name":"Malanje","capital":"","population":54880},{"city":"Canterbury","city_ascii":"Canterbury","lat":51.28,"lng":1.08,"country":"United Kingdom","iso2":"GB","iso3":"GBR","admin_name":"Kent","capital":"","population":54880},{"city":"Zhushan","city_ascii":"Zhushan","lat":23.6889,"lng":120.7289,"country":"Taiwan","iso2":"TW","iso3":"TWN","admin_name":"Nantou","capital":"","population":54870},{"city":"Pithāpuram","city_ascii":"Pithapuram","lat":17.1167,"lng":82.2667,"country":"India","iso2":"IN","iso3":"IND","admin_name":"Andhra Pradesh","capital":"","population":54859},{"city":"Queensburgh","city_ascii":"Queensburgh","lat":-29.8667,"lng":30.9333,"country":"South Africa","iso2":"ZA","iso3":"ZAF","admin_name":"KwaZulu-Natal","capital":"","population":54846},{"city":"Yenişehir","city_ascii":"Yenisehir","lat":40.2644,"lng":29.6531,"country":"Turkey","iso2":"TR","iso3":"TUR","admin_name":"Bursa","capital":"minor","population":54844},{"city":"Jelgava","city_ascii":"Jelgava","lat":56.6483,"lng":23.7139,"country":"Latvia","iso2":"LV","iso3":"LVA","admin_name":"Jelgava","capital":"admin","population":54836},{"city":"Minamiuonuma","city_ascii":"Minamiuonuma","lat":37.0655,"lng":138.8761,"country":"Japan","iso2":"JP","iso3":"JPN","admin_name":"Niigata","capital":"","population":54820},{"city":"Bad Salzuflen","city_ascii":"Bad Salzuflen","lat":52.0833,"lng":8.7467,"country":"Germany","iso2":"DE","iso3":"DEU","admin_name":"North Rhine-Westphalia","capital":"","population":54808},{"city":"Khurai","city_ascii":"Khurai","lat":24.0437,"lng":78.3301,"country":"India","iso2":"IN","iso3":"IND","admin_name":"Madhya Pradesh","capital":"","population":54794},{"city":"Świdnica","city_ascii":"Swidnica","lat":50.85,"lng":16.4833,"country":"Poland","iso2":"PL","iso3":"POL","admin_name":"Dolnośląskie","capital":"minor","population":54792},{"city":"Ŏjŏk-tong","city_ascii":"Ojok-tong","lat":40.2167,"lng":124.5333,"country":"Korea, North","iso2":"KP","iso3":"PRK","admin_name":"P’yŏngbuk","capital":"","population":54767},{"city":"Tacuarembó","city_ascii":"Tacuarembo","lat":-31.7333,"lng":-55.9833,"country":"Uruguay","iso2":"UY","iso3":"URY","admin_name":"Tacuarembó","capital":"admin","population":54755},{"city":"Punganūru","city_ascii":"Punganuru","lat":13.3667,"lng":78.5833,"country":"India","iso2":"IN","iso3":"IND","admin_name":"Andhra Pradesh","capital":"","population":54746},{"city":"Trenčín","city_ascii":"Trencin","lat":48.8919,"lng":18.0367,"country":"Slovakia","iso2":"SK","iso3":"SVK","admin_name":"Trenčin","capital":"admin","population":54740},{"city":"Hidaka","city_ascii":"Hidaka","lat":35.9078,"lng":139.3391,"country":"Japan","iso2":"JP","iso3":"JPN","admin_name":"Saitama","capital":"","population":54728},{"city":"Piedade","city_ascii":"Piedade","lat":-23.7119,"lng":-47.4278,"country":"Brazil","iso2":"BR","iso3":"BRA","admin_name":"São Paulo","capital":"","population":54717},{"city":"Barranqueras","city_ascii":"Barranqueras","lat":-27.4833,"lng":-58.9333,"country":"Argentina","iso2":"AR","iso3":"ARG","admin_name":"Chaco","capital":"","population":54698},{"city":"Santa Cruz","city_ascii":"Santa Cruz","lat":13.48,"lng":122.03,"country":"Philippines","iso2":"PH","iso3":"PHL","admin_name":"Marinduque","capital":"","population":54692},{"city":"Chaiwu","city_ascii":"Chaiwu","lat":39.6556,"lng":116.6292,"country":"China","iso2":"CN","iso3":"CHN","admin_name":"Beijing","capital":"","population":54690},{"city":"Sarpsborg","city_ascii":"Sarpsborg","lat":59.2858,"lng":11.1119,"country":"Norway","iso2":"NO","iso3":"NOR","admin_name":"Viken","capital":"minor","population":54678},{"city":"Belén de Escobar","city_ascii":"Belen de Escobar","lat":-34.3333,"lng":-58.8167,"country":"Argentina","iso2":"AR","iso3":"ARG","admin_name":"Buenos Aires","capital":"minor","population":54678},{"city":"Schweinfurt","city_ascii":"Schweinfurt","lat":50.05,"lng":10.2333,"country":"Germany","iso2":"DE","iso3":"DEU","admin_name":"Bavaria","capital":"","population":54675},{"city":"Phuthaditjhaba","city_ascii":"Phuthaditjhaba","lat":-28.5333,"lng":28.8167,"country":"South Africa","iso2":"ZA","iso3":"ZAF","admin_name":"Free State","capital":"","population":54661},{"city":"Saruhanlı","city_ascii":"Saruhanli","lat":38.7342,"lng":27.5658,"country":"Turkey","iso2":"TR","iso3":"TUR","admin_name":"Manisa","capital":"minor","population":54660},{"city":"Carigara","city_ascii":"Carigara","lat":11.3,"lng":124.68,"country":"Philippines","iso2":"PH","iso3":"PHL","admin_name":"Leyte","capital":"","population":54656},{"city":"Sara","city_ascii":"Sara","lat":11.25,"lng":123.02,"country":"Philippines","iso2":"PH","iso3":"PHL","admin_name":"Iloilo","capital":"","population":54637},{"city":"Hattingen","city_ascii":"Hattingen","lat":51.3992,"lng":7.1858,"country":"Germany","iso2":"DE","iso3":"DEU","admin_name":"North Rhine-Westphalia","capital":"","population":54637},{"city":"Chone","city_ascii":"Chone","lat":-0.6833,"lng":-80.1,"country":"Ecuador","iso2":"EC","iso3":"ECU","admin_name":"Manabí","capital":"","population":54629},{"city":"Mikkeli","city_ascii":"Mikkeli","lat":61.689,"lng":27.272,"country":"Finland","iso2":"FI","iso3":"FIN","admin_name":"Etelä-Savo","capital":"admin","population":54621},{"city":"Pila","city_ascii":"Pila","lat":14.23,"lng":121.37,"country":"Philippines","iso2":"PH","iso3":"PHL","admin_name":"Laguna","capital":"","population":54613},{"city":"Chota","city_ascii":"Chota","lat":-6.5614,"lng":-78.6486,"country":"Peru","iso2":"PE","iso3":"PER","admin_name":"Cajamarca","capital":"","population":54611},{"city":"Gabrovo","city_ascii":"Gabrovo","lat":42.8667,"lng":25.3333,"country":"Bulgaria","iso2":"BG","iso3":"BGR","admin_name":"Gabrovo","capital":"admin","population":54608},{"city":"Annaka","city_ascii":"Annaka","lat":36.3263,"lng":138.8871,"country":"Japan","iso2":"JP","iso3":"JPN","admin_name":"Gunma","capital":"","population":54607},{"city":"Ghātāl","city_ascii":"Ghatal","lat":22.67,"lng":87.72,"country":"India","iso2":"IN","iso3":"IND","admin_name":"West Bengal","capital":"","population":54591},{"city":"Terneuzen","city_ascii":"Terneuzen","lat":51.3333,"lng":3.8333,"country":"Netherlands","iso2":"NL","iso3":"NLD","admin_name":"Zeeland","capital":"minor","population":54589},{"city":"Palmares","city_ascii":"Palmares","lat":-8.6828,"lng":-35.5919,"country":"Brazil","iso2":"BR","iso3":"BRA","admin_name":"Pernambuco","capital":"minor","population":54584},{"city":"Santa Elena","city_ascii":"Santa Elena","lat":-2.2267,"lng":-80.8583,"country":"Ecuador","iso2":"EC","iso3":"ECU","admin_name":"Santa Elena","capital":"admin","population":54565},{"city":"Giurgiu","city_ascii":"Giurgiu","lat":43.9008,"lng":25.9739,"country":"Romania","iso2":"RO","iso3":"ROU","admin_name":"Giurgiu","capital":"admin","population":54551},{"city":"Sāgar","city_ascii":"Sagar","lat":14.1667,"lng":75.0333,"country":"India","iso2":"IN","iso3":"IND","admin_name":"Karnātaka","capital":"","population":54550},{"city":"Huntington Park","city_ascii":"Huntington Park","lat":33.98,"lng":-118.2167,"country":"United States","iso2":"US","iso3":"USA","admin_name":"California","capital":"","population":54547},{"city":"Mūndka","city_ascii":"Mundka","lat":28.6794,"lng":77.0284,"country":"India","iso2":"IN","iso3":"IND","admin_name":"Delhi","capital":"","population":54541},{"city":"Diamond Bar","city_ascii":"Diamond Bar","lat":33.9992,"lng":-117.8161,"country":"United States","iso2":"US","iso3":"USA","admin_name":"California","capital":"","population":54534},{"city":"Gus’-Khrustal’nyy","city_ascii":"Gus'-Khrustal'nyy","lat":55.6167,"lng":40.6833,"country":"Russia","iso2":"RU","iso3":"RUS","admin_name":"Vladimirskaya Oblast’","capital":"minor","population":54533},{"city":"Jinchang","city_ascii":"Jinchang","lat":38.4858,"lng":112.9643,"country":"China","iso2":"CN","iso3":"CHN","admin_name":"Shanxi","capital":"minor","population":54533},{"city":"Masinloc","city_ascii":"Masinloc","lat":15.53,"lng":119.95,"country":"Philippines","iso2":"PH","iso3":"PHL","admin_name":"Zambales","capital":"","population":54529},{"city":"Volzhsk","city_ascii":"Volzhsk","lat":55.8703,"lng":48.3561,"country":"Russia","iso2":"RU","iso3":"RUS","admin_name":"Mariy-El","capital":"minor","population":54519},{"city":"Bentonville","city_ascii":"Bentonville","lat":36.3547,"lng":-94.2305,"country":"United States","iso2":"US","iso3":"USA","admin_name":"Arkansas","capital":"","population":54513},{"city":"Pontevedra","city_ascii":"Pontevedra","lat":10.37,"lng":122.88,"country":"Philippines","iso2":"PH","iso3":"PHL","admin_name":"Negros Occidental","capital":"","population":54502},{"city":"Trento","city_ascii":"Trento","lat":8.05,"lng":126.06,"country":"Philippines","iso2":"PH","iso3":"PHL","admin_name":"Agusan del Sur","capital":"","population":54492},{"city":"Jalapa","city_ascii":"Jalapa","lat":13.9167,"lng":-86.1333,"country":"Nicaragua","iso2":"NI","iso3":"NIC","admin_name":"Nueva Segovia","capital":"minor","population":54491},{"city":"Clamart","city_ascii":"Clamart","lat":48.8014,"lng":2.2628,"country":"France","iso2":"FR","iso3":"FRA","admin_name":"Île-de-France","capital":"","population":54491},{"city":"Buderim","city_ascii":"Buderim","lat":-26.6847,"lng":153.0532,"country":"Australia","iso2":"AU","iso3":"AUS","admin_name":"Queensland","capital":"","population":54483},{"city":"Ortaca","city_ascii":"Ortaca","lat":36.8389,"lng":28.7644,"country":"Turkey","iso2":"TR","iso3":"TUR","admin_name":"Muğla","capital":"minor","population":54478},{"city":"Douar Ain Chkef","city_ascii":"Douar Ain Chkef","lat":33.9619,"lng":-5.0813,"country":"Morocco","iso2":"MA","iso3":"MAR","admin_name":"Fès-Meknès","capital":"","population":54477},{"city":"Kampen","city_ascii":"Kampen","lat":52.55,"lng":5.9167,"country":"Netherlands","iso2":"NL","iso3":"NLD","admin_name":"Overijssel","capital":"minor","population":54474},{"city":"Ensenada","city_ascii":"Ensenada","lat":-34.8644,"lng":-57.9103,"country":"Argentina","iso2":"AR","iso3":"ARG","admin_name":"Buenos Aires","capital":"minor","population":54463},{"city":"Antanifotsy","city_ascii":"Antanifotsy","lat":-19.68,"lng":47.33,"country":"Madagascar","iso2":"MG","iso3":"MDG","admin_name":"Antananarivo","capital":"","population":54448},{"city":"Nihonmatsu","city_ascii":"Nihonmatsu","lat":37.5849,"lng":140.4312,"country":"Japan","iso2":"JP","iso3":"JPN","admin_name":"Fukushima","capital":"","population":54447},{"city":"Kouri","city_ascii":"Kouri","lat":12.1833,"lng":-4.8056,"country":"Mali","iso2":"ML","iso3":"MLI","admin_name":"Sikasso","capital":"","population":54435},{"city":"Yucaipa","city_ascii":"Yucaipa","lat":34.0336,"lng":-117.0429,"country":"United States","iso2":"US","iso3":"USA","admin_name":"California","capital":"","population":54428},{"city":"Capitão Poço","city_ascii":"Capitao Poco","lat":-1.75,"lng":-47.0833,"country":"Brazil","iso2":"BR","iso3":"BRA","admin_name":"Pará","capital":"minor","population":54425},{"city":"Mbulungu","city_ascii":"Mbulungu","lat":-6.0667,"lng":21.9,"country":"Congo (Kinshasa)","iso2":"CD","iso3":"COD","admin_name":"Kasaï Central","capital":"","population":54424},{"city":"Tapas","city_ascii":"Tapas","lat":11.2622,"lng":122.5369,"country":"Philippines","iso2":"PH","iso3":"PHL","admin_name":"Capiz","capital":"","population":54423},{"city":"Vannes","city_ascii":"Vannes","lat":47.6559,"lng":-2.7603,"country":"France","iso2":"FR","iso3":"FRA","admin_name":"Bretagne","capital":"minor","population":54420},{"city":"Pallíni","city_ascii":"Pallini","lat":38,"lng":23.8833,"country":"Greece","iso2":"GR","iso3":"GRC","admin_name":"Attikí","capital":"","population":54415},{"city":"Caojia","city_ascii":"Caojia","lat":27.8197,"lng":111.3364,"country":"China","iso2":"CN","iso3":"CHN","admin_name":"Hunan","capital":"","population":54400},{"city":"Konan","city_ascii":"Konan","lat":35,"lng":136.0833,"country":"Japan","iso2":"JP","iso3":"JPN","admin_name":"Shiga","capital":"","population":54392},{"city":"San Isidro","city_ascii":"San Isidro","lat":15.3097,"lng":120.9069,"country":"Philippines","iso2":"PH","iso3":"PHL","admin_name":"Nueva Ecija","capital":"","population":54372},{"city":"Dikwella South","city_ascii":"Dikwella South","lat":5.9667,"lng":80.6833,"country":"Sri Lanka","iso2":"LK","iso3":"LKA","admin_name":"Southern","capital":"","population":54370},{"city":"Medianeira","city_ascii":"Medianeira","lat":-25.295,"lng":-54.0939,"country":"Brazil","iso2":"BR","iso3":"BRA","admin_name":"Paraná","capital":"","population":54369},{"city":"Plainfield","city_ascii":"Plainfield","lat":40.6154,"lng":-74.4157,"country":"United States","iso2":"US","iso3":"USA","admin_name":"New Jersey","capital":"","population":54358},{"city":"Javānrūd","city_ascii":"Javanrud","lat":34.8078,"lng":46.4939,"country":"Iran","iso2":"IR","iso3":"IRN","admin_name":"Kermānshāh","capital":"minor","population":54354},{"city":"Azrou","city_ascii":"Azrou","lat":33.4417,"lng":-5.2247,"country":"Morocco","iso2":"MA","iso3":"MAR","admin_name":"Fès-Meknès","capital":"","population":54350},{"city":"Shidong","city_ascii":"Shidong","lat":23.6873,"lng":111.9296,"country":"China","iso2":"CN","iso3":"CHN","admin_name":"Guangdong","capital":"","population":54347},{"city":"Shidongcun","city_ascii":"Shidongcun","lat":23.6193,"lng":112.0701,"country":"China","iso2":"CN","iso3":"CHN","admin_name":"Guangdong","capital":"","population":54347},{"city":"Sakurai","city_ascii":"Sakurai","lat":34.5167,"lng":135.85,"country":"Japan","iso2":"JP","iso3":"JPN","admin_name":"Nara","capital":"","population":54346},{"city":"Islāmpur","city_ascii":"Islampur","lat":26.27,"lng":88.2,"country":"India","iso2":"IN","iso3":"IND","admin_name":"West Bengal","capital":"","population":54340},{"city":"Umm Qurūn","city_ascii":"Umm Qurun","lat":25.25,"lng":51.3732,"country":"Qatar","iso2":"QA","iso3":"QAT","admin_name":"Ar Rayyān","capital":"","population":54339},{"city":"Ruma","city_ascii":"Ruma","lat":45,"lng":19.8333,"country":"Serbia","iso2":"RS","iso3":"SRB","admin_name":"Ruma","capital":"admin","population":54339},{"city":"Bełchatów","city_ascii":"Belchatow","lat":51.3667,"lng":19.3667,"country":"Poland","iso2":"PL","iso3":"POL","admin_name":"Łódzkie","capital":"minor","population":54338},{"city":"Morsott","city_ascii":"Morsott","lat":35.6667,"lng":8.0167,"country":"Algeria","iso2":"DZ","iso3":"DZA","admin_name":"Tébessa","capital":"","population":54332},{"city":"Sidhi","city_ascii":"Sidhi","lat":24.42,"lng":81.88,"country":"India","iso2":"IN","iso3":"IND","admin_name":"Madhya Pradesh","capital":"","population":54331},{"city":"Rāhuri","city_ascii":"Rahuri","lat":19.38,"lng":74.65,"country":"India","iso2":"IN","iso3":"IND","admin_name":"Mahārāshtra","capital":"","population":54325},{"city":"Chelles","city_ascii":"Chelles","lat":48.8833,"lng":2.6,"country":"France","iso2":"FR","iso3":"FRA","admin_name":"Île-de-France","capital":"","population":54309},{"city":"Sado","city_ascii":"Sado","lat":38.0183,"lng":138.3683,"country":"Japan","iso2":"JP","iso3":"JPN","admin_name":"Niigata","capital":"","population":54304},{"city":"Hanyū","city_ascii":"Hanyu","lat":36.1726,"lng":139.5485,"country":"Japan","iso2":"JP","iso3":"JPN","admin_name":"Saitama","capital":"","population":54304},{"city":"Zarafshon Shahri","city_ascii":"Zarafshon Shahri","lat":41.6081,"lng":64.2264,"country":"Uzbekistan","iso2":"UZ","iso3":"UZB","admin_name":"Navoiy","capital":"","population":54300},{"city":"Manhattan","city_ascii":"Manhattan","lat":39.1886,"lng":-96.6048,"country":"United States","iso2":"US","iso3":"USA","admin_name":"Kansas","capital":"","population":54287},{"city":"San Manuel","city_ascii":"San Manuel","lat":16.0656,"lng":120.6667,"country":"Philippines","iso2":"PH","iso3":"PHL","admin_name":"Pangasinan","capital":"","population":54271},{"city":"Kızılpınar","city_ascii":"Kizilpinar","lat":41.2667,"lng":27.9667,"country":"Turkey","iso2":"TR","iso3":"TUR","admin_name":"Tekirdağ","capital":"","population":54268},{"city":"Paraćin","city_ascii":"Paracin","lat":43.8667,"lng":21.4167,"country":"Serbia","iso2":"RS","iso3":"SRB","admin_name":"Paraćin","capital":"admin","population":54267},{"city":"Aspen Hill","city_ascii":"Aspen Hill","lat":39.0927,"lng":-77.0826,"country":"United States","iso2":"US","iso3":"USA","admin_name":"Maryland","capital":"","population":54262},{"city":"Rocky Mount","city_ascii":"Rocky Mount","lat":35.9685,"lng":-77.804,"country":"United States","iso2":"US","iso3":"USA","admin_name":"North Carolina","capital":"","population":54260},{"city":"Cornillon","city_ascii":"Cornillon","lat":18.6667,"lng":-71.95,"country":"Haiti","iso2":"HT","iso3":"HTI","admin_name":"Ouest","capital":"","population":54254},{"city":"Valle del Guamuez","city_ascii":"Valle del Guamuez","lat":0.4253,"lng":-76.9053,"country":"Colombia","iso2":"CO","iso3":"COL","admin_name":"Putumayo","capital":"","population":54237},{"city":"Bristol","city_ascii":"Bristol","lat":40.1216,"lng":-74.8667,"country":"United States","iso2":"US","iso3":"USA","admin_name":"Pennsylvania","capital":"","population":54233},{"city":"Ankadinondry-Sakay","city_ascii":"Ankadinondry-Sakay","lat":-19,"lng":46.4639,"country":"Madagascar","iso2":"MG","iso3":"MDG","admin_name":"Antananarivo","capital":"","population":54217},{"city":"Christchurch","city_ascii":"Christchurch","lat":50.73,"lng":-1.78,"country":"United Kingdom","iso2":"GB","iso3":"GBR","admin_name":"Dorset","capital":"","population":54210},{"city":"Rotorua","city_ascii":"Rotorua","lat":-38.1378,"lng":176.2514,"country":"New Zealand","iso2":"NZ","iso3":"NZL","admin_name":"Bay of Plenty","capital":"","population":54204},{"city":"Peabody","city_ascii":"Peabody","lat":42.5335,"lng":-70.9725,"country":"United States","iso2":"US","iso3":"USA","admin_name":"Massachusetts","capital":"","population":54204},{"city":"Don Bosco","city_ascii":"Don Bosco","lat":14.4817,"lng":121.0258,"country":"Philippines","iso2":"PH","iso3":"PHL","admin_name":"Parañaque","capital":"","population":54188},{"city":"Frýdek-Místek","city_ascii":"Frydek-Mistek","lat":49.6856,"lng":18.3506,"country":"Czechia","iso2":"CZ","iso3":"CZE","admin_name":"Moravskoslezský Kraj","capital":"","population":54188},{"city":"Wetzlar","city_ascii":"Wetzlar","lat":50.5667,"lng":8.5,"country":"Germany","iso2":"DE","iso3":"DEU","admin_name":"Hesse","capital":"minor","population":54187},{"city":"Hashtpar","city_ascii":"Hashtpar","lat":37.7933,"lng":48.9044,"country":"Iran","iso2":"IR","iso3":"IRN","admin_name":"Gīlān","capital":"minor","population":54178},{"city":"Kāsaragod","city_ascii":"Kasaragod","lat":12.5,"lng":75,"country":"India","iso2":"IN","iso3":"IND","admin_name":"Kerala","capital":"","population":54172},{"city":"Komotiní","city_ascii":"Komotini","lat":41.1219,"lng":25.4042,"country":"Greece","iso2":"GR","iso3":"GRC","admin_name":"Anatolikí Makedonía kai Thráki","capital":"admin","population":54165},{"city":"West Sacramento","city_ascii":"West Sacramento","lat":38.5557,"lng":-121.5505,"country":"United States","iso2":"US","iso3":"USA","admin_name":"California","capital":"","population":54163},{"city":"Frenda","city_ascii":"Frenda","lat":35.0667,"lng":1.05,"country":"Algeria","iso2":"DZ","iso3":"DZA","admin_name":"Tiaret","capital":"","population":54162},{"city":"Bir Ali Ben Khalifa","city_ascii":"Bir Ali Ben Khalifa","lat":34.7339,"lng":10.1,"country":"Tunisia","iso2":"TN","iso3":"TUN","admin_name":"Sfax","capital":"","population":54143},{"city":"Wayne","city_ascii":"Wayne","lat":40.9481,"lng":-74.2453,"country":"United States","iso2":"US","iso3":"USA","admin_name":"New Jersey","capital":"","population":54143},{"city":"Huesca","city_ascii":"Huesca","lat":42.1333,"lng":-0.4167,"country":"Spain","iso2":"ES","iso3":"ESP","admin_name":"Aragon","capital":"minor","population":54136},{"city":"Ixhuatlán de Madero","city_ascii":"Ixhuatlan de Madero","lat":20.6833,"lng":-98.0167,"country":"Mexico","iso2":"MX","iso3":"MEX","admin_name":"Veracruz","capital":"minor","population":54132},{"city":"Cajicá","city_ascii":"Cajica","lat":4.9167,"lng":-74.0333,"country":"Colombia","iso2":"CO","iso3":"COL","admin_name":"Cundinamarca","capital":"minor","population":54111},{"city":"Louang Namtha","city_ascii":"Louang Namtha","lat":20.95,"lng":101.4,"country":"Laos","iso2":"LA","iso3":"LAO","admin_name":"Louangnamtha","capital":"admin","population":54100},{"city":"Puttūr","city_ascii":"Puttur","lat":13.45,"lng":79.55,"country":"India","iso2":"IN","iso3":"IND","admin_name":"Andhra Pradesh","capital":"","population":54092},{"city":"Mariano Acosta","city_ascii":"Mariano Acosta","lat":-34.7167,"lng":-58.7833,"country":"Argentina","iso2":"AR","iso3":"ARG","admin_name":"Buenos Aires","capital":"","population":54081},{"city":"Jalor","city_ascii":"Jalor","lat":25.35,"lng":72.62,"country":"India","iso2":"IN","iso3":"IND","admin_name":"Rājasthān","capital":"","population":54081},{"city":"Tarma","city_ascii":"Tarma","lat":-11.4186,"lng":-75.6908,"country":"Peru","iso2":"PE","iso3":"PER","admin_name":"Junín","capital":"","population":54078},{"city":"San Jacinto","city_ascii":"San Jacinto","lat":33.797,"lng":-116.9916,"country":"United States","iso2":"US","iso3":"USA","admin_name":"California","capital":"","population":54077},{"city":"Chèddra","city_ascii":"Cheddra","lat":13.4428,"lng":16.0508,"country":"Chad","iso2":"TD","iso3":"TCD","admin_name":"Barh-El-Gazel","capital":"","population":54072},{"city":"Samāna","city_ascii":"Samana","lat":30.15,"lng":76.19,"country":"India","iso2":"IN","iso3":"IND","admin_name":"Punjab","capital":"","population":54072},{"city":"Kunnamkulam","city_ascii":"Kunnamkulam","lat":10.65,"lng":76.08,"country":"India","iso2":"IN","iso3":"IND","admin_name":"Kerala","capital":"","population":54071},{"city":"Kentwood","city_ascii":"Kentwood","lat":42.8852,"lng":-85.5926,"country":"United States","iso2":"US","iso3":"USA","admin_name":"Michigan","capital":"","population":54042},{"city":"Palmaner","city_ascii":"Palmaner","lat":13.2,"lng":78.75,"country":"India","iso2":"IN","iso3":"IND","admin_name":"Andhra Pradesh","capital":"","population":54035},{"city":"Xihu","city_ascii":"Xihu","lat":23.9594,"lng":120.48,"country":"Taiwan","iso2":"TW","iso3":"TWN","admin_name":"Changhua","capital":"","population":54033},{"city":"Jālākāti","city_ascii":"Jalakati","lat":22.6386,"lng":90.1993,"country":"Bangladesh","iso2":"BD","iso3":"BGD","admin_name":"Khulna","capital":"","population":54029},{"city":"Deolāli","city_ascii":"Deolali","lat":19.951,"lng":73.834,"country":"India","iso2":"IN","iso3":"IND","admin_name":"Mahārāshtra","capital":"","population":54027},{"city":"Lozova","city_ascii":"Lozova","lat":48.8833,"lng":36.3833,"country":"Ukraine","iso2":"UA","iso3":"UKR","admin_name":"Kharkivska Oblast","capital":"minor","population":54026},{"city":"São Gonçalo do Amarante","city_ascii":"Sao Goncalo do Amarante","lat":-3.6058,"lng":-38.9689,"country":"Brazil","iso2":"BR","iso3":"BRA","admin_name":"Ceará","capital":"minor","population":54021},{"city":"Prachuap Khiri Khan","city_ascii":"Prachuap Khiri Khan","lat":11.8167,"lng":99.8,"country":"Thailand","iso2":"TH","iso3":"THA","admin_name":"Prachuap Khiri Khan","capital":"admin","population":54018},{"city":"Ribeira do Pombal","city_ascii":"Ribeira do Pombal","lat":-10.8333,"lng":-38.5333,"country":"Brazil","iso2":"BR","iso3":"BRA","admin_name":"Bahia","capital":"","population":54010},