[{"city":"Lakhanāpuram","city_ascii":"Lakhanapuram","lat":18.7504,"lng":83.5534,"country":"India","iso2":"IN","iso3":"IND","admin_name":"Andhra Pradesh","capital":"","population":8904},{"city":"Rock Falls","city_ascii":"Rock Falls","lat":41.7724,"lng":-89.6928,"country":"United States","iso2":"US","iso3":"USA","admin_name":"Illinois","capital":"","population":8904},{"city":"Palmeira d’Oeste","city_ascii":"Palmeira d'Oeste","lat":-20.4158,"lng":-50.7619,"country":"Brazil","iso2":"BR","iso3":"BRA","admin_name":"São Paulo","capital":"","population":8903},{"city":"Árgos Orestikó","city_ascii":"Argos Orestiko","lat":40.45,"lng":21.25,"country":"Greece","iso2":"GR","iso3":"GRC","admin_name":"Dytikí Makedonía","capital":"minor","population":8903},{"city":"Potangal","city_ascii":"Potangal","lat":18.5661,"lng":77.7742,"country":"India","iso2":"IN","iso3":"IND","admin_name":"Telangāna","capital":"","population":8903},{"city":"Tullukuttināyakkanūr","city_ascii":"Tullukuttinayakkanur","lat":9.8149,"lng":77.6808,"country":"India","iso2":"IN","iso3":"IND","admin_name":"Tamil Nādu","capital":"","population":8902},{"city":"Florstadt","city_ascii":"Florstadt","lat":50.3158,"lng":8.8631,"country":"Germany","iso2":"DE","iso3":"DEU","admin_name":"Hesse","capital":"","population":8901},{"city":"Le Teil","city_ascii":"Le Teil","lat":44.5458,"lng":4.6831,"country":"France","iso2":"FR","iso3":"FRA","admin_name":"Auvergne-Rhône-Alpes","capital":"","population":8901},{"city":"Caister-on-Sea","city_ascii":"Caister-on-Sea","lat":52.651,"lng":1.733,"country":"United Kingdom","iso2":"GB","iso3":"GBR","admin_name":"Norfolk","capital":"","population":8901},{"city":"Wanaka","city_ascii":"Wanaka","lat":-44.7,"lng":169.15,"country":"New Zealand","iso2":"NZ","iso3":"NZL","admin_name":"Otago","capital":"","population":8900},{"city":"Amuria","city_ascii":"Amuria","lat":2.03,"lng":33.6431,"country":"Uganda","iso2":"UG","iso3":"UGA","admin_name":"Amuria","capital":"admin","population":8900},{"city":"Yangiobod","city_ascii":"Yangiobod","lat":41.1192,"lng":70.0942,"country":"Uzbekistan","iso2":"UZ","iso3":"UZB","admin_name":"Toshkent","capital":"","population":8900},{"city":"Vadasīkarambattu","city_ascii":"Vadasikarambattu","lat":11.6446,"lng":79.6882,"country":"India","iso2":"IN","iso3":"IND","admin_name":"Tamil Nādu","capital":"","population":8900},{"city":"Karor","city_ascii":"Karor","lat":25.6018,"lng":86.093,"country":"India","iso2":"IN","iso3":"IND","admin_name":"Bihār","capital":"","population":8899},{"city":"Sandpoint","city_ascii":"Sandpoint","lat":48.2822,"lng":-116.5614,"country":"United States","iso2":"US","iso3":"USA","admin_name":"Idaho","capital":"","population":8899},{"city":"Nangis","city_ascii":"Nangis","lat":48.5556,"lng":3.0153,"country":"France","iso2":"FR","iso3":"FRA","admin_name":"Île-de-France","capital":"","population":8898},{"city":"Orting","city_ascii":"Orting","lat":47.0967,"lng":-122.2112,"country":"United States","iso2":"US","iso3":"USA","admin_name":"Washington","capital":"","population":8898},{"city":"Pudozh","city_ascii":"Pudozh","lat":61.8,"lng":36.5167,"country":"Russia","iso2":"RU","iso3":"RUS","admin_name":"Kareliya","capital":"minor","population":8897},{"city":"Le Portel","city_ascii":"Le Portel","lat":50.7075,"lng":1.5744,"country":"France","iso2":"FR","iso3":"FRA","admin_name":"Hauts-de-France","capital":"","population":8897},{"city":"Caldwell","city_ascii":"Caldwell","lat":40.8389,"lng":-74.2776,"country":"United States","iso2":"US","iso3":"USA","admin_name":"New Jersey","capital":"","population":8897},{"city":"San José de Gracia","city_ascii":"San Jose de Gracia","lat":22.15,"lng":-102.4167,"country":"Mexico","iso2":"MX","iso3":"MEX","admin_name":"Aguascalientes","capital":"minor","population":8896},{"city":"Ibirapuã","city_ascii":"Ibirapua","lat":-17.65,"lng":-40.1167,"country":"Brazil","iso2":"BR","iso3":"BRA","admin_name":"Bahia","capital":"","population":8896},{"city":"Punjai Lakkāpuram","city_ascii":"Punjai Lakkapuram","lat":11.305,"lng":77.7554,"country":"India","iso2":"IN","iso3":"IND","admin_name":"Tamil Nādu","capital":"","population":8896},{"city":"Kishtwār","city_ascii":"Kishtwar","lat":33.3135,"lng":75.7673,"country":"India","iso2":"IN","iso3":"IND","admin_name":"Jammu and Kashmīr","capital":"","population":8896},{"city":"Maddūr","city_ascii":"Maddur","lat":16.8602,"lng":77.6121,"country":"India","iso2":"IN","iso3":"IND","admin_name":"Telangāna","capital":"","population":8896},{"city":"Matias Cardoso","city_ascii":"Matias Cardoso","lat":-14.8203,"lng":-43.8772,"country":"Brazil","iso2":"BR","iso3":"BRA","admin_name":"Minas Gerais","capital":"","population":8895},{"city":"Bösel","city_ascii":"Bosel","lat":53.0058,"lng":7.9542,"country":"Germany","iso2":"DE","iso3":"DEU","admin_name":"Lower Saxony","capital":"","population":8895},{"city":"Wābāgai","city_ascii":"Wabagai","lat":24.5309,"lng":93.9376,"country":"India","iso2":"IN","iso3":"IND","admin_name":"Manipur","capital":"","population":8895},{"city":"Prienai","city_ascii":"Prienai","lat":54.6333,"lng":23.9417,"country":"Lithuania","iso2":"LT","iso3":"LTU","admin_name":"Prienai","capital":"admin","population":8894},{"city":"Crozet","city_ascii":"Crozet","lat":38.0645,"lng":-78.6961,"country":"United States","iso2":"US","iso3":"USA","admin_name":"Virginia","capital":"","population":8894},{"city":"Tepetitlan","city_ascii":"Tepetitlan","lat":20.1842,"lng":-99.3808,"country":"Mexico","iso2":"MX","iso3":"MEX","admin_name":"Hidalgo","capital":"","population":8893},{"city":"San Marzano di San Giuseppe","city_ascii":"San Marzano di San Giuseppe","lat":40.45,"lng":17.5,"country":"Italy","iso2":"IT","iso3":"ITA","admin_name":"Puglia","capital":"","population":8892},{"city":"Kanhauli","city_ascii":"Kanhauli","lat":26.4815,"lng":86.1876,"country":"India","iso2":"IN","iso3":"IND","admin_name":"Bihār","capital":"","population":8890},{"city":"Oststeinbek","city_ascii":"Oststeinbek","lat":53.5442,"lng":10.1664,"country":"Germany","iso2":"DE","iso3":"DEU","admin_name":"Hamburg","capital":"","population":8889},{"city":"Sandiacre","city_ascii":"Sandiacre","lat":52.923,"lng":-1.289,"country":"United Kingdom","iso2":"GB","iso3":"GBR","admin_name":"Nottinghamshire","capital":"","population":8889},{"city":"Tummalacheruvu","city_ascii":"Tummalacheruvu","lat":17.7667,"lng":80.8,"country":"India","iso2":"IN","iso3":"IND","admin_name":"Telangāna","capital":"","population":8889},{"city":"Douar Ait Taleb","city_ascii":"Douar Ait Taleb","lat":32.3839,"lng":-8.1856,"country":"Morocco","iso2":"MA","iso3":"MAR","admin_name":"Marrakech-Safi","capital":"","population":8888},{"city":"Zunilito","city_ascii":"Zunilito","lat":14.6167,"lng":-91.5167,"country":"Guatemala","iso2":"GT","iso3":"GTM","admin_name":"Suchitepéquez","capital":"minor","population":8888},{"city":"Whippany","city_ascii":"Whippany","lat":40.8233,"lng":-74.4184,"country":"United States","iso2":"US","iso3":"USA","admin_name":"New Jersey","capital":"","population":8888},{"city":"Napoleon","city_ascii":"Napoleon","lat":41.3977,"lng":-84.1244,"country":"United States","iso2":"US","iso3":"USA","admin_name":"Ohio","capital":"","population":8888},{"city":"Tiachiv","city_ascii":"Tiachiv","lat":48.0114,"lng":23.5722,"country":"Ukraine","iso2":"UA","iso3":"UKR","admin_name":"Zakarpatska Oblast","capital":"minor","population":8887},{"city":"Ấp Tân Ngãi","city_ascii":"Ap Tan Ngai","lat":10.2369,"lng":106.2878,"country":"Vietnam","iso2":"VN","iso3":"VNM","admin_name":"Bến Tre","capital":"","population":8887},{"city":"Shoshong","city_ascii":"Shoshong","lat":-23.0333,"lng":26.5167,"country":"Botswana","iso2":"BW","iso3":"BWA","admin_name":"Central","capital":"","population":8887},{"city":"Allāhpur","city_ascii":"Allahpur","lat":26.3434,"lng":77.8195,"country":"India","iso2":"IN","iso3":"IND","admin_name":"Madhya Pradesh","capital":"","population":8887},{"city":"Barhauna","city_ascii":"Barhauna","lat":25.304,"lng":85.4216,"country":"India","iso2":"IN","iso3":"IND","admin_name":"Bihār","capital":"","population":8887},{"city":"Tarcento","city_ascii":"Tarcento","lat":46.2167,"lng":13.2167,"country":"Italy","iso2":"IT","iso3":"ITA","admin_name":"Friuli Venezia Giulia","capital":"","population":8887},{"city":"Tlumach","city_ascii":"Tlumach","lat":48.8667,"lng":25,"country":"Ukraine","iso2":"UA","iso3":"UKR","admin_name":"Ivano-Frankivska Oblast","capital":"minor","population":8886},{"city":"Holywell","city_ascii":"Holywell","lat":53.274,"lng":-3.223,"country":"United Kingdom","iso2":"GB","iso3":"GBR","admin_name":"Flintshire","capital":"","population":8886},{"city":"Melpanaikkādu","city_ascii":"Melpanaikkadu","lat":10.2599,"lng":79.1169,"country":"India","iso2":"IN","iso3":"IND","admin_name":"Tamil Nādu","capital":"","population":8886},{"city":"Bīdkhūn","city_ascii":"Bidkhun","lat":27.4792,"lng":52.6681,"country":"Iran","iso2":"IR","iso3":"IRN","admin_name":"Būshehr","capital":"","population":8886},{"city":"Ladan Kara","city_ascii":"Ladan Kara","lat":40.9264,"lng":72.9569,"country":"Kyrgyzstan","iso2":"KG","iso3":"KGZ","admin_name":"Jalal-Abad","capital":"","population":8886},{"city":"Chachersk","city_ascii":"Chachersk","lat":52.9161,"lng":30.9161,"country":"Belarus","iso2":"BY","iso3":"BLR","admin_name":"Homyel’skaya Voblasts’","capital":"minor","population":8885},{"city":"Francisco Caballero Álvarez","city_ascii":"Francisco Caballero Alvarez","lat":-24.1543,"lng":-54.6659,"country":"Paraguay","iso2":"PY","iso3":"PRY","admin_name":"Canindeyú","capital":"","population":8884},{"city":"Metsemotlhaba","city_ascii":"Metsemotlhaba","lat":-24.5531,"lng":25.8039,"country":"Botswana","iso2":"BW","iso3":"BWA","admin_name":"Kweneng","capital":"","population":8884},{"city":"Partick","city_ascii":"Partick","lat":55.8699,"lng":-4.3125,"country":"United Kingdom","iso2":"GB","iso3":"GBR","admin_name":"Glasgow City","capital":"","population":8884},{"city":"Belišće","city_ascii":"Belisce","lat":45.6833,"lng":18.4,"country":"Croatia","iso2":"HR","iso3":"HRV","admin_name":"Osječko-Baranjska Županija","capital":"minor","population":8884},{"city":"Tharīke","city_ascii":"Tharike","lat":30.8758,"lng":75.7756,"country":"India","iso2":"IN","iso3":"IND","admin_name":"Punjab","capital":"","population":8884},{"city":"Bargara","city_ascii":"Bargara","lat":-24.8205,"lng":152.4625,"country":"Australia","iso2":"AU","iso3":"AUS","admin_name":"Queensland","capital":"","population":8883},{"city":"North Londonderry","city_ascii":"North Londonderry","lat":40.3227,"lng":-76.5867,"country":"United States","iso2":"US","iso3":"USA","admin_name":"Pennsylvania","capital":"","population":8883},{"city":"L’Epiphanie","city_ascii":"L'Epiphanie","lat":45.8483,"lng":-73.5061,"country":"Canada","iso2":"CA","iso3":"CAN","admin_name":"Quebec","capital":"","population":8883},{"city":"San Antonio","city_ascii":"San Antonio","lat":12.414,"lng":124.279,"country":"Philippines","iso2":"PH","iso3":"PHL","admin_name":"Northern Samar","capital":"","population":8882},{"city":"Ifield","city_ascii":"Ifield","lat":51.1234,"lng":-0.2073,"country":"United Kingdom","iso2":"GB","iso3":"GBR","admin_name":"West Sussex","capital":"","population":8882},{"city":"Rewāhi","city_ascii":"Rewahi","lat":26.2698,"lng":87.2124,"country":"India","iso2":"IN","iso3":"IND","admin_name":"Bihār","capital":"","population":8882},{"city":"Mansfield","city_ascii":"Mansfield","lat":40.0853,"lng":-74.7149,"country":"United States","iso2":"US","iso3":"USA","admin_name":"New Jersey","capital":"","population":8882},{"city":"Rio Claro","city_ascii":"Rio Claro","lat":10.3042,"lng":-61.1708,"country":"Trinidad and Tobago","iso2":"TT","iso3":"TTO","admin_name":"Mayaro/Rio Claro","capital":"admin","population":8881},{"city":"Carmen de Apicalá","city_ascii":"Carmen de Apicala","lat":4.15,"lng":-74.7333,"country":"Colombia","iso2":"CO","iso3":"COL","admin_name":"Tolima","capital":"minor","population":8880},{"city":"Sucre","city_ascii":"Sucre","lat":2.0383,"lng":-76.9253,"country":"Colombia","iso2":"CO","iso3":"COL","admin_name":"Cauca","capital":"minor","population":8880},{"city":"Palangavāngudi","city_ascii":"Palangavangudi","lat":10.7244,"lng":78.8108,"country":"India","iso2":"IN","iso3":"IND","admin_name":"Tamil Nādu","capital":"","population":8880},{"city":"Halikko","city_ascii":"Halikko","lat":60.3972,"lng":23.0778,"country":"Finland","iso2":"FI","iso3":"FIN","admin_name":"Varsinais-Suomi","capital":"","population":8879},{"city":"Majhariyā Sheikh","city_ascii":"Majhariya Sheikh","lat":26.7356,"lng":84.642,"country":"India","iso2":"IN","iso3":"IND","admin_name":"Bihār","capital":"","population":8879},{"city":"Edgemere","city_ascii":"Edgemere","lat":39.2273,"lng":-76.459,"country":"United States","iso2":"US","iso3":"USA","admin_name":"Maryland","capital":"","population":8879},{"city":"Liteni","city_ascii":"Liteni","lat":47.52,"lng":26.5319,"country":"Romania","iso2":"RO","iso3":"ROU","admin_name":"Suceava","capital":"","population":8878},{"city":"Oberriet","city_ascii":"Oberriet","lat":47.3167,"lng":9.5667,"country":"Switzerland","iso2":"CH","iso3":"CHE","admin_name":"Sankt Gallen","capital":"","population":8878},{"city":"Kurichchi","city_ascii":"Kurichchi","lat":11.7276,"lng":78.4102,"country":"India","iso2":"IN","iso3":"IND","admin_name":"Tamil Nādu","capital":"","population":8878},{"city":"Polakala","city_ascii":"Polakala","lat":13.3458,"lng":78.8167,"country":"India","iso2":"IN","iso3":"IND","admin_name":"Andhra Pradesh","capital":"","population":8878},{"city":"Pomona","city_ascii":"Pomona","lat":39.4688,"lng":-74.5502,"country":"United States","iso2":"US","iso3":"USA","admin_name":"New Jersey","capital":"","population":8878},{"city":"Makaya","city_ascii":"Makaya","lat":25.271,"lng":87.8897,"country":"India","iso2":"IN","iso3":"IND","admin_name":"West Bengal","capital":"","population":8877},{"city":"Gurmaila","city_ascii":"Gurmaila","lat":25.4829,"lng":87.349,"country":"India","iso2":"IN","iso3":"IND","admin_name":"Bihār","capital":"","population":8877},{"city":"Teruel","city_ascii":"Teruel","lat":2.75,"lng":-75.5667,"country":"Colombia","iso2":"CO","iso3":"COL","admin_name":"Huila","capital":"minor","population":8876},{"city":"Hallstadt","city_ascii":"Hallstadt","lat":49.9333,"lng":10.8833,"country":"Germany","iso2":"DE","iso3":"DEU","admin_name":"Bavaria","capital":"","population":8876},{"city":"Silleda","city_ascii":"Silleda","lat":42.7,"lng":-8.2333,"country":"Spain","iso2":"ES","iso3":"ESP","admin_name":"Galicia","capital":"","population":8876},{"city":"Alwa Tirunagari","city_ascii":"Alwa Tirunagari","lat":8.61,"lng":77.94,"country":"India","iso2":"IN","iso3":"IND","admin_name":"Tamil Nādu","capital":"","population":8876},{"city":"Kulpsville","city_ascii":"Kulpsville","lat":40.244,"lng":-75.3407,"country":"United States","iso2":"US","iso3":"USA","admin_name":"Pennsylvania","capital":"","population":8876},{"city":"Zuchwil","city_ascii":"Zuchwil","lat":47.2,"lng":7.5667,"country":"Switzerland","iso2":"CH","iso3":"CHE","admin_name":"Solothurn","capital":"","population":8875},{"city":"Khem Karan Saray","city_ascii":"Khem Karan Saray","lat":25.1233,"lng":84.8117,"country":"India","iso2":"IN","iso3":"IND","admin_name":"Bihār","capital":"","population":8875},{"city":"Bālumāth","city_ascii":"Balumath","lat":23.8298,"lng":84.7888,"country":"India","iso2":"IN","iso3":"IND","admin_name":"Jhārkhand","capital":"","population":8875},{"city":"Nānan","city_ascii":"Nanan","lat":25.0905,"lng":85.5031,"country":"India","iso2":"IN","iso3":"IND","admin_name":"Bihār","capital":"","population":8875},{"city":"Bhagatpur","city_ascii":"Bhagatpur","lat":25.4098,"lng":86.3076,"country":"India","iso2":"IN","iso3":"IND","admin_name":"Bihār","capital":"","population":8875},{"city":"Padakanti","city_ascii":"Padakanti","lat":18.6942,"lng":78.2842,"country":"India","iso2":"IN","iso3":"IND","admin_name":"Telangāna","capital":"","population":8874},{"city":"Alvarado","city_ascii":"Alvarado","lat":4.5667,"lng":-74.95,"country":"Colombia","iso2":"CO","iso3":"COL","admin_name":"Tolima","capital":"minor","population":8873},{"city":"Breuillet","city_ascii":"Breuillet","lat":48.5658,"lng":2.1706,"country":"France","iso2":"FR","iso3":"FRA","admin_name":"Île-de-France","capital":"","population":8873},{"city":"Kharsod B","city_ascii":"Kharsod B","lat":23.2225,"lng":75.386,"country":"India","iso2":"IN","iso3":"IND","admin_name":"Madhya Pradesh","capital":"","population":8873},{"city":"Mosrāh","city_ascii":"Mosrah","lat":18.6155,"lng":77.9718,"country":"India","iso2":"IN","iso3":"IND","admin_name":"Telangāna","capital":"","population":8873},{"city":"Camenca","city_ascii":"Camenca","lat":48.0167,"lng":28.7167,"country":"Moldova","iso2":"MD","iso3":"MDA","admin_name":"Stînga Nistrului","capital":"","population":8871},{"city":"Hohenbrunn","city_ascii":"Hohenbrunn","lat":48.05,"lng":11.7,"country":"Germany","iso2":"DE","iso3":"DEU","admin_name":"Bavaria","capital":"","population":8871},{"city":"Khandrauli","city_ascii":"Khandrauli","lat":29.3888,"lng":77.2793,"country":"India","iso2":"IN","iso3":"IND","admin_name":"Uttar Pradesh","capital":"","population":8871},{"city":"Thief River Falls","city_ascii":"Thief River Falls","lat":48.1108,"lng":-96.1778,"country":"United States","iso2":"US","iso3":"USA","admin_name":"Minnesota","capital":"","population":8871},{"city":"Imilchil","city_ascii":"Imilchil","lat":32.155,"lng":-5.6347,"country":"Morocco","iso2":"MA","iso3":"MAR","admin_name":"Drâa-Tafilalet","capital":"","population":8870},{"city":"Bhatauliā","city_ascii":"Bhataulia","lat":26.4771,"lng":84.7789,"country":"India","iso2":"IN","iso3":"IND","admin_name":"Bihār","capital":"","population":8870},{"city":"Āgadāllanka","city_ascii":"Agadallanka","lat":16.7123,"lng":81.2732,"country":"India","iso2":"IN","iso3":"IND","admin_name":"Andhra Pradesh","capital":"","population":8870},{"city":"Minerbio","city_ascii":"Minerbio","lat":44.6167,"lng":11.4833,"country":"Italy","iso2":"IT","iso3":"ITA","admin_name":"Emilia-Romagna","capital":"","population":8870},{"city":"Pearsall","city_ascii":"Pearsall","lat":28.8915,"lng":-99.0975,"country":"United States","iso2":"US","iso3":"USA","admin_name":"Texas","capital":"","population":8870},{"city":"Diamou","city_ascii":"Diamou","lat":12.1469,"lng":-7.2544,"country":"Mali","iso2":"ML","iso3":"MLI","admin_name":"Sikasso","capital":"","population":8869},{"city":"Tataltepec de Valdés","city_ascii":"Tataltepec de Valdes","lat":16.3064,"lng":-97.5461,"country":"Mexico","iso2":"MX","iso3":"MEX","admin_name":"Oaxaca","capital":"minor","population":8869},{"city":"Quétigny","city_ascii":"Quetigny","lat":47.3153,"lng":5.1069,"country":"France","iso2":"FR","iso3":"FRA","admin_name":"Bourgogne-Franche-Comté","capital":"","population":8869},{"city":"Ghorbanki","city_ascii":"Ghorbanki","lat":26.5697,"lng":86.0484,"country":"India","iso2":"IN","iso3":"IND","admin_name":"Bihār","capital":"","population":8869},{"city":"Unterägeri","city_ascii":"Unterageri","lat":47.1333,"lng":8.5833,"country":"Switzerland","iso2":"CH","iso3":"CHE","admin_name":"Zug","capital":"","population":8867},{"city":"La Fare-les-Oliviers","city_ascii":"La Fare-les-Oliviers","lat":43.5525,"lng":5.195,"country":"France","iso2":"FR","iso3":"FRA","admin_name":"Provence-Alpes-Côte d’Azur","capital":"","population":8867},{"city":"Irigny","city_ascii":"Irigny","lat":45.6731,"lng":4.8225,"country":"France","iso2":"FR","iso3":"FRA","admin_name":"Auvergne-Rhône-Alpes","capital":"","population":8867},{"city":"Mallāram","city_ascii":"Mallaram","lat":18.754,"lng":78.112,"country":"India","iso2":"IN","iso3":"IND","admin_name":"Telangāna","capital":"","population":8867},{"city":"Gangapatnam","city_ascii":"Gangapatnam","lat":14.5237,"lng":80.1521,"country":"India","iso2":"IN","iso3":"IND","admin_name":"Andhra Pradesh","capital":"","population":8867},{"city":"Dāra","city_ascii":"Dara","lat":26.1546,"lng":86.4483,"country":"India","iso2":"IN","iso3":"IND","admin_name":"Bihār","capital":"","population":8867},{"city":"Iskourane","city_ascii":"Iskourane","lat":30.8433,"lng":-9.8186,"country":"Morocco","iso2":"MA","iso3":"MAR","admin_name":"Marrakech-Safi","capital":"","population":8866},{"city":"Msemrir","city_ascii":"Msemrir","lat":31.7028,"lng":-5.8125,"country":"Morocco","iso2":"MA","iso3":"MAR","admin_name":"Drâa-Tafilalet","capital":"","population":8866},{"city":"Hunduan","city_ascii":"Hunduan","lat":16.83,"lng":121,"country":"Philippines","iso2":"PH","iso3":"PHL","admin_name":"Ifugao","capital":"","population":8866},{"city":"Rabo de Peixe","city_ascii":"Rabo de Peixe","lat":37.8103,"lng":-25.5861,"country":"Portugal","iso2":"PT","iso3":"PRT","admin_name":"Azores","capital":"","population":8866},{"city":"Papara","city_ascii":"Papara","lat":10.6167,"lng":-6.25,"country":"Côte d’Ivoire","iso2":"CI","iso3":"CIV","admin_name":"Savanes","capital":"","population":8866},{"city":"Schleiz","city_ascii":"Schleiz","lat":50.5833,"lng":11.8167,"country":"Germany","iso2":"DE","iso3":"DEU","admin_name":"Thuringia","capital":"minor","population":8866},{"city":"Kambūr","city_ascii":"Kambur","lat":10.1599,"lng":78.3264,"country":"India","iso2":"IN","iso3":"IND","admin_name":"Tamil Nādu","capital":"","population":8866},{"city":"Golakpur","city_ascii":"Golakpur","lat":25.1777,"lng":85.0728,"country":"India","iso2":"IN","iso3":"IND","admin_name":"Bihār","capital":"","population":8866},{"city":"Chiranellūr","city_ascii":"Chiranellur","lat":10.6344,"lng":76.1378,"country":"India","iso2":"IN","iso3":"IND","admin_name":"Kerala","capital":"","population":8866},{"city":"Cumberland Hill","city_ascii":"Cumberland Hill","lat":41.9736,"lng":-71.4605,"country":"United States","iso2":"US","iso3":"USA","admin_name":"Rhode Island","capital":"","population":8866},{"city":"Greenville","city_ascii":"Greenville","lat":43.1797,"lng":-85.2534,"country":"United States","iso2":"US","iso3":"USA","admin_name":"Michigan","capital":"","population":8866},{"city":"Ait Ikkou","city_ascii":"Ait Ikkou","lat":33.669,"lng":-6.1376,"country":"Morocco","iso2":"MA","iso3":"MAR","admin_name":"Fès-Meknès","capital":"","population":8865},{"city":"Neya","city_ascii":"Neya","lat":58.3,"lng":43.8667,"country":"Russia","iso2":"RU","iso3":"RUS","admin_name":"Kostromskaya Oblast’","capital":"minor","population":8865},{"city":"Maipú","city_ascii":"Maipu","lat":-36.8667,"lng":-57.8667,"country":"Argentina","iso2":"AR","iso3":"ARG","admin_name":"Buenos Aires","capital":"minor","population":8865},{"city":"Aināpur","city_ascii":"Ainapur","lat":16.48,"lng":74.78,"country":"India","iso2":"IN","iso3":"IND","admin_name":"Karnātaka","capital":"","population":8865},{"city":"Katahra","city_ascii":"Katahra","lat":26.2235,"lng":87.0643,"country":"India","iso2":"IN","iso3":"IND","admin_name":"Bihār","capital":"","population":8865},{"city":"Kanakpur","city_ascii":"Kanakpur","lat":24.4976,"lng":88.0361,"country":"India","iso2":"IN","iso3":"IND","admin_name":"West Bengal","capital":"","population":8865},{"city":"Teolo","city_ascii":"Teolo","lat":45.35,"lng":11.6667,"country":"Italy","iso2":"IT","iso3":"ITA","admin_name":"Veneto","capital":"","population":8865},{"city":"Collingdale","city_ascii":"Collingdale","lat":39.9151,"lng":-75.2776,"country":"United States","iso2":"US","iso3":"USA","admin_name":"Pennsylvania","capital":"","population":8865},{"city":"West Perth","city_ascii":"West Perth","lat":43.47,"lng":-81.2,"country":"Canada","iso2":"CA","iso3":"CAN","admin_name":"Ontario","capital":"","population":8865},{"city":"Ayapango","city_ascii":"Ayapango","lat":19.1264,"lng":-98.8028,"country":"Mexico","iso2":"MX","iso3":"MEX","admin_name":"México","capital":"minor","population":8864},{"city":"Yakakent","city_ascii":"Yakakent","lat":41.6222,"lng":35.5314,"country":"Turkey","iso2":"TR","iso3":"TUR","admin_name":"Samsun","capital":"minor","population":8864},{"city":"Yelsk","city_ascii":"Yelsk","lat":51.8167,"lng":29.15,"country":"Belarus","iso2":"BY","iso3":"BLR","admin_name":"Homyel’skaya Voblasts’","capital":"minor","population":8864},{"city":"Ratanpur","city_ascii":"Ratanpur","lat":26.5091,"lng":85.1259,"country":"India","iso2":"IN","iso3":"IND","admin_name":"Bihār","capital":"","population":8864},{"city":"Kusterdingen","city_ascii":"Kusterdingen","lat":48.5312,"lng":9.1484,"country":"Germany","iso2":"DE","iso3":"DEU","admin_name":"Baden-Württemberg","capital":"","population":8863},{"city":"Mannamangalam","city_ascii":"Mannamangalam","lat":10.4944,"lng":76.3361,"country":"India","iso2":"IN","iso3":"IND","admin_name":"Kerala","capital":"","population":8863},{"city":"Muriyād","city_ascii":"Muriyad","lat":10.3667,"lng":76.2667,"country":"India","iso2":"IN","iso3":"IND","admin_name":"Kerala","capital":"","population":8863},{"city":"Ponta do Sol","city_ascii":"Ponta do Sol","lat":32.6806,"lng":-17.1042,"country":"Portugal","iso2":"PT","iso3":"PRT","admin_name":"Madeira","capital":"","population":8862},{"city":"Tasso Fragoso","city_ascii":"Tasso Fragoso","lat":-8.4667,"lng":-45.75,"country":"Brazil","iso2":"BR","iso3":"BRA","admin_name":"Maranhão","capital":"","population":8862},{"city":"Kéllé","city_ascii":"Kelle","lat":-0.0608,"lng":14.4878,"country":"Congo (Brazzaville)","iso2":"CG","iso3":"COG","admin_name":"Cuvette-Ouest","capital":"","population":8862},{"city":"Sorisole","city_ascii":"Sorisole","lat":45.7333,"lng":9.6667,"country":"Italy","iso2":"IT","iso3":"ITA","admin_name":"Lombardy","capital":"","population":8862},{"city":"Al Abraq","city_ascii":"Al Abraq","lat":32.7867,"lng":21.9978,"country":"Libya","iso2":"LY","iso3":"LBY","admin_name":"Al Jabal al Akhḑar","capital":"","population":8861},{"city":"Pullalacheruvu","city_ascii":"Pullalacheruvu","lat":16.1589,"lng":79.3986,"country":"India","iso2":"IN","iso3":"IND","admin_name":"Andhra Pradesh","capital":"","population":8861},{"city":"Sirikonda","city_ascii":"Sirikonda","lat":17.1667,"lng":79.7,"country":"India","iso2":"IN","iso3":"IND","admin_name":"Telangāna","capital":"","population":8861},{"city":"Jogiāra","city_ascii":"Jogiara","lat":26.4083,"lng":85.75,"country":"India","iso2":"IN","iso3":"IND","admin_name":"Bihār","capital":"","population":8861},{"city":"Gondauli","city_ascii":"Gondauli","lat":27.83,"lng":77.88,"country":"India","iso2":"IN","iso3":"IND","admin_name":"Uttar Pradesh","capital":"","population":8861},{"city":"Viagrande","city_ascii":"Viagrande","lat":37.6167,"lng":15.1,"country":"Italy","iso2":"IT","iso3":"ITA","admin_name":"Sicilia","capital":"","population":8861},{"city":"Rocas de Santo Domingo","city_ascii":"Rocas de Santo Domingo","lat":-33.6358,"lng":-71.6281,"country":"Chile","iso2":"CL","iso3":"CHL","admin_name":"Valparaíso","capital":"","population":8860},{"city":"Striano","city_ascii":"Striano","lat":40.8167,"lng":14.5667,"country":"Italy","iso2":"IT","iso3":"ITA","admin_name":"Campania","capital":"","population":8860},{"city":"Yanchep","city_ascii":"Yanchep","lat":-31.55,"lng":115.634,"country":"Australia","iso2":"AU","iso3":"AUS","admin_name":"Western Australia","capital":"","population":8859},{"city":"González","city_ascii":"Gonzalez","lat":8.4,"lng":-73.3333,"country":"Colombia","iso2":"CO","iso3":"COL","admin_name":"Cesar","capital":"minor","population":8859},{"city":"Woodmoor","city_ascii":"Woodmoor","lat":39.1063,"lng":-104.8456,"country":"United States","iso2":"US","iso3":"USA","admin_name":"Colorado","capital":"","population":8859},{"city":"Collier","city_ascii":"Collier","lat":40.3991,"lng":-80.1322,"country":"United States","iso2":"US","iso3":"USA","admin_name":"Pennsylvania","capital":"","population":8859},{"city":"Japurá","city_ascii":"Japura","lat":-1.8261,"lng":-66.5989,"country":"Brazil","iso2":"BR","iso3":"BRA","admin_name":"Amazonas","capital":"minor","population":8858},{"city":"Le Thor","city_ascii":"Le Thor","lat":43.93,"lng":4.995,"country":"France","iso2":"FR","iso3":"FRA","admin_name":"Provence-Alpes-Côte d’Azur","capital":"","population":8858},{"city":"Kuvshinovo","city_ascii":"Kuvshinovo","lat":57.0333,"lng":34.1833,"country":"Russia","iso2":"RU","iso3":"RUS","admin_name":"Tverskaya Oblast’","capital":"minor","population":8857},{"city":"Achacachi","city_ascii":"Achacachi","lat":-16.0444,"lng":-68.685,"country":"Bolivia","iso2":"BO","iso3":"BOL","admin_name":"La Paz","capital":"","population":8857},{"city":"Ak’ordat","city_ascii":"Ak'ordat","lat":15.55,"lng":37.8833,"country":"Eritrea","iso2":"ER","iso3":"ERI","admin_name":"Gash-Barka","capital":"","population":8857},{"city":"Vannikkonendal","city_ascii":"Vannikkonendal","lat":8.9959,"lng":77.6245,"country":"India","iso2":"IN","iso3":"IND","admin_name":"Tamil Nādu","capital":"","population":8857},{"city":"Reni","city_ascii":"Reni","lat":27.161,"lng":76.713,"country":"India","iso2":"IN","iso3":"IND","admin_name":"Rājasthān","capital":"","population":8857},{"city":"Pandino","city_ascii":"Pandino","lat":45.4,"lng":9.55,"country":"Italy","iso2":"IT","iso3":"ITA","admin_name":"Lombardy","capital":"","population":8856},{"city":"Bellheim","city_ascii":"Bellheim","lat":49.1981,"lng":8.2792,"country":"Germany","iso2":"DE","iso3":"DEU","admin_name":"Rhineland-Palatinate","capital":"","population":8855},{"city":"El Valle","city_ascii":"El Valle","lat":18.9764,"lng":-69.3792,"country":"Dominican Republic","iso2":"DO","iso3":"DOM","admin_name":"Higuamo","capital":"","population":8855},{"city":"Bellerive-sur-Allier","city_ascii":"Bellerive-sur-Allier","lat":46.1175,"lng":3.4044,"country":"France","iso2":"FR","iso3":"FRA","admin_name":"Auvergne-Rhône-Alpes","capital":"","population":8855},{"city":"Ilarionove","city_ascii":"Ilarionove","lat":48.4092,"lng":35.2753,"country":"Ukraine","iso2":"UA","iso3":"UKR","admin_name":"Dnipropetrovska Oblast","capital":"","population":8854},{"city":"Amtala","city_ascii":"Amtala","lat":26.1,"lng":91.39,"country":"India","iso2":"IN","iso3":"IND","admin_name":"Assam","capital":"","population":8854},{"city":"Sulahpet","city_ascii":"Sulahpet","lat":17.4014,"lng":77.3472,"country":"India","iso2":"IN","iso3":"IND","admin_name":"Karnātaka","capital":"","population":8853},{"city":"East York","city_ascii":"East York","lat":39.9687,"lng":-76.6755,"country":"United States","iso2":"US","iso3":"USA","admin_name":"Pennsylvania","capital":"","population":8853},{"city":"Poteau","city_ascii":"Poteau","lat":35.0282,"lng":-94.6346,"country":"United States","iso2":"US","iso3":"USA","admin_name":"Oklahoma","capital":"","population":8852},{"city":"Gilgit","city_ascii":"Gilgit","lat":35.9208,"lng":74.3083,"country":"Pakistan","iso2":"PK","iso3":"PAK","admin_name":"Gilgit-Baltistan","capital":"minor","population":8851},{"city":"Kilchberg","city_ascii":"Kilchberg","lat":47.3167,"lng":8.55,"country":"Switzerland","iso2":"CH","iso3":"CHE","admin_name":"Zürich","capital":"","population":8851},{"city":"Mandalavādi","city_ascii":"Mandalavadi","lat":12.6073,"lng":78.6055,"country":"India","iso2":"IN","iso3":"IND","admin_name":"Tamil Nādu","capital":"","population":8851},{"city":"Sakaddi","city_ascii":"Sakaddi","lat":25.5771,"lng":84.7554,"country":"India","iso2":"IN","iso3":"IND","admin_name":"Bihār","capital":"","population":8851},{"city":"Australia","city_ascii":"Australia","lat":22.4995,"lng":-81.1359,"country":"Cuba","iso2":"CU","iso3":"CUB","admin_name":"Matanzas","capital":"","population":8850},{"city":"Bersenbrück","city_ascii":"Bersenbruck","lat":52.5333,"lng":7.9167,"country":"Germany","iso2":"DE","iso3":"DEU","admin_name":"Lower Saxony","capital":"","population":8850},{"city":"Keora","city_ascii":"Keora","lat":25.4374,"lng":85.0726,"country":"India","iso2":"IN","iso3":"IND","admin_name":"Bihār","capital":"","population":8850},{"city":"Kadiyadda","city_ascii":"Kadiyadda","lat":16.8774,"lng":81.5149,"country":"India","iso2":"IN","iso3":"IND","admin_name":"Andhra Pradesh","capital":"","population":8850},{"city":"Khetko","city_ascii":"Khetko","lat":23.7554,"lng":85.9122,"country":"India","iso2":"IN","iso3":"IND","admin_name":"Jhārkhand","capital":"","population":8850},{"city":"Aït Ouaoumana","city_ascii":"Ait Ouaoumana","lat":32.7128,"lng":-5.8042,"country":"Morocco","iso2":"MA","iso3":"MAR","admin_name":"Béni Mellal-Khénifra","capital":"","population":8849},{"city":"Hlevakha","city_ascii":"Hlevakha","lat":50.2622,"lng":30.2894,"country":"Ukraine","iso2":"UA","iso3":"UKR","admin_name":"Kyivska Oblast","capital":"","population":8849},{"city":"Landquart","city_ascii":"Landquart","lat":46.9688,"lng":9.5503,"country":"Switzerland","iso2":"CH","iso3":"CHE","admin_name":"Graubünden","capital":"","population":8849},{"city":"Golbey","city_ascii":"Golbey","lat":48.1967,"lng":6.4381,"country":"France","iso2":"FR","iso3":"FRA","admin_name":"Grand Est","capital":"","population":8849},{"city":"Shankarpur","city_ascii":"Shankarpur","lat":26.1821,"lng":87.1552,"country":"India","iso2":"IN","iso3":"IND","admin_name":"Bihār","capital":"","population":8849},{"city":"Agadir Melloul","city_ascii":"Agadir Melloul","lat":30.2167,"lng":-7.8,"country":"Morocco","iso2":"MA","iso3":"MAR","admin_name":"Souss-Massa","capital":"","population":8848},{"city":"Fontaine-lès-Dijon","city_ascii":"Fontaine-les-Dijon","lat":47.3433,"lng":5.0206,"country":"France","iso2":"FR","iso3":"FRA","admin_name":"Bourgogne-Franche-Comté","capital":"","population":8847},{"city":"Malangām","city_ascii":"Malangam","lat":34.4383,"lng":74.5575,"country":"India","iso2":"IN","iso3":"IND","admin_name":"Jammu and Kashmīr","capital":"","population":8847},{"city":"Aradeo","city_ascii":"Aradeo","lat":40.1333,"lng":18.1333,"country":"Italy","iso2":"IT","iso3":"ITA","admin_name":"Puglia","capital":"","population":8847},{"city":"Moka","city_ascii":"Moka","lat":-20.219,"lng":57.496,"country":"Mauritius","iso2":"MU","iso3":"MUS","admin_name":"Moka","capital":"","population":8846},{"city":"Ban Pong Tao","city_ascii":"Ban Pong Tao","lat":18.8333,"lng":99.95,"country":"Thailand","iso2":"TH","iso3":"THA","admin_name":"Lampang","capital":"","population":8846},{"city":"Jaimalpura","city_ascii":"Jaimalpura","lat":28.9619,"lng":75.9569,"country":"India","iso2":"IN","iso3":"IND","admin_name":"Haryāna","capital":"","population":8846},{"city":"Karariyā","city_ascii":"Karariya","lat":26.5249,"lng":84.791,"country":"India","iso2":"IN","iso3":"IND","admin_name":"Bihār","capital":"","population":8846},{"city":"Rhymney","city_ascii":"Rhymney","lat":51.759,"lng":-3.283,"country":"United Kingdom","iso2":"GB","iso3":"GBR","admin_name":"Caerphilly","capital":"","population":8845},{"city":"Tirumalaippatti","city_ascii":"Tirumalaippatti","lat":11.3353,"lng":78.2194,"country":"India","iso2":"IN","iso3":"IND","admin_name":"Tamil Nādu","capital":"","population":8845},{"city":"Sewāri","city_ascii":"Sewari","lat":25.1,"lng":73.283,"country":"India","iso2":"IN","iso3":"IND","admin_name":"Rājasthān","capital":"","population":8844},{"city":"Kālkuni","city_ascii":"Kalkuni","lat":14.6,"lng":74.8333,"country":"India","iso2":"IN","iso3":"IND","admin_name":"Karnātaka","capital":"","population":8844},{"city":"Duvvūru","city_ascii":"Duvvuru","lat":14.5507,"lng":79.8331,"country":"India","iso2":"IN","iso3":"IND","admin_name":"Andhra Pradesh","capital":"","population":8844},{"city":"Nimmekal","city_ascii":"Nimmekal","lat":17.2372,"lng":79.6633,"country":"India","iso2":"IN","iso3":"IND","admin_name":"Telangāna","capital":"","population":8844},{"city":"Casorate Primo","city_ascii":"Casorate Primo","lat":45.3167,"lng":9.0167,"country":"Italy","iso2":"IT","iso3":"ITA","admin_name":"Lombardy","capital":"","population":8844},{"city":"Zoeterwoude","city_ascii":"Zoeterwoude","lat":52.1333,"lng":4.5,"country":"Netherlands","iso2":"NL","iso3":"NLD","admin_name":"Zuid-Holland","capital":"minor","population":8843},{"city":"Şabanözü","city_ascii":"Sabanozu","lat":40.4825,"lng":33.2836,"country":"Turkey","iso2":"TR","iso3":"TUR","admin_name":"Çankırı","capital":"minor","population":8843},{"city":"Volkach","city_ascii":"Volkach","lat":49.8667,"lng":10.2167,"country":"Germany","iso2":"DE","iso3":"DEU","admin_name":"Bavaria","capital":"","population":8843},{"city":"Bansang","city_ascii":"Bansang","lat":13.4333,"lng":-14.65,"country":"Gambia, The","iso2":"GM","iso3":"GMB","admin_name":"Central River","capital":"","population":8843},{"city":"Drazinda","city_ascii":"Drazinda","lat":31.7069,"lng":70.1352,"country":"Pakistan","iso2":"PK","iso3":"PAK","admin_name":"Khyber Pakhtunkhwa","capital":"","population":8842},{"city":"Nellutla","city_ascii":"Nellutla","lat":17.7034,"lng":79.1956,"country":"India","iso2":"IN","iso3":"IND","admin_name":"Telangāna","capital":"","population":8842},{"city":"Pallippatti","city_ascii":"Pallippatti","lat":11.8722,"lng":77.897,"country":"India","iso2":"IN","iso3":"IND","admin_name":"Tamil Nādu","capital":"","population":8842},{"city":"Coffeyville","city_ascii":"Coffeyville","lat":37.0519,"lng":-95.618,"country":"United States","iso2":"US","iso3":"USA","admin_name":"Kansas","capital":"","population":8842},{"city":"Caturama","city_ascii":"Caturama","lat":-13.3167,"lng":-42.3,"country":"Brazil","iso2":"BR","iso3":"BRA","admin_name":"Bahia","capital":"","population":8841},{"city":"Madnūr","city_ascii":"Madnur","lat":18.5,"lng":77.6333,"country":"India","iso2":"IN","iso3":"IND","admin_name":"Telangāna","capital":"","population":8841},{"city":"Andalusia","city_ascii":"Andalusia","lat":31.3102,"lng":-86.4781,"country":"United States","iso2":"US","iso3":"USA","admin_name":"Alabama","capital":"","population":8841},{"city":"Chak Habib","city_ascii":"Chak Habib","lat":25.7238,"lng":85.8789,"country":"India","iso2":"IN","iso3":"IND","admin_name":"Bihār","capital":"","population":8840},{"city":"Pā’īn Chāf","city_ascii":"Pa'in Chaf","lat":37.2294,"lng":50.2544,"country":"Iran","iso2":"IR","iso3":"IRN","admin_name":"Gīlān","capital":"","population":8840},{"city":"Highland Park","city_ascii":"Highland Park","lat":32.8311,"lng":-96.8012,"country":"United States","iso2":"US","iso3":"USA","admin_name":"Texas","capital":"","population":8840},{"city":"Naunhof","city_ascii":"Naunhof","lat":51.2778,"lng":12.5883,"country":"Germany","iso2":"DE","iso3":"DEU","admin_name":"Saxony","capital":"","population":8839},{"city":"Dayton","city_ascii":"Dayton","lat":30.0315,"lng":-94.9158,"country":"United States","iso2":"US","iso3":"USA","admin_name":"Texas","capital":"","population":8839},{"city":"Smižany","city_ascii":"Smizany","lat":48.9556,"lng":20.5292,"country":"Slovakia","iso2":"SK","iso3":"SVK","admin_name":"Košice","capital":"","population":8838},{"city":"Ban Noen Kum Nueng","city_ascii":"Ban Noen Kum Nueng","lat":16.55,"lng":100.4167,"country":"Thailand","iso2":"TH","iso3":"THA","admin_name":"Phitsanulok","capital":"","population":8838},{"city":"Ban Muang Kham","city_ascii":"Ban Muang Kham","lat":19.5008,"lng":99.7466,"country":"Thailand","iso2":"TH","iso3":"THA","admin_name":"Chiang Rai","capital":"","population":8837},{"city":"Vinjam","city_ascii":"Vinjam","lat":13.2544,"lng":79.263,"country":"India","iso2":"IN","iso3":"IND","admin_name":"Andhra Pradesh","capital":"","population":8837},{"city":"Psyzh","city_ascii":"Psyzh","lat":44.2333,"lng":42.0167,"country":"Russia","iso2":"RU","iso3":"RUS","admin_name":"Karachayevo-Cherkesiya","capital":"","population":8836},{"city":"Sæby","city_ascii":"Saeby","lat":57.3294,"lng":10.5322,"country":"Denmark","iso2":"DK","iso3":"DNK","admin_name":"Nordjylland","capital":"","population":8836},{"city":"Finestrat","city_ascii":"Finestrat","lat":38.5669,"lng":-0.2125,"country":"Spain","iso2":"ES","iso3":"ESP","admin_name":"Valencia","capital":"","population":8836},{"city":"Timmapuram","city_ascii":"Timmapuram","lat":17.1036,"lng":81.0781,"country":"India","iso2":"IN","iso3":"IND","admin_name":"Telangāna","capital":"","population":8836},{"city":"Madanāncheri","city_ascii":"Madanancheri","lat":12.7034,"lng":78.5991,"country":"India","iso2":"IN","iso3":"IND","admin_name":"Tamil Nādu","capital":"","population":8836},{"city":"Machadodorp","city_ascii":"Machadodorp","lat":-25.6667,"lng":30.25,"country":"South Africa","iso2":"ZA","iso3":"ZAF","admin_name":"Mpumalanga","capital":"","population":8835},{"city":"El Realejo","city_ascii":"El Realejo","lat":12.5333,"lng":-87.1667,"country":"Nicaragua","iso2":"NI","iso3":"NIC","admin_name":"Chinandega","capital":"minor","population":8834},{"city":"Povarovo","city_ascii":"Povarovo","lat":56.072,"lng":37.0706,"country":"Russia","iso2":"RU","iso3":"RUS","admin_name":"Moskovskaya Oblast’","capital":"","population":8834},{"city":"Armazém","city_ascii":"Armazem","lat":-28.2619,"lng":-49.0178,"country":"Brazil","iso2":"BR","iso3":"BRA","admin_name":"Santa Catarina","capital":"","population":8834},{"city":"Ospina","city_ascii":"Ospina","lat":1.0581,"lng":-77.5664,"country":"Colombia","iso2":"CO","iso3":"COL","admin_name":"Nariño","capital":"minor","population":8834},{"city":"Steinheim am Albuch","city_ascii":"Steinheim am Albuch","lat":48.6922,"lng":10.0642,"country":"Germany","iso2":"DE","iso3":"DEU","admin_name":"Baden-Württemberg","capital":"","population":8834},{"city":"Seneca","city_ascii":"Seneca","lat":34.6818,"lng":-82.96,"country":"United States","iso2":"US","iso3":"USA","admin_name":"South Carolina","capital":"","population":8834},{"city":"Potengi","city_ascii":"Potengi","lat":-7.0908,"lng":-40.0269,"country":"Brazil","iso2":"BR","iso3":"BRA","admin_name":"Ceará","capital":"minor","population":8833},{"city":"Pedrinhas","city_ascii":"Pedrinhas","lat":-11.1919,"lng":-37.6739,"country":"Brazil","iso2":"BR","iso3":"BRA","admin_name":"Sergipe","capital":"","population":8833},{"city":"Urânia","city_ascii":"Urania","lat":-20.2458,"lng":-50.6428,"country":"Brazil","iso2":"BR","iso3":"BRA","admin_name":"São Paulo","capital":"","population":8833},{"city":"Sānwas","city_ascii":"Sanwas","lat":25.1795,"lng":85.7148,"country":"India","iso2":"IN","iso3":"IND","admin_name":"Bihār","capital":"","population":8833},{"city":"Moslem Ebn-e ‘Aqīl","city_ascii":"Moslem Ebn-e `Aqil","lat":32.0561,"lng":48.3056,"country":"Iran","iso2":"IR","iso3":"IRN","admin_name":"Khūzestān","capital":"","population":8833},{"city":"Signal Mountain","city_ascii":"Signal Mountain","lat":35.1448,"lng":-85.3457,"country":"United States","iso2":"US","iso3":"USA","admin_name":"Tennessee","capital":"","population":8833},{"city":"Campbellton","city_ascii":"Campbellton","lat":48.005,"lng":-66.6731,"country":"Canada","iso2":"CA","iso3":"CAN","admin_name":"New Brunswick","capital":"","population":8833},{"city":"Al Buwayḑah","city_ascii":"Al Buwaydah","lat":33.4264,"lng":36.3208,"country":"Syria","iso2":"SY","iso3":"SYR","admin_name":"Rīf Dimashq","capital":"","population":8832},{"city":"Bīrpur","city_ascii":"Birpur","lat":32.6617,"lng":74.9518,"country":"India","iso2":"IN","iso3":"IND","admin_name":"Jammu and Kashmīr","capital":"","population":8832},{"city":"Cortez","city_ascii":"Cortez","lat":37.3503,"lng":-108.5768,"country":"United States","iso2":"US","iso3":"USA","admin_name":"Colorado","capital":"","population":8832},{"city":"San Juan de la Costa","city_ascii":"San Juan de la Costa","lat":-40.5167,"lng":-73.4,"country":"Chile","iso2":"CL","iso3":"CHL","admin_name":"Los Lagos","capital":"","population":8831},{"city":"Dobříš","city_ascii":"Dobris","lat":49.7811,"lng":14.1672,"country":"Czechia","iso2":"CZ","iso3":"CZE","admin_name":"Středočeský Kraj","capital":"","population":8831},{"city":"Maysville","city_ascii":"Maysville","lat":38.6455,"lng":-83.7911,"country":"United States","iso2":"US","iso3":"USA","admin_name":"Kentucky","capital":"","population":8831},{"city":"Piriápolis","city_ascii":"Piriapolis","lat":-34.9,"lng":-55.2833,"country":"Uruguay","iso2":"UY","iso3":"URY","admin_name":"Maldonado","capital":"","population":8830},{"city":"Qızılhacılı","city_ascii":"Qizilhacili","lat":40.5808,"lng":46.8503,"country":"Azerbaijan","iso2":"AZ","iso3":"AZE","admin_name":"Goranboy","capital":"","population":8830},{"city":"Heek","city_ascii":"Heek","lat":52.1167,"lng":7.0997,"country":"Germany","iso2":"DE","iso3":"DEU","admin_name":"North Rhine-Westphalia","capital":"","population":8830},{"city":"Cumnock","city_ascii":"Cumnock","lat":55.4529,"lng":-4.2638,"country":"United Kingdom","iso2":"GB","iso3":"GBR","admin_name":"East Ayrshire","capital":"","population":8830},{"city":"Ablu","city_ascii":"Ablu","lat":30.3391,"lng":74.7879,"country":"India","iso2":"IN","iso3":"IND","admin_name":"Punjab","capital":"","population":8830},{"city":"Tāmganj","city_ascii":"Tamganj","lat":26.2478,"lng":87.1569,"country":"India","iso2":"IN","iso3":"IND","admin_name":"Bihār","capital":"","population":8830},{"city":"Maria Enzersdorf","city_ascii":"Maria Enzersdorf","lat":48.1,"lng":16.2833,"country":"Austria","iso2":"AT","iso3":"AUT","admin_name":"Niederösterreich","capital":"","population":8829},{"city":"Kressbronn am Bodensee","city_ascii":"Kressbronn am Bodensee","lat":47.5958,"lng":9.6,"country":"Germany","iso2":"DE","iso3":"DEU","admin_name":"Baden-Württemberg","capital":"","population":8829},{"city":"Sanatoga","city_ascii":"Sanatoga","lat":40.2497,"lng":-75.5887,"country":"United States","iso2":"US","iso3":"USA","admin_name":"Pennsylvania","capital":"","population":8829},{"city":"Dardilly","city_ascii":"Dardilly","lat":45.8064,"lng":4.7536,"country":"France","iso2":"FR","iso3":"FRA","admin_name":"Auvergne-Rhône-Alpes","capital":"","population":8828},{"city":"Hamsāvaram","city_ascii":"Hamsavaram","lat":17.2938,"lng":82.4942,"country":"India","iso2":"IN","iso3":"IND","admin_name":"Andhra Pradesh","capital":"","population":8828},{"city":"Tirano","city_ascii":"Tirano","lat":46.2164,"lng":10.1689,"country":"Italy","iso2":"IT","iso3":"ITA","admin_name":"Lombardy","capital":"","population":8828},{"city":"Kaï","city_ascii":"Kai","lat":10.9694,"lng":-5.6944,"country":"Mali","iso2":"ML","iso3":"MLI","admin_name":"","capital":"","population":8827},{"city":"Côn Đảo","city_ascii":"Con Dao","lat":8.6931,"lng":106.5767,"country":"Vietnam","iso2":"VN","iso3":"VNM","admin_name":"Bà Rịa-Vũng Tàu","capital":"minor","population":8827},{"city":"Memmelsdorf","city_ascii":"Memmelsdorf","lat":49.9328,"lng":10.9533,"country":"Germany","iso2":"DE","iso3":"DEU","admin_name":"Bavaria","capital":"","population":8827},{"city":"Gibsonville","city_ascii":"Gibsonville","lat":36.0993,"lng":-79.5415,"country":"United States","iso2":"US","iso3":"USA","admin_name":"North Carolina","capital":"","population":8827},{"city":"Hucclecote","city_ascii":"Hucclecote","lat":51.85,"lng":-2.18,"country":"United Kingdom","iso2":"GB","iso3":"GBR","admin_name":"Gloucestershire","capital":"","population":8826},{"city":"Montmeló","city_ascii":"Montmelo","lat":41.5547,"lng":2.25,"country":"Spain","iso2":"ES","iso3":"ESP","admin_name":"Catalonia","capital":"","population":8825},{"city":"Mahāgaon","city_ascii":"Mahagaon","lat":17.5211,"lng":76.915,"country":"India","iso2":"IN","iso3":"IND","admin_name":"Karnātaka","capital":"","population":8825},{"city":"Reyes","city_ascii":"Reyes","lat":-14.2958,"lng":-67.3353,"country":"Bolivia","iso2":"BO","iso3":"BOL","admin_name":"El Beni","capital":"","population":8824},{"city":"Baía Formosa","city_ascii":"Baia Formosa","lat":-6.3689,"lng":-35.0078,"country":"Brazil","iso2":"BR","iso3":"BRA","admin_name":"Rio Grande do Norte","capital":"minor","population":8824},{"city":"Neuenhof","city_ascii":"Neuenhof","lat":47.45,"lng":8.3167,"country":"Switzerland","iso2":"CH","iso3":"CHE","admin_name":"Aargau","capital":"","population":8824},{"city":"Satwār","city_ascii":"Satwar","lat":26.2163,"lng":84.512,"country":"India","iso2":"IN","iso3":"IND","admin_name":"Bihār","capital":"","population":8824},{"city":"Rāmgarh","city_ascii":"Ramgarh","lat":25.2889,"lng":83.6535,"country":"India","iso2":"IN","iso3":"IND","admin_name":"Bihār","capital":"","population":8824},{"city":"Missaglia","city_ascii":"Missaglia","lat":45.7,"lng":9.3333,"country":"Italy","iso2":"IT","iso3":"ITA","admin_name":"Lombardy","capital":"","population":8824},{"city":"Bouati Mahmoud","city_ascii":"Bouati Mahmoud","lat":36.5833,"lng":7.3333,"country":"Algeria","iso2":"DZ","iso3":"DZA","admin_name":"Guelma","capital":"","population":8823},{"city":"Sabáudia","city_ascii":"Sabaudia","lat":-23.3,"lng":-51.55,"country":"Brazil","iso2":"BR","iso3":"BRA","admin_name":"Paraná","capital":"","population":8822},{"city":"Vert-Saint-Denis","city_ascii":"Vert-Saint-Denis","lat":48.565,"lng":2.6147,"country":"France","iso2":"FR","iso3":"FRA","admin_name":"Île-de-France","capital":"","population":8822},{"city":"Pleasant Hill","city_ascii":"Pleasant Hill","lat":38.8059,"lng":-94.2652,"country":"United States","iso2":"US","iso3":"USA","admin_name":"Missouri","capital":"","population":8822},{"city":"Trujillo","city_ascii":"Trujillo","lat":39.4653,"lng":-5.8789,"country":"Spain","iso2":"ES","iso3":"ESP","admin_name":"Extremadura","capital":"","population":8821},{"city":"Jonnagiri","city_ascii":"Jonnagiri","lat":15.2303,"lng":77.5714,"country":"India","iso2":"IN","iso3":"IND","admin_name":"Andhra Pradesh","capital":"","population":8821},{"city":"Chakla Waini","city_ascii":"Chakla Waini","lat":25.9081,"lng":85.6836,"country":"India","iso2":"IN","iso3":"IND","admin_name":"Bihār","capital":"","population":8821},{"city":"Kodavatipūdi","city_ascii":"Kodavatipudi","lat":17.4887,"lng":82.6046,"country":"India","iso2":"IN","iso3":"IND","admin_name":"Andhra Pradesh","capital":"","population":8821},{"city":"Sekimachi","city_ascii":"Sekimachi","lat":33.05,"lng":130.5333,"country":"Japan","iso2":"JP","iso3":"JPN","admin_name":"Kumamoto","capital":"","population":8821},{"city":"Fort Valley","city_ascii":"Fort Valley","lat":32.552,"lng":-83.8817,"country":"United States","iso2":"US","iso3":"USA","admin_name":"Georgia","capital":"","population":8821},{"city":"Amarzgane","city_ascii":"Amarzgane","lat":31.05,"lng":-7.2167,"country":"Morocco","iso2":"MA","iso3":"MAR","admin_name":"Drâa-Tafilalet","capital":"","population":8820},{"city":"Entrerríos","city_ascii":"Entrerrios","lat":6.5667,"lng":-75.5167,"country":"Colombia","iso2":"CO","iso3":"COL","admin_name":"Antioquia","capital":"minor","population":8820},{"city":"Toppenish","city_ascii":"Toppenish","lat":46.3806,"lng":-120.3122,"country":"United States","iso2":"US","iso3":"USA","admin_name":"Washington","capital":"","population":8820},{"city":"Summit","city_ascii":"Summit","lat":47.1694,"lng":-122.3628,"country":"United States","iso2":"US","iso3":"USA","admin_name":"Washington","capital":"","population":8819},{"city":"Baciu","city_ascii":"Baciu","lat":46.7928,"lng":23.525,"country":"Romania","iso2":"RO","iso3":"ROU","admin_name":"Cluj","capital":"","population":8818},{"city":"Valasa","city_ascii":"Valasa","lat":14.1632,"lng":76.9469,"country":"India","iso2":"IN","iso3":"IND","admin_name":"Andhra Pradesh","capital":"","population":8818},{"city":"Kukraun","city_ascii":"Kukraun","lat":25.7647,"lng":87.1847,"country":"India","iso2":"IN","iso3":"IND","admin_name":"Bihār","capital":"","population":8818},{"city":"Carbondale","city_ascii":"Carbondale","lat":41.5714,"lng":-75.5048,"country":"United States","iso2":"US","iso3":"USA","admin_name":"Pennsylvania","capital":"","population":8818},{"city":"Ḩīsh","city_ascii":"Hish","lat":35.5464,"lng":36.6431,"country":"Syria","iso2":"SY","iso3":"SYR","admin_name":"Idlib","capital":"minor","population":8817},{"city":"Bāsmanpur","city_ascii":"Basmanpur","lat":26.6433,"lng":84.9789,"country":"India","iso2":"IN","iso3":"IND","admin_name":"Bihār","capital":"","population":8817},{"city":"Vadapalanji","city_ascii":"Vadapalanji","lat":9.9266,"lng":78.0096,"country":"India","iso2":"IN","iso3":"IND","admin_name":"Tamil Nādu","capital":"","population":8817},{"city":"Albinea","city_ascii":"Albinea","lat":44.6167,"lng":10.6,"country":"Italy","iso2":"IT","iso3":"ITA","admin_name":"Emilia-Romagna","capital":"","population":8817},{"city":"Adigoppula","city_ascii":"Adigoppula","lat":16.4402,"lng":79.6235,"country":"India","iso2":"IN","iso3":"IND","admin_name":"Andhra Pradesh","capital":"","population":8816},{"city":"Soresina","city_ascii":"Soresina","lat":45.3,"lng":9.85,"country":"Italy","iso2":"IT","iso3":"ITA","admin_name":"Lombardy","capital":"","population":8816},{"city":"Mahela","city_ascii":"Mahela","lat":-19.4833,"lng":48.4833,"country":"Madagascar","iso2":"MG","iso3":"MDG","admin_name":"Toamasina","capital":"","population":8815},{"city":"Takua Pa","city_ascii":"Takua Pa","lat":8.8658,"lng":98.3413,"country":"Thailand","iso2":"TH","iso3":"THA","admin_name":"Phangnga","capital":"minor","population":8815},{"city":"São Sebastião do Curral","city_ascii":"Sao Sebastiao do Curral","lat":-20.2758,"lng":-45.005,"country":"Brazil","iso2":"BR","iso3":"BRA","admin_name":"Minas Gerais","capital":"","population":8815},{"city":"Upper Makefield","city_ascii":"Upper Makefield","lat":40.2941,"lng":-74.925,"country":"United States","iso2":"US","iso3":"USA","admin_name":"Pennsylvania","capital":"","population":8815},{"city":"Baramandougou","city_ascii":"Baramandougou","lat":13.6,"lng":-4.6,"country":"Mali","iso2":"ML","iso3":"MLI","admin_name":"Ségou","capital":"","population":8814},{"city":"Yacimiento Río Turbio","city_ascii":"Yacimiento Rio Turbio","lat":-51.5333,"lng":-72.3,"country":"Argentina","iso2":"AR","iso3":"ARG","admin_name":"Santa Cruz","capital":"","population":8814},{"city":"Rangvāsa","city_ascii":"Rangvasa","lat":22.6435,"lng":75.7886,"country":"India","iso2":"IN","iso3":"IND","admin_name":"Madhya Pradesh","capital":"","population":8814},{"city":"Ban Si Don Chai","city_ascii":"Ban Si Don Chai","lat":20.13,"lng":100.3614,"country":"Thailand","iso2":"TH","iso3":"THA","admin_name":"Chiang Rai","capital":"","population":8813},{"city":"Oak Hills Place","city_ascii":"Oak Hills Place","lat":30.369,"lng":-91.0887,"country":"United States","iso2":"US","iso3":"USA","admin_name":"Louisiana","capital":"","population":8813},{"city":"San Martín de Valdeiglesias","city_ascii":"San Martin de Valdeiglesias","lat":40.364,"lng":-4.401,"country":"Spain","iso2":"ES","iso3":"ESP","admin_name":"Madrid","capital":"","population":8812},{"city":"Sarlat-la-Canéda","city_ascii":"Sarlat-la-Caneda","lat":44.8928,"lng":1.2153,"country":"France","iso2":"FR","iso3":"FRA","admin_name":"Nouvelle-Aquitaine","capital":"minor","population":8812},{"city":"Mānsong","city_ascii":"Mansong","lat":27.1628,"lng":88.5661,"country":"India","iso2":"IN","iso3":"IND","admin_name":"West Bengal","capital":"","population":8812},{"city":"Takouta","city_ascii":"Takouta","lat":10.3,"lng":1.2,"country":"Benin","iso2":"BJ","iso3":"BEN","admin_name":"Atacora","capital":"","population":8811},{"city":"Hoyo de Manzanares","city_ascii":"Hoyo de Manzanares","lat":40.6333,"lng":-3.8833,"country":"Spain","iso2":"ES","iso3":"ESP","admin_name":"Madrid","capital":"","population":8811},{"city":"Paramé","city_ascii":"Parame","lat":48.6603,"lng":-1.9792,"country":"France","iso2":"FR","iso3":"FRA","admin_name":"Bretagne","capital":"","population":8811},{"city":"Bārun","city_ascii":"Barun","lat":24.8602,"lng":84.2232,"country":"India","iso2":"IN","iso3":"IND","admin_name":"Bihār","capital":"","population":8811},{"city":"Sorala","city_ascii":"Sorala","lat":19.1297,"lng":84.7506,"country":"India","iso2":"IN","iso3":"IND","admin_name":"Odisha","capital":"","population":8811},{"city":"Jolfā","city_ascii":"Jolfa","lat":38.9386,"lng":45.6253,"country":"Iran","iso2":"IR","iso3":"IRN","admin_name":"Āz̄arbāyjān-e Sharqī","capital":"minor","population":8810},{"city":"Porto Santo Stefano","city_ascii":"Porto Santo Stefano","lat":42.4353,"lng":11.1175,"country":"Italy","iso2":"IT","iso3":"ITA","admin_name":"Tuscany","capital":"","population":8810},{"city":"Mokhotlong","city_ascii":"Mokhotlong","lat":-29.2885,"lng":29.0656,"country":"Lesotho","iso2":"LS","iso3":"LSO","admin_name":"Mokhotlong","capital":"admin","population":8809},{"city":"Kampong Tunah Jambu","city_ascii":"Kampong Tunah Jambu","lat":4.9957,"lng":115.0019,"country":"Brunei","iso2":"BN","iso3":"BRN","admin_name":"Brunei dan Muara","capital":"","population":8809},{"city":"Boucau","city_ascii":"Boucau","lat":43.5244,"lng":-1.4853,"country":"France","iso2":"FR","iso3":"FRA","admin_name":"Nouvelle-Aquitaine","capital":"","population":8809},{"city":"Bolszewo","city_ascii":"Bolszewo","lat":54.6242,"lng":18.1753,"country":"Poland","iso2":"PL","iso3":"POL","admin_name":"Pomorskie","capital":"","population":8808},{"city":"Mühlhausen","city_ascii":"Muhlhausen","lat":49.2475,"lng":8.7239,"country":"Germany","iso2":"DE","iso3":"DEU","admin_name":"Baden-Württemberg","capital":"","population":8808},{"city":"Chécy","city_ascii":"Checy","lat":47.8942,"lng":2.0275,"country":"France","iso2":"FR","iso3":"FRA","admin_name":"Centre-Val de Loire","capital":"","population":8808},{"city":"Bainbridge","city_ascii":"Bainbridge","lat":41.3855,"lng":-81.3478,"country":"United States","iso2":"US","iso3":"USA","admin_name":"Ohio","capital":"","population":8808},{"city":"Ineu","city_ascii":"Ineu","lat":46.4258,"lng":21.8369,"country":"Romania","iso2":"RO","iso3":"ROU","admin_name":"Arad","capital":"","population":8807},{"city":"Hünenberg","city_ascii":"Hunenberg","lat":47.1833,"lng":8.4333,"country":"Switzerland","iso2":"CH","iso3":"CHE","admin_name":"Zug","capital":"","population":8807},{"city":"Mālipākar","city_ascii":"Malipakar","lat":25.3621,"lng":87.9144,"country":"India","iso2":"IN","iso3":"IND","admin_name":"West Bengal","capital":"","population":8807},{"city":"Mousoulou","city_ascii":"Mousoulou","lat":7.3899,"lng":1.9367,"country":"Benin","iso2":"BJ","iso3":"BEN","admin_name":"Zou","capital":"","population":8806},{"city":"San Miguel","city_ascii":"San Miguel","lat":-1.7,"lng":-79.0333,"country":"Ecuador","iso2":"EC","iso3":"ECU","admin_name":"Bolívar","capital":"","population":8806},{"city":"Lusca","city_ascii":"Lusca","lat":53.526,"lng":-6.167,"country":"Ireland","iso2":"IE","iso3":"IRL","admin_name":"Fingal","capital":"","population":8806},{"city":"Ala","city_ascii":"Ala","lat":45.7583,"lng":11.0056,"country":"Italy","iso2":"IT","iso3":"ITA","admin_name":"Trentino-Alto Adige","capital":"","population":8806},{"city":"Tagapul-an","city_ascii":"Tagapul-an","lat":12.05,"lng":124.15,"country":"Philippines","iso2":"PH","iso3":"PHL","admin_name":"Samar","capital":"","population":8805},{"city":"Pitman","city_ascii":"Pitman","lat":39.7335,"lng":-75.1306,"country":"United States","iso2":"US","iso3":"USA","admin_name":"New Jersey","capital":"","population":8805},{"city":"Soltsy","city_ascii":"Soltsy","lat":58.1333,"lng":30.3167,"country":"Russia","iso2":"RU","iso3":"RUS","admin_name":"Novgorodskaya Oblast’","capital":"minor","population":8803},{"city":"Rrëshen","city_ascii":"Rreshen","lat":41.7667,"lng":19.8833,"country":"Albania","iso2":"AL","iso3":"ALB","admin_name":"Lezhë","capital":"","population":8803},{"city":"Lovosice","city_ascii":"Lovosice","lat":50.515,"lng":14.0511,"country":"Czechia","iso2":"CZ","iso3":"CZE","admin_name":"Ústecký Kraj","capital":"","population":8803},{"city":"Iklod","city_ascii":"Iklod","lat":26.0222,"lng":77.3208,"country":"India","iso2":"IN","iso3":"IND","admin_name":"Madhya Pradesh","capital":"","population":8803},{"city":"Dhobipet","city_ascii":"Dhobipet","lat":17.4716,"lng":78.087,"country":"India","iso2":"IN","iso3":"IND","admin_name":"Telangāna","capital":"","population":8803},{"city":"Alvorada","city_ascii":"Alvorada","lat":-12.48,"lng":-49.125,"country":"Brazil","iso2":"BR","iso3":"BRA","admin_name":"Tocantins","capital":"minor","population":8802},{"city":"Ranjal","city_ascii":"Ranjal","lat":18.7458,"lng":77.9483,"country":"India","iso2":"IN","iso3":"IND","admin_name":"Telangāna","capital":"","population":8802},{"city":"Bernolákovo","city_ascii":"Bernolakovo","lat":48.2083,"lng":17.2917,"country":"Slovakia","iso2":"SK","iso3":"SVK","admin_name":"Bratislava","capital":"","population":8801},{"city":"Beni Hassane","city_ascii":"Beni Hassane","lat":35.57,"lng":10.82,"country":"Tunisia","iso2":"TN","iso3":"TUN","admin_name":"Monastir","capital":"","population":8801},{"city":"Angor","city_ascii":"Angor","lat":37.4639,"lng":67.15,"country":"Uzbekistan","iso2":"UZ","iso3":"UZB","admin_name":"Surxondaryo","capital":"","population":8801},{"city":"Tausa","city_ascii":"Tausa","lat":5.1964,"lng":-73.8875,"country":"Colombia","iso2":"CO","iso3":"COL","admin_name":"Cundinamarca","capital":"minor","population":8801},{"city":"Obernburg am Main","city_ascii":"Obernburg am Main","lat":49.84,"lng":9.1414,"country":"Germany","iso2":"DE","iso3":"DEU","admin_name":"Bavaria","capital":"","population":8801},{"city":"Tillaivilāgam","city_ascii":"Tillaivilagam","lat":10.4127,"lng":79.5547,"country":"India","iso2":"IN","iso3":"IND","admin_name":"Tamil Nādu","capital":"","population":8801},{"city":"Clayton","city_ascii":"Clayton","lat":39.6627,"lng":-75.0782,"country":"United States","iso2":"US","iso3":"USA","admin_name":"New Jersey","capital":"","population":8801},{"city":"North Haledon","city_ascii":"North Haledon","lat":40.9628,"lng":-74.1844,"country":"United States","iso2":"US","iso3":"USA","admin_name":"New Jersey","capital":"","population":8801},{"city":"G‘ozg‘on","city_ascii":"G`ozg`on","lat":40.5944,"lng":65.4964,"country":"Uzbekistan","iso2":"UZ","iso3":"UZB","admin_name":"Navoiy","capital":"","population":8800},{"city":"Dehri","city_ascii":"Dehri","lat":25.4252,"lng":83.8201,"country":"India","iso2":"IN","iso3":"IND","admin_name":"Bihār","capital":"","population":8800},{"city":"Taragi","city_ascii":"Taragi","lat":32.2667,"lng":130.9333,"country":"Japan","iso2":"JP","iso3":"JPN","admin_name":"Kumamoto","capital":"","population":8800},{"city":"Veľké Kapušany","city_ascii":"Vel'ke Kapusany","lat":48.5503,"lng":22.0847,"country":"Slovakia","iso2":"SK","iso3":"SVK","admin_name":"Košice","capital":"","population":8799},{"city":"La Ferté-Bernard","city_ascii":"La Ferte-Bernard","lat":48.1875,"lng":0.6553,"country":"France","iso2":"FR","iso3":"FRA","admin_name":"Pays de la Loire","capital":"","population":8799},{"city":"Dunavarsány","city_ascii":"Dunavarsany","lat":47.2781,"lng":19.0672,"country":"Hungary","iso2":"HU","iso3":"HUN","admin_name":"Pest","capital":"","population":8799},{"city":"Pittsgrove","city_ascii":"Pittsgrove","lat":39.5404,"lng":-75.1291,"country":"United States","iso2":"US","iso3":"USA","admin_name":"New Jersey","capital":"","population":8799},{"city":"London Grove","city_ascii":"London Grove","lat":39.8327,"lng":-75.8155,"country":"United States","iso2":"US","iso3":"USA","admin_name":"Pennsylvania","capital":"","population":8799},{"city":"Ulstein","city_ascii":"Ulstein","lat":62.3564,"lng":5.8539,"country":"Norway","iso2":"NO","iso3":"NOR","admin_name":"Møre og Romsdal","capital":"","population":8797},{"city":"Cristuru Secuiesc","city_ascii":"Cristuru Secuiesc","lat":46.2917,"lng":25.0353,"country":"Romania","iso2":"RO","iso3":"ROU","admin_name":"Harghita","capital":"","population":8797},{"city":"Rouvroy","city_ascii":"Rouvroy","lat":50.3942,"lng":2.9044,"country":"France","iso2":"FR","iso3":"FRA","admin_name":"Hauts-de-France","capital":"","population":8797},{"city":"Penugolanu","city_ascii":"Penugolanu","lat":16.9771,"lng":80.4369,"country":"India","iso2":"IN","iso3":"IND","admin_name":"Andhra Pradesh","capital":"","population":8797},{"city":"Vanduvāncheri","city_ascii":"Vanduvancheri","lat":10.4292,"lng":79.6498,"country":"India","iso2":"IN","iso3":"IND","admin_name":"Tamil Nādu","capital":"","population":8797},{"city":"San Ignacio","city_ascii":"San Ignacio","lat":14.6667,"lng":-87.0333,"country":"Honduras","iso2":"HN","iso3":"HND","admin_name":"Francisco Morazán","capital":"","population":8796},{"city":"Madhuban","city_ascii":"Madhuban","lat":25.8838,"lng":86.8176,"country":"India","iso2":"IN","iso3":"IND","admin_name":"Bihār","capital":"","population":8796},{"city":"Bommayapālaiyam","city_ascii":"Bommayapalaiyam","lat":11.9922,"lng":79.8499,"country":"India","iso2":"IN","iso3":"IND","admin_name":"Tamil Nādu","capital":"","population":8796},{"city":"Uta","city_ascii":"Uta","lat":39.2883,"lng":8.9576,"country":"Italy","iso2":"IT","iso3":"ITA","admin_name":"Sardegna","capital":"","population":8796},{"city":"Santa María Xadani","city_ascii":"Santa Maria Xadani","lat":16.3667,"lng":-95.0167,"country":"Mexico","iso2":"MX","iso3":"MEX","admin_name":"Oaxaca","capital":"minor","population":8795},{"city":"Gopālpur","city_ascii":"Gopalpur","lat":19.2586,"lng":84.9052,"country":"India","iso2":"IN","iso3":"IND","admin_name":"Odisha","capital":"","population":8795},{"city":"Maisaram","city_ascii":"Maisaram","lat":17.1329,"lng":78.4367,"country":"India","iso2":"IN","iso3":"IND","admin_name":"Telangāna","capital":"","population":8795},{"city":"Ballenstedt","city_ascii":"Ballenstedt","lat":51.72,"lng":11.2375,"country":"Germany","iso2":"DE","iso3":"DEU","admin_name":"Saxony-Anhalt","capital":"","population":8794},{"city":"Gudibanda","city_ascii":"Gudibanda","lat":13.67,"lng":77.7,"country":"India","iso2":"IN","iso3":"IND","admin_name":"Karnātaka","capital":"","population":8794},{"city":"Baikunthapur","city_ascii":"Baikunthapur","lat":22.9808,"lng":88.2058,"country":"India","iso2":"IN","iso3":"IND","admin_name":"West Bengal","capital":"","population":8794},{"city":"Ntossoni","city_ascii":"Ntossoni","lat":12.5311,"lng":-5.7714,"country":"Mali","iso2":"ML","iso3":"MLI","admin_name":"Sikasso","capital":"","population":8793},{"city":"Strijen","city_ascii":"Strijen","lat":51.75,"lng":4.55,"country":"Netherlands","iso2":"NL","iso3":"NLD","admin_name":"Zuid-Holland","capital":"minor","population":8793},{"city":"Haţeg","city_ascii":"Hateg","lat":45.6075,"lng":22.95,"country":"Romania","iso2":"RO","iso3":"ROU","admin_name":"Hunedoara","capital":"","population":8793},{"city":"Lichtervelde","city_ascii":"Lichtervelde","lat":51.0333,"lng":3.1333,"country":"Belgium","iso2":"BE","iso3":"BEL","admin_name":"Flanders","capital":"","population":8793},{"city":"Entraigues-sur-la-Sorgue","city_ascii":"Entraigues-sur-la-Sorgue","lat":44.0036,"lng":4.9272,"country":"France","iso2":"FR","iso3":"FRA","admin_name":"Provence-Alpes-Côte d’Azur","capital":"","population":8793},{"city":"Puraini","city_ascii":"Puraini","lat":26.0607,"lng":87.0331,"country":"India","iso2":"IN","iso3":"IND","admin_name":"Bihār","capital":"","population":8793},{"city":"Chīchkah","city_ascii":"Chichkah","lat":37.0706,"lng":69.2983,"country":"Afghanistan","iso2":"AF","iso3":"AFG","admin_name":"Kunduz","capital":"","population":8792},{"city":"Abcoude","city_ascii":"Abcoude","lat":52.27,"lng":4.97,"country":"Netherlands","iso2":"NL","iso3":"NLD","admin_name":"Utrecht","capital":"","population":8791},{"city":"Gudivāda","city_ascii":"Gudivada","lat":17.3974,"lng":82.7908,"country":"India","iso2":"IN","iso3":"IND","admin_name":"Andhra Pradesh","capital":"","population":8791},{"city":"Rautara","city_ascii":"Rautara","lat":25.663,"lng":87.5378,"country":"India","iso2":"IN","iso3":"IND","admin_name":"Bihār","capital":"","population":8791},{"city":"Engerwitzdorf","city_ascii":"Engerwitzdorf","lat":48.3397,"lng":14.4256,"country":"Austria","iso2":"AT","iso3":"AUT","admin_name":"Oberösterreich","capital":"","population":8790},{"city":"Lontra","city_ascii":"Lontra","lat":-15.9028,"lng":-44.305,"country":"Brazil","iso2":"BR","iso3":"BRA","admin_name":"Minas Gerais","capital":"","population":8790},{"city":"Quéven","city_ascii":"Queven","lat":47.7894,"lng":-3.4139,"country":"France","iso2":"FR","iso3":"FRA","admin_name":"Bretagne","capital":"","population":8790},{"city":"Jeannette","city_ascii":"Jeannette","lat":40.3277,"lng":-79.6139,"country":"United States","iso2":"US","iso3":"USA","admin_name":"Pennsylvania","capital":"","population":8790},{"city":"Bridgewater","city_ascii":"Bridgewater","lat":44.37,"lng":-64.52,"country":"Canada","iso2":"CA","iso3":"CAN","admin_name":"Nova Scotia","capital":"","population":8790},{"city":"Kukrahill","city_ascii":"Kukrahill","lat":12.25,"lng":-83.75,"country":"Nicaragua","iso2":"NI","iso3":"NIC","admin_name":"Costa Caribe Sur","capital":"minor","population":8789},{"city":"Falla","city_ascii":"Falla","lat":22.1704,"lng":-78.7872,"country":"Cuba","iso2":"CU","iso3":"CUB","admin_name":"Ciego de Ávila","capital":"","population":8789},{"city":"Nagykovácsi","city_ascii":"Nagykovacsi","lat":47.58,"lng":18.88,"country":"Hungary","iso2":"HU","iso3":"HUN","admin_name":"Pest","capital":"","population":8789},{"city":"Miyār","city_ascii":"Miyar","lat":13.1945,"lng":75.0484,"country":"India","iso2":"IN","iso3":"IND","admin_name":"Karnātaka","capital":"","population":8789},{"city":"Hassi Berkane","city_ascii":"Hassi Berkane","lat":34.8333,"lng":-2.8667,"country":"Morocco","iso2":"MA","iso3":"MAR","admin_name":"Oriental","capital":"","population":8788},{"city":"Kryzhopil","city_ascii":"Kryzhopil","lat":48.3842,"lng":28.8625,"country":"Ukraine","iso2":"UA","iso3":"UKR","admin_name":"Vinnytska Oblast","capital":"minor","population":8788},{"city":"Brimington","city_ascii":"Brimington","lat":53.258,"lng":-1.3905,"country":"United Kingdom","iso2":"GB","iso3":"GBR","admin_name":"Derbyshire","capital":"","population":8788},{"city":"Varatanapalli","city_ascii":"Varatanapalli","lat":12.5828,"lng":78.302,"country":"India","iso2":"IN","iso3":"IND","admin_name":"Tamil Nādu","capital":"","population":8788},{"city":"Gholia Kalān","city_ascii":"Gholia Kalan","lat":30.6726,"lng":75.18,"country":"India","iso2":"IN","iso3":"IND","admin_name":"Punjab","capital":"","population":8788},{"city":"Porcari","city_ascii":"Porcari","lat":43.8333,"lng":10.6167,"country":"Italy","iso2":"IT","iso3":"ITA","admin_name":"Tuscany","capital":"","population":8788},{"city":"Treze Tílias","city_ascii":"Treze Tilias","lat":-27.0019,"lng":-51.4058,"country":"Brazil","iso2":"BR","iso3":"BRA","admin_name":"Santa Catarina","capital":"","population":8787},{"city":"El Outaya","city_ascii":"El Outaya","lat":35.0333,"lng":5.6,"country":"Algeria","iso2":"DZ","iso3":"DZA","admin_name":"Biskra","capital":"","population":8787},{"city":"Karis","city_ascii":"Karis","lat":60.0708,"lng":23.6625,"country":"Finland","iso2":"FI","iso3":"FIN","admin_name":"Uusimaa","capital":"","population":8787},{"city":"Khānāpur","city_ascii":"Khanapur","lat":17.9004,"lng":79.9277,"country":"India","iso2":"IN","iso3":"IND","admin_name":"Telangāna","capital":"","population":8787},{"city":"Glencoe","city_ascii":"Glencoe","lat":42.1347,"lng":-87.7641,"country":"United States","iso2":"US","iso3":"USA","admin_name":"Illinois","capital":"","population":8787},{"city":"Belozërsk","city_ascii":"Belozersk","lat":60.0333,"lng":37.7667,"country":"Russia","iso2":"RU","iso3":"RUS","admin_name":"Vologodskaya Oblast’","capital":"","population":8786},{"city":"Tlagasana","city_ascii":"Tlagasana","lat":-7.1786,"lng":109.5057,"country":"Indonesia","iso2":"ID","iso3":"IDN","admin_name":"Jawa Tengah","capital":"","population":8786},{"city":"Soeda","city_ascii":"Soeda","lat":33.5719,"lng":130.8539,"country":"Japan","iso2":"JP","iso3":"JPN","admin_name":"Fukuoka","capital":"","population":8786},{"city":"Toulou","city_ascii":"Toulou","lat":14.1688,"lng":5.199,"country":"Niger","iso2":"NE","iso3":"NER","admin_name":"Tahoua","capital":"","population":8785},{"city":"Sowān","city_ascii":"Sowan","lat":25.554,"lng":84.2334,"country":"India","iso2":"IN","iso3":"IND","admin_name":"Bihār","capital":"","population":8785},{"city":"Madhubani","city_ascii":"Madhubani","lat":26.3272,"lng":87.016,"country":"India","iso2":"IN","iso3":"IND","admin_name":"Bihār","capital":"","population":8785},{"city":"La Loggia","city_ascii":"La Loggia","lat":44.9667,"lng":7.6667,"country":"Italy","iso2":"IT","iso3":"ITA","admin_name":"Piedmont","capital":"","population":8785},{"city":"Ban Sai Yoi","city_ascii":"Ban Sai Yoi","lat":16.4167,"lng":100.6,"country":"Thailand","iso2":"TH","iso3":"THA","admin_name":"Phitsanulok","capital":"","population":8784},{"city":"Koekelare","city_ascii":"Koekelare","lat":51.0833,"lng":2.9667,"country":"Belgium","iso2":"BE","iso3":"BEL","admin_name":"Flanders","capital":"","population":8784},{"city":"Dharāwat","city_ascii":"Dharawat","lat":25.0592,"lng":85.042,"country":"India","iso2":"IN","iso3":"IND","admin_name":"Bihār","capital":"","population":8784},{"city":"Schuylkill","city_ascii":"Schuylkill","lat":40.1086,"lng":-75.4982,"country":"United States","iso2":"US","iso3":"USA","admin_name":"Pennsylvania","capital":"","population":8784},{"city":"Cofimvaba","city_ascii":"Cofimvaba","lat":-32.0025,"lng":27.5806,"country":"South Africa","iso2":"ZA","iso3":"ZAF","admin_name":"Eastern Cape","capital":"","population":8783},{"city":"Lienen","city_ascii":"Lienen","lat":52.1461,"lng":7.9739,"country":"Germany","iso2":"DE","iso3":"DEU","admin_name":"North Rhine-Westphalia","capital":"","population":8783},{"city":"Costa Volpino","city_ascii":"Costa Volpino","lat":45.8306,"lng":10.0992,"country":"Italy","iso2":"IT","iso3":"ITA","admin_name":"Lombardy","capital":"","population":8783},{"city":"Sodankylä","city_ascii":"Sodankyla","lat":67.4167,"lng":26.5833,"country":"Finland","iso2":"FI","iso3":"FIN","admin_name":"Lappi","capital":"minor","population":8782},{"city":"Essey-lès-Nancy","city_ascii":"Essey-les-Nancy","lat":48.7067,"lng":6.2231,"country":"France","iso2":"FR","iso3":"FRA","admin_name":"Grand Est","capital":"","population":8782},{"city":"Belsh","city_ascii":"Belsh","lat":40.9833,"lng":19.8833,"country":"Albania","iso2":"AL","iso3":"ALB","admin_name":"Elbasan","capital":"","population":8781},{"city":"Chahana","city_ascii":"Chahana","lat":36.6794,"lng":5.9572,"country":"Algeria","iso2":"DZ","iso3":"DZA","admin_name":"Jijel","capital":"","population":8781},{"city":"Garsekurti","city_ascii":"Garsekurti","lat":18.5083,"lng":78.9774,"country":"India","iso2":"IN","iso3":"IND","admin_name":"Telangāna","capital":"","population":8781},{"city":"Bhāsaula Dānāpur","city_ascii":"Bhasaula Danapur","lat":25.5509,"lng":85.0308,"country":"India","iso2":"IN","iso3":"IND","admin_name":"Bihār","capital":"","population":8781},{"city":"Boonton","city_ascii":"Boonton","lat":40.9047,"lng":-74.4048,"country":"United States","iso2":"US","iso3":"USA","admin_name":"New Jersey","capital":"","population":8781},{"city":"Saidia","city_ascii":"Saidia","lat":35.085,"lng":-2.2392,"country":"Morocco","iso2":"MA","iso3":"MAR","admin_name":"Oriental","capital":"","population":8780},{"city":"Cherry Hinton","city_ascii":"Cherry Hinton","lat":52.1849,"lng":0.176,"country":"United Kingdom","iso2":"GB","iso3":"GBR","admin_name":"Cambridgeshire","capital":"","population":8780},{"city":"Annan","city_ascii":"Annan","lat":54.983,"lng":-3.266,"country":"United Kingdom","iso2":"GB","iso3":"GBR","admin_name":"Dumfries and Galloway","capital":"","population":8780},{"city":"Nueva Ocotepeque","city_ascii":"Nueva Ocotepeque","lat":14.4333,"lng":-89.1833,"country":"Honduras","iso2":"HN","iso3":"HND","admin_name":"Ocotepeque","capital":"admin","population":8780},{"city":"Kampel","city_ascii":"Kampel","lat":22.6167,"lng":76.05,"country":"India","iso2":"IN","iso3":"IND","admin_name":"Madhya Pradesh","capital":"","population":8780},{"city":"Waldenbuch","city_ascii":"Waldenbuch","lat":48.6372,"lng":9.1317,"country":"Germany","iso2":"DE","iso3":"DEU","admin_name":"Baden-Württemberg","capital":"","population":8779},{"city":"Bachchannapet","city_ascii":"Bachchannapet","lat":17.7883,"lng":79.0349,"country":"India","iso2":"IN","iso3":"IND","admin_name":"Telangāna","capital":"","population":8779},{"city":"Yelandūr","city_ascii":"Yelandur","lat":12.07,"lng":77.03,"country":"India","iso2":"IN","iso3":"IND","admin_name":"Karnātaka","capital":"","population":8779},{"city":"Kūnimedu","city_ascii":"Kunimedu","lat":12.0885,"lng":79.894,"country":"India","iso2":"IN","iso3":"IND","admin_name":"Tamil Nādu","capital":"","population":8779},{"city":"Moe","city_ascii":"Moe","lat":-38.1722,"lng":146.2678,"country":"Australia","iso2":"AU","iso3":"AUS","admin_name":"Victoria","capital":"","population":8778},{"city":"Garching an der Alz","city_ascii":"Garching an der Alz","lat":48.1167,"lng":12.5833,"country":"Germany","iso2":"DE","iso3":"DEU","admin_name":"Bavaria","capital":"","population":8778},{"city":"La Mujer","city_ascii":"La Mujer","lat":36.7522,"lng":-2.6839,"country":"Spain","iso2":"ES","iso3":"ESP","admin_name":"Andalusia","capital":"","population":8778},{"city":"Bundehra","city_ascii":"Bundehra","lat":25.3776,"lng":86.7376,"country":"India","iso2":"IN","iso3":"IND","admin_name":"Bihār","capital":"","population":8778},{"city":"Barth","city_ascii":"Barth","lat":54.3667,"lng":12.7167,"country":"Germany","iso2":"DE","iso3":"DEU","admin_name":"Mecklenburg-Western Pomerania","capital":"","population":8777},{"city":"Monforte del Cid","city_ascii":"Monforte del Cid","lat":38.3833,"lng":-0.7167,"country":"Spain","iso2":"ES","iso3":"ESP","admin_name":"Valencia","capital":"","population":8777},{"city":"Cinderford","city_ascii":"Cinderford","lat":51.8225,"lng":-2.4989,"country":"United Kingdom","iso2":"GB","iso3":"GBR","admin_name":"Gloucestershire","capital":"","population":8777},{"city":"Greenville","city_ascii":"Greenville","lat":41.882,"lng":-71.5549,"country":"United States","iso2":"US","iso3":"USA","admin_name":"Rhode Island","capital":"","population":8777},{"city":"Cowley","city_ascii":"Cowley","lat":51.528,"lng":-0.481,"country":"United Kingdom","iso2":"GB","iso3":"GBR","admin_name":"Hillingdon","capital":"","population":8776},{"city":"Adiyakkamangalam","city_ascii":"Adiyakkamangalam","lat":10.7626,"lng":79.6775,"country":"India","iso2":"IN","iso3":"IND","admin_name":"Tamil Nādu","capital":"","population":8776},{"city":"Komījān","city_ascii":"Komijan","lat":34.7181,"lng":49.325,"country":"Iran","iso2":"IR","iso3":"IRN","admin_name":"Markazī","capital":"minor","population":8776},{"city":"Clanton","city_ascii":"Clanton","lat":32.8444,"lng":-86.6233,"country":"United States","iso2":"US","iso3":"USA","admin_name":"Alabama","capital":"","population":8776},{"city":"Néa Michanióna","city_ascii":"Nea Michaniona","lat":40.4644,"lng":22.8606,"country":"Greece","iso2":"GR","iso3":"GRC","admin_name":"Kentrikí Makedonía","capital":"","population":8775},{"city":"Deodora","city_ascii":"Deodora","lat":22.6149,"lng":80.3616,"country":"India","iso2":"IN","iso3":"IND","admin_name":"Madhya Pradesh","capital":"","population":8775},{"city":"Bath","city_ascii":"Bath","lat":43.9346,"lng":-69.8346,"country":"United States","iso2":"US","iso3":"USA","admin_name":"Maine","capital":"","population":8775},{"city":"Alíartos","city_ascii":"Aliartos","lat":38.3717,"lng":23.105,"country":"Greece","iso2":"GR","iso3":"GRC","admin_name":"Stereá Elláda","capital":"minor","population":8774},{"city":"Somarasampettai","city_ascii":"Somarasampettai","lat":10.8125,"lng":78.6342,"country":"India","iso2":"IN","iso3":"IND","admin_name":"Tamil Nādu","capital":"","population":8774},{"city":"Kusumbe","city_ascii":"Kusumbe","lat":20.9167,"lng":74.65,"country":"India","iso2":"IN","iso3":"IND","admin_name":"Mahārāshtra","capital":"","population":8774},{"city":"Mahopac","city_ascii":"Mahopac","lat":41.3688,"lng":-73.7414,"country":"United States","iso2":"US","iso3":"USA","admin_name":"New York","capital":"","population":8774},{"city":"Tiqqi","city_ascii":"Tiqqi","lat":29.8667,"lng":-9.0667,"country":"Morocco","iso2":"MA","iso3":"MAR","admin_name":"Souss-Massa","capital":"","population":8773},{"city":"Pereiras","city_ascii":"Pereiras","lat":-23.0761,"lng":-47.9758,"country":"Brazil","iso2":"BR","iso3":"BRA","admin_name":"São Paulo","capital":"","population":8773},{"city":"Efringen-Kirchen","city_ascii":"Efringen-Kirchen","lat":47.6556,"lng":7.5658,"country":"Germany","iso2":"DE","iso3":"DEU","admin_name":"Baden-Württemberg","capital":"","population":8773},{"city":"Poisy","city_ascii":"Poisy","lat":45.9216,"lng":6.0622,"country":"France","iso2":"FR","iso3":"FRA","admin_name":"Auvergne-Rhône-Alpes","capital":"","population":8773},{"city":"Gessate","city_ascii":"Gessate","lat":45.55,"lng":9.4333,"country":"Italy","iso2":"IT","iso3":"ITA","admin_name":"Lombardy","capital":"","population":8773},{"city":"Meadow Lakes","city_ascii":"Meadow Lakes","lat":61.638,"lng":-149.608,"country":"United States","iso2":"US","iso3":"USA","admin_name":"Alaska","capital":"","population":8773},{"city":"Amberomanga","city_ascii":"Amberomanga","lat":-19.25,"lng":46.6167,"country":"Madagascar","iso2":"MG","iso3":"MDG","admin_name":"Antananarivo","capital":"","population":8772},{"city":"Brevik","city_ascii":"Brevik","lat":59.35,"lng":18.2,"country":"Sweden","iso2":"SE","iso3":"SWE","admin_name":"Stockholm","capital":"","population":8772},{"city":"Luzzi","city_ascii":"Luzzi","lat":39.45,"lng":16.2833,"country":"Italy","iso2":"IT","iso3":"ITA","admin_name":"Calabria","capital":"","population":8772},{"city":"Presque Isle","city_ascii":"Presque Isle","lat":46.6868,"lng":-67.9874,"country":"United States","iso2":"US","iso3":"USA","admin_name":"Maine","capital":"","population":8772},{"city":"Paratdiha","city_ascii":"Paratdiha","lat":24.1638,"lng":86.307,"country":"India","iso2":"IN","iso3":"IND","admin_name":"Jhārkhand","capital":"","population":8771},{"city":"Bee Cave","city_ascii":"Bee Cave","lat":30.3084,"lng":-97.9629,"country":"United States","iso2":"US","iso3":"USA","admin_name":"Texas","capital":"","population":8771},{"city":"Coaldale","city_ascii":"Coaldale","lat":49.7333,"lng":-112.6167,"country":"Canada","iso2":"CA","iso3":"CAN","admin_name":"Alberta","capital":"","population":8771},{"city":"Muturkha","city_ascii":"Muturkha","lat":24.1044,"lng":86.2855,"country":"India","iso2":"IN","iso3":"IND","admin_name":"Jhārkhand","capital":"","population":8770},{"city":"Gorodoviki","city_ascii":"Gorodoviki","lat":46.1353,"lng":41.9656,"country":"Russia","iso2":"RU","iso3":"RUS","admin_name":"Kalmykiya","capital":"","population":8768},{"city":"Minyar","city_ascii":"Minyar","lat":55.0667,"lng":57.55,"country":"Russia","iso2":"RU","iso3":"RUS","admin_name":"Chelyabinskaya Oblast’","capital":"","population":8768},{"city":"Cunupia","city_ascii":"Cunupia","lat":10.55,"lng":-61.3667,"country":"Trinidad and Tobago","iso2":"TT","iso3":"TTO","admin_name":"Chaguanas","capital":"","population":8768},{"city":"Vicentinópolis","city_ascii":"Vicentinopolis","lat":-17.735,"lng":-49.8058,"country":"Brazil","iso2":"BR","iso3":"BRA","admin_name":"Goiás","capital":"minor","population":8768},{"city":"Kirrāyach","city_ascii":"Kirrayach","lat":26.6322,"lng":78.3423,"country":"India","iso2":"IN","iso3":"IND","admin_name":"Madhya Pradesh","capital":"","population":8768},{"city":"Chartiers","city_ascii":"Chartiers","lat":40.2505,"lng":-80.2495,"country":"United States","iso2":"US","iso3":"USA","admin_name":"Pennsylvania","capital":"","population":8768},{"city":"Taşkent","city_ascii":"Taskent","lat":36.9233,"lng":32.4889,"country":"Turkey","iso2":"TR","iso3":"TUR","admin_name":"Konya","capital":"minor","population":8767},{"city":"Hirni","city_ascii":"Hirni","lat":25.8323,"lng":86.2806,"country":"India","iso2":"IN","iso3":"IND","admin_name":"Bihār","capital":"","population":8767},{"city":"Chinna Mupparam","city_ascii":"Chinna Mupparam","lat":17.6319,"lng":79.8411,"country":"India","iso2":"IN","iso3":"IND","admin_name":"Telangāna","capital":"","population":8767},{"city":"Boukhralfa","city_ascii":"Boukhralfa","lat":36.6144,"lng":5.0872,"country":"Algeria","iso2":"DZ","iso3":"DZA","admin_name":"Bejaïa","capital":"","population":8766},{"city":"Srīrāmapuram","city_ascii":"Sriramapuram","lat":16.18,"lng":80.29,"country":"India","iso2":"IN","iso3":"IND","admin_name":"Andhra Pradesh","capital":"","population":8766},{"city":"Hardiya","city_ascii":"Hardiya","lat":25.5301,"lng":84.4961,"country":"India","iso2":"IN","iso3":"IND","admin_name":"Bihār","capital":"","population":8766},{"city":"Aragona","city_ascii":"Aragona","lat":37.4019,"lng":13.6183,"country":"Italy","iso2":"IT","iso3":"ITA","admin_name":"Sicilia","capital":"","population":8766},{"city":"Pizzo","city_ascii":"Pizzo","lat":38.7333,"lng":16.1667,"country":"Italy","iso2":"IT","iso3":"ITA","admin_name":"Calabria","capital":"","population":8766},{"city":"Großenlüder","city_ascii":"Grossenluder","lat":50.5833,"lng":9.5333,"country":"Germany","iso2":"DE","iso3":"DEU","admin_name":"Hesse","capital":"","population":8765},{"city":"Amtala","city_ascii":"Amtala","lat":22.3669,"lng":88.2777,"country":"India","iso2":"IN","iso3":"IND","admin_name":"West Bengal","capital":"","population":8765},{"city":"Īdupugallu","city_ascii":"Idupugallu","lat":16.4609,"lng":80.7543,"country":"India","iso2":"IN","iso3":"IND","admin_name":"Andhra Pradesh","capital":"","population":8764},{"city":"Monmouth","city_ascii":"Monmouth","lat":40.914,"lng":-90.6425,"country":"United States","iso2":"US","iso3":"USA","admin_name":"Illinois","capital":"","population":8764},{"city":"Spring Valley Lake","city_ascii":"Spring Valley Lake","lat":34.4987,"lng":-117.2683,"country":"United States","iso2":"US","iso3":"USA","admin_name":"California","capital":"","population":8764},{"city":"Bertrix","city_ascii":"Bertrix","lat":49.8542,"lng":5.2533,"country":"Belgium","iso2":"BE","iso3":"BEL","admin_name":"Wallonia","capital":"","population":8763},{"city":"Rāmpatti","city_ascii":"Rampatti","lat":26.3333,"lng":86.15,"country":"India","iso2":"IN","iso3":"IND","admin_name":"Bihār","capital":"","population":8763},{"city":"Vidapanakallu","city_ascii":"Vidapanakallu","lat":15.0667,"lng":77.1833,"country":"India","iso2":"IN","iso3":"IND","admin_name":"Andhra Pradesh","capital":"","population":8763},{"city":"Āshtīān","city_ascii":"Ashtian","lat":34.5222,"lng":50.0069,"country":"Iran","iso2":"IR","iso3":"IRN","admin_name":"Markazī","capital":"minor","population":8763},{"city":"Wesley Chapel","city_ascii":"Wesley Chapel","lat":34.9985,"lng":-80.6903,"country":"United States","iso2":"US","iso3":"USA","admin_name":"North Carolina","capital":"","population":8763},{"city":"Marrupa","city_ascii":"Marrupa","lat":-13.1833,"lng":37.5,"country":"Mozambique","iso2":"MZ","iso3":"MOZ","admin_name":"Niassa","capital":"","population":8762},{"city":"Zapatoca","city_ascii":"Zapatoca","lat":6.8167,"lng":-73.2667,"country":"Colombia","iso2":"CO","iso3":"COL","admin_name":"Santander","capital":"minor","population":8762},{"city":"Abirāmam","city_ascii":"Abiramam","lat":9.4423,"lng":78.4399,"country":"India","iso2":"IN","iso3":"IND","admin_name":"Tamil Nādu","capital":"","population":8762},{"city":"Ōtaki","city_ascii":"Otaki","lat":35.2852,"lng":140.2454,"country":"Japan","iso2":"JP","iso3":"JPN","admin_name":"Chiba","capital":"","population":8762},{"city":"Perry Heights","city_ascii":"Perry Heights","lat":40.7977,"lng":-81.468,"country":"United States","iso2":"US","iso3":"USA","admin_name":"Ohio","capital":"","population":8762},{"city":"Mascoutah","city_ascii":"Mascoutah","lat":38.5192,"lng":-89.8045,"country":"United States","iso2":"US","iso3":"USA","admin_name":"Illinois","capital":"","population":8762},{"city":"Borgentreich","city_ascii":"Borgentreich","lat":51.5667,"lng":9.25,"country":"Germany","iso2":"DE","iso3":"DEU","admin_name":"North Rhine-Westphalia","capital":"","population":8761},{"city":"Cockermouth","city_ascii":"Cockermouth","lat":54.6613,"lng":-3.362,"country":"United Kingdom","iso2":"GB","iso3":"GBR","admin_name":"Cumbria","capital":"","population":8761},{"city":"Borgo a Buggiano","city_ascii":"Borgo a Buggiano","lat":43.8833,"lng":10.7333,"country":"Italy","iso2":"IT","iso3":"ITA","admin_name":"Tuscany","capital":"","population":8761},{"city":"Galela","city_ascii":"Galela","lat":1.8236,"lng":127.8431,"country":"Indonesia","iso2":"ID","iso3":"IDN","admin_name":"Maluku Utara","capital":"","population":8760},{"city":"Zūlakallu","city_ascii":"Zulakallu","lat":16.4442,"lng":79.7874,"country":"India","iso2":"IN","iso3":"IND","admin_name":"Andhra Pradesh","capital":"","population":8760},{"city":"Pukkulam","city_ascii":"Pukkulam","lat":9.277,"lng":78.9938,"country":"India","iso2":"IN","iso3":"IND","admin_name":"Tamil Nādu","capital":"","population":8760},{"city":"Kibaya","city_ascii":"Kibaya","lat":-5.3014,"lng":36.5825,"country":"Tanzania","iso2":"TZ","iso3":"TZA","admin_name":"Manyara","capital":"","population":8759},{"city":"Fully","city_ascii":"Fully","lat":46.1333,"lng":7.1167,"country":"Switzerland","iso2":"CH","iso3":"CHE","admin_name":"Valais","capital":"","population":8759},{"city":"Pa Mok","city_ascii":"Pa Mok","lat":14.4921,"lng":100.4448,"country":"Thailand","iso2":"TH","iso3":"THA","admin_name":"Ang Thong","capital":"minor","population":8758},{"city":"Ottobeuren","city_ascii":"Ottobeuren","lat":47.9414,"lng":10.2994,"country":"Germany","iso2":"DE","iso3":"DEU","admin_name":"Bavaria","capital":"","population":8758},{"city":"Saint-Paul-Trois-Châteaux","city_ascii":"Saint-Paul-Trois-Chateaux","lat":44.3497,"lng":4.769,"country":"France","iso2":"FR","iso3":"FRA","admin_name":"Auvergne-Rhône-Alpes","capital":"","population":8758},{"city":"Rāni Sāwargaon","city_ascii":"Rani Sawargaon","lat":18.9655,"lng":76.7493,"country":"India","iso2":"IN","iso3":"IND","admin_name":"Mahārāshtra","capital":"","population":8758},{"city":"San Pedro de Coche","city_ascii":"San Pedro de Coche","lat":10.7772,"lng":-63.9311,"country":"Venezuela","iso2":"VE","iso3":"VEN","admin_name":"Nueva Esparta","capital":"minor","population":8756},{"city":"Riacho dos Machados","city_ascii":"Riacho dos Machados","lat":-16.0033,"lng":-43.0433,"country":"Brazil","iso2":"BR","iso3":"BRA","admin_name":"Minas Gerais","capital":"","population":8756},{"city":"Hombrechtikon","city_ascii":"Hombrechtikon","lat":47.25,"lng":8.7667,"country":"Switzerland","iso2":"CH","iso3":"CHE","admin_name":"Zürich","capital":"","population":8756},{"city":"Pacuarito","city_ascii":"Pacuarito","lat":10.1093,"lng":-83.4091,"country":"Costa Rica","iso2":"CR","iso3":"CRI","admin_name":"Limón","capital":"","population":8756},{"city":"Vohburg an der Donau","city_ascii":"Vohburg an der Donau","lat":48.7667,"lng":11.6167,"country":"Germany","iso2":"DE","iso3":"DEU","admin_name":"Bavaria","capital":"","population":8756},{"city":"Aulnoye-Aymeries","city_ascii":"Aulnoye-Aymeries","lat":50.205,"lng":3.8364,"country":"France","iso2":"FR","iso3":"FRA","admin_name":"Hauts-de-France","capital":"","population":8756},{"city":"Crest","city_ascii":"Crest","lat":44.7292,"lng":5.0228,"country":"France","iso2":"FR","iso3":"FRA","admin_name":"Auvergne-Rhône-Alpes","capital":"","population":8756},{"city":"Hiramandalam","city_ascii":"Hiramandalam","lat":18.6708,"lng":83.9505,"country":"India","iso2":"IN","iso3":"IND","admin_name":"Andhra Pradesh","capital":"","population":8756},{"city":"Windsor","city_ascii":"Windsor","lat":43.2405,"lng":-89.2948,"country":"United States","iso2":"US","iso3":"USA","admin_name":"Wisconsin","capital":"","population":8756},{"city":"Mariinskiy Posad","city_ascii":"Mariinskiy Posad","lat":56.1,"lng":47.7167,"country":"Russia","iso2":"RU","iso3":"RUS","admin_name":"Chuvashiya","capital":"","population":8755},{"city":"Dāmal","city_ascii":"Damal","lat":12.886,"lng":79.5922,"country":"India","iso2":"IN","iso3":"IND","admin_name":"Tamil Nādu","capital":"","population":8755},{"city":"Būdamangalam","city_ascii":"Budamangalam","lat":12.3792,"lng":79.2308,"country":"India","iso2":"IN","iso3":"IND","admin_name":"Tamil Nādu","capital":"","population":8755},{"city":"Stony Brook University","city_ascii":"Stony Brook University","lat":40.9098,"lng":-73.1217,"country":"United States","iso2":"US","iso3":"USA","admin_name":"New York","capital":"","population":8755},{"city":"Natividade","city_ascii":"Natividade","lat":-11.7097,"lng":-47.7233,"country":"Brazil","iso2":"BR","iso3":"BRA","admin_name":"Tocantins","capital":"minor","population":8754},{"city":"Lachen","city_ascii":"Lachen","lat":47.1833,"lng":8.85,"country":"Switzerland","iso2":"CH","iso3":"CHE","admin_name":"Schwyz","capital":"minor","population":8754},{"city":"Angichettippālaiyam","city_ascii":"Angichettippalaiyam","lat":11.7742,"lng":79.5255,"country":"India","iso2":"IN","iso3":"IND","admin_name":"Tamil Nādu","capital":"","population":8754},{"city":"Brighton","city_ascii":"Brighton","lat":40.7023,"lng":-80.3677,"country":"United States","iso2":"US","iso3":"USA","admin_name":"Pennsylvania","capital":"","population":8754},{"city":"Habo","city_ascii":"Habo","lat":57.9167,"lng":14.0667,"country":"Sweden","iso2":"SE","iso3":"SWE","admin_name":"Jönköping","capital":"minor","population":8753},{"city":"Daping","city_ascii":"Daping","lat":24.6501,"lng":112.1693,"country":"China","iso2":"CN","iso3":"CHN","admin_name":"Guangdong","capital":"","population":8753},{"city":"Banak","city_ascii":"Banak","lat":27.8722,"lng":52.0289,"country":"Iran","iso2":"IR","iso3":"IRN","admin_name":"Būshehr","capital":"","population":8753},{"city":"San Juan Ixcaquixtla","city_ascii":"San Juan Ixcaquixtla","lat":18.45,"lng":-97.8167,"country":"Mexico","iso2":"MX","iso3":"MEX","admin_name":"Puebla","capital":"","population":8752},{"city":"Lenox","city_ascii":"Lenox","lat":43.1113,"lng":-75.7582,"country":"United States","iso2":"US","iso3":"USA","admin_name":"New York","capital":"","population":8752},{"city":"Pasivedalajimma","city_ascii":"Pasivedalajimma","lat":16.9952,"lng":81.7,"country":"India","iso2":"IN","iso3":"IND","admin_name":"Andhra Pradesh","capital":"","population":8751},{"city":"Sremski Karlovci","city_ascii":"Sremski Karlovci","lat":45.2,"lng":19.9333,"country":"Serbia","iso2":"RS","iso3":"SRB","admin_name":"Sremski Karlovci","capital":"admin","population":8750},{"city":"Tilvalli","city_ascii":"Tilvalli","lat":14.6268,"lng":75.231,"country":"India","iso2":"IN","iso3":"IND","admin_name":"Karnātaka","capital":"","population":8750},{"city":"Buenavista","city_ascii":"Buenavista","lat":9.3333,"lng":-74.3,"country":"Colombia","iso2":"CO","iso3":"COL","admin_name":"Magdalena","capital":"","population":8749},{"city":"Sant’Angelo in Lizzola","city_ascii":"Sant'Angelo in Lizzola","lat":43.8333,"lng":12.8,"country":"Italy","iso2":"IT","iso3":"ITA","admin_name":"Marche","capital":"","population":8749},{"city":"Mozzate","city_ascii":"Mozzate","lat":45.6833,"lng":8.95,"country":"Italy","iso2":"IT","iso3":"ITA","admin_name":"Lombardy","capital":"","population":8749},{"city":"Coccaglio","city_ascii":"Coccaglio","lat":45.5667,"lng":9.9833,"country":"Italy","iso2":"IT","iso3":"ITA","admin_name":"Lombardy","capital":"","population":8749},{"city":"Shopokov","city_ascii":"Shopokov","lat":42.84,"lng":74.31,"country":"Kyrgyzstan","iso2":"KG","iso3":"KGZ","admin_name":"Chüy","capital":"","population":8749},{"city":"Bouhlou","city_ascii":"Bouhlou","lat":34.1333,"lng":-4.4,"country":"Morocco","iso2":"MA","iso3":"MAR","admin_name":"Fès-Meknès","capital":"","population":8748},{"city":"Afumaţi","city_ascii":"Afumati","lat":44.525,"lng":26.2522,"country":"Romania","iso2":"RO","iso3":"ROU","admin_name":"Ilfov","capital":"","population":8748},{"city":"Sānrha","city_ascii":"Sanrha","lat":25.7979,"lng":84.7504,"country":"India","iso2":"IN","iso3":"IND","admin_name":"Bihār","capital":"","population":8748},{"city":"Castagneto Carducci","city_ascii":"Castagneto Carducci","lat":43.1667,"lng":10.6,"country":"Italy","iso2":"IT","iso3":"ITA","admin_name":"Tuscany","capital":"","population":8748},{"city":"Civitella in Val di Chiana","city_ascii":"Civitella in Val di Chiana","lat":43.4167,"lng":11.7167,"country":"Italy","iso2":"IT","iso3":"ITA","admin_name":"Tuscany","capital":"","population":8748},{"city":"Summit View","city_ascii":"Summit View","lat":47.1343,"lng":-122.3467,"country":"United States","iso2":"US","iso3":"USA","admin_name":"Washington","capital":"","population":8748},{"city":"Marlborough","city_ascii":"Marlborough","lat":41.6337,"lng":-73.9904,"country":"United States","iso2":"US","iso3":"USA","admin_name":"New York","capital":"","population":8748},{"city":"Rudewa","city_ascii":"Rudewa","lat":-10.1008,"lng":34.6836,"country":"Tanzania","iso2":"TZ","iso3":"TZA","admin_name":"Njombe","capital":"","population":8747},{"city":"Sonsbeck","city_ascii":"Sonsbeck","lat":51.6089,"lng":6.3769,"country":"Germany","iso2":"DE","iso3":"DEU","admin_name":"North Rhine-Westphalia","capital":"","population":8747},{"city":"Roccastrada","city_ascii":"Roccastrada","lat":43,"lng":11.1667,"country":"Italy","iso2":"IT","iso3":"ITA","admin_name":"Tuscany","capital":"","population":8747},{"city":"Wervershoof","city_ascii":"Wervershoof","lat":52.73,"lng":5.17,"country":"Netherlands","iso2":"NL","iso3":"NLD","admin_name":"Noord-Holland","capital":"","population":8746},{"city":"Tanudan","city_ascii":"Tanudan","lat":17.2814,"lng":121.2303,"country":"Philippines","iso2":"PH","iso3":"PHL","admin_name":"Kalinga","capital":"","population":8746},{"city":"Stary Sącz","city_ascii":"Stary Sacz","lat":49.5625,"lng":20.6364,"country":"Poland","iso2":"PL","iso3":"POL","admin_name":"Małopolskie","capital":"","population":8746},{"city":"Lamarão","city_ascii":"Lamarao","lat":-11.7828,"lng":-38.9,"country":"Brazil","iso2":"BR","iso3":"BRA","admin_name":"Bahia","capital":"","population":8746},{"city":"Jabera","city_ascii":"Jabera","lat":23.5582,"lng":79.678,"country":"India","iso2":"IN","iso3":"IND","admin_name":"Madhya Pradesh","capital":"","population":8746},{"city":"Ranod","city_ascii":"Ranod","lat":25.0748,"lng":77.8761,"country":"India","iso2":"IN","iso3":"IND","admin_name":"Madhya Pradesh","capital":"","population":8746},{"city":"Franklin","city_ascii":"Franklin","lat":43.4499,"lng":-71.6691,"country":"United States","iso2":"US","iso3":"USA","admin_name":"New Hampshire","capital":"","population":8746},{"city":"Leopoldo de Bulhões","city_ascii":"Leopoldo de Bulhoes","lat":-16.6247,"lng":-48.7439,"country":"Brazil","iso2":"BR","iso3":"BRA","admin_name":"Goiás","capital":"","population":8745},{"city":"Kanavāypudūr","city_ascii":"Kanavaypudur","lat":11.9282,"lng":78.1832,"country":"India","iso2":"IN","iso3":"IND","admin_name":"Tamil Nādu","capital":"","population":8745},{"city":"Rahta","city_ascii":"Rahta","lat":25.9213,"lng":86.9734,"country":"India","iso2":"IN","iso3":"IND","admin_name":"Bihār","capital":"","population":8745},{"city":"Pararia","city_ascii":"Pararia","lat":26.34,"lng":87.5896,"country":"India","iso2":"IN","iso3":"IND","admin_name":"Bihār","capital":"","population":8745},{"city":"Höshööt","city_ascii":"Hoshoot","lat":48.9408,"lng":89.1383,"country":"Mongolia","iso2":"MN","iso3":"MNG","admin_name":"Bayan-Ölgiy","capital":"minor","population":8744},{"city":"Koror","city_ascii":"Koror","lat":7.3419,"lng":134.4792,"country":"Palau","iso2":"PW","iso3":"PLW","admin_name":"Koror","capital":"","population":8744},{"city":"Uzundere","city_ascii":"Uzundere","lat":40.5364,"lng":41.5483,"country":"Turkey","iso2":"TR","iso3":"TUR","admin_name":"Erzurum","capital":"minor","population":8744},{"city":"Biederitz","city_ascii":"Biederitz","lat":52.1608,"lng":11.7178,"country":"Germany","iso2":"DE","iso3":"DEU","admin_name":"Saxony-Anhalt","capital":"","population":8744},{"city":"Notre-Dame-de-Gravenchon","city_ascii":"Notre-Dame-de-Gravenchon","lat":49.49,"lng":0.5719,"country":"France","iso2":"FR","iso3":"FRA","admin_name":"Normandie","capital":"","population":8744},{"city":"Murillo","city_ascii":"Murillo","lat":26.2642,"lng":-98.1233,"country":"United States","iso2":"US","iso3":"USA","admin_name":"Texas","capital":"","population":8744},{"city":"Porkhov","city_ascii":"Porkhov","lat":57.7833,"lng":29.5667,"country":"Russia","iso2":"RU","iso3":"RUS","admin_name":"Pskovskaya Oblast’","capital":"minor","population":8743},{"city":"Teranikallu","city_ascii":"Teranikallu","lat":15.6392,"lng":77.5303,"country":"India","iso2":"IN","iso3":"IND","admin_name":"Andhra Pradesh","capital":"","population":8743},{"city":"Dhanauli","city_ascii":"Dhanauli","lat":26.0026,"lng":86.0251,"country":"India","iso2":"IN","iso3":"IND","admin_name":"Bihār","capital":"","population":8743},{"city":"Nam Som","city_ascii":"Nam Som","lat":17.7694,"lng":102.1435,"country":"Thailand","iso2":"TH","iso3":"THA","admin_name":"Udon Thani","capital":"minor","population":8742},