[{"city":"Tokyo","city_ascii":"Tokyo","lat":35.6897,"lng":139.6922,"country":"Japan","iso2":"JP","iso3":"JPN","admin_name":"Tōkyō","capital":"primary","population":37732000},{"city":"Jakarta","city_ascii":"Jakarta","lat":-6.175,"lng":106.8275,"country":"Indonesia","iso2":"ID","iso3":"IDN","admin_name":"Jakarta","capital":"primary","population":33756000},{"city":"Delhi","city_ascii":"Delhi","lat":28.61,"lng":77.23,"country":"India","iso2":"IN","iso3":"IND","admin_name":"Delhi","capital":"admin","population":32226000},{"city":"Guangzhou","city_ascii":"Guangzhou","lat":23.13,"lng":113.26,"country":"China","iso2":"CN","iso3":"CHN","admin_name":"Guangdong","capital":"admin","population":26940000},{"city":"Mumbai","city_ascii":"Mumbai","lat":19.0761,"lng":72.8775,"country":"India","iso2":"IN","iso3":"IND","admin_name":"Mahārāshtra","capital":"admin","population":24973000},{"city":"Manila","city_ascii":"Manila","lat":14.5958,"lng":120.9772,"country":"Philippines","iso2":"PH","iso3":"PHL","admin_name":"Manila","capital":"primary","population":24922000},{"city":"Shanghai","city_ascii":"Shanghai","lat":31.2286,"lng":121.4747,"country":"China","iso2":"CN","iso3":"CHN","admin_name":"Shanghai","capital":"admin","population":24073000},{"city":"São Paulo","city_ascii":"Sao Paulo","lat":-23.55,"lng":-46.6333,"country":"Brazil","iso2":"BR","iso3":"BRA","admin_name":"São Paulo","capital":"admin","population":23086000},{"city":"Seoul","city_ascii":"Seoul","lat":37.56,"lng":126.99,"country":"Korea, South","iso2":"KR","iso3":"KOR","admin_name":"Seoul","capital":"primary","population":23016000},{"city":"Mexico City","city_ascii":"Mexico City","lat":19.4333,"lng":-99.1333,"country":"Mexico","iso2":"MX","iso3":"MEX","admin_name":"Ciudad de México","capital":"primary","population":21804000},{"city":"Cairo","city_ascii":"Cairo","lat":30.0444,"lng":31.2358,"country":"Egypt","iso2":"EG","iso3":"EGY","admin_name":"Al Qāhirah","capital":"primary","population":20296000},{"city":"New York","city_ascii":"New York","lat":40.6943,"lng":-73.9249,"country":"United States","iso2":"US","iso3":"USA","admin_name":"New York","capital":"","population":18908608},{"city":"Dhaka","city_ascii":"Dhaka","lat":23.7639,"lng":90.3889,"country":"Bangladesh","iso2":"BD","iso3":"BGD","admin_name":"Dhaka","capital":"primary","population":18627000},{"city":"Beijing","city_ascii":"Beijing","lat":39.9067,"lng":116.3975,"country":"China","iso2":"CN","iso3":"CHN","admin_name":"Beijing","capital":"primary","population":18522000},{"city":"Kolkāta","city_ascii":"Kolkata","lat":22.5675,"lng":88.37,"country":"India","iso2":"IN","iso3":"IND","admin_name":"West Bengal","capital":"admin","population":18502000},{"city":"Bangkok","city_ascii":"Bangkok","lat":13.7525,"lng":100.4942,"country":"Thailand","iso2":"TH","iso3":"THA","admin_name":"Krung Thep Maha Nakhon","capital":"primary","population":18007000},{"city":"Shenzhen","city_ascii":"Shenzhen","lat":22.5415,"lng":114.0596,"country":"China","iso2":"CN","iso3":"CHN","admin_name":"Guangdong","capital":"minor","population":17619000},{"city":"Moscow","city_ascii":"Moscow","lat":55.7558,"lng":37.6172,"country":"Russia","iso2":"RU","iso3":"RUS","admin_name":"Moskva","capital":"primary","population":17332000},{"city":"Buenos Aires","city_ascii":"Buenos Aires","lat":-34.6033,"lng":-58.3817,"country":"Argentina","iso2":"AR","iso3":"ARG","admin_name":"Buenos Aires, Ciudad Autónoma de","capital":"primary","population":16710000},{"city":"Lagos","city_ascii":"Lagos","lat":6.455,"lng":3.3841,"country":"Nigeria","iso2":"NG","iso3":"NGA","admin_name":"Lagos","capital":"minor","population":16637000},{"city":"Istanbul","city_ascii":"Istanbul","lat":41.0136,"lng":28.955,"country":"Turkey","iso2":"TR","iso3":"TUR","admin_name":"İstanbul","capital":"admin","population":16079000},{"city":"Karachi","city_ascii":"Karachi","lat":24.86,"lng":67.01,"country":"Pakistan","iso2":"PK","iso3":"PAK","admin_name":"Sindh","capital":"admin","population":15738000},{"city":"Bangalore","city_ascii":"Bangalore","lat":12.9789,"lng":77.5917,"country":"India","iso2":"IN","iso3":"IND","admin_name":"Karnātaka","capital":"admin","population":15386000},{"city":"Ho Chi Minh City","city_ascii":"Ho Chi Minh City","lat":10.7756,"lng":106.7019,"country":"Vietnam","iso2":"VN","iso3":"VNM","admin_name":"Hồ Chí Minh","capital":"admin","population":15136000},{"city":"Ōsaka","city_ascii":"Osaka","lat":34.6939,"lng":135.5022,"country":"Japan","iso2":"JP","iso3":"JPN","admin_name":"Ōsaka","capital":"admin","population":15126000},{"city":"Chengdu","city_ascii":"Chengdu","lat":30.66,"lng":104.0633,"country":"China","iso2":"CN","iso3":"CHN","admin_name":"Sichuan","capital":"admin","population":14645000},{"city":"Tehran","city_ascii":"Tehran","lat":35.6892,"lng":51.3889,"country":"Iran","iso2":"IR","iso3":"IRN","admin_name":"Tehrān","capital":"primary","population":14148000},{"city":"Kinshasa","city_ascii":"Kinshasa","lat":-4.3219,"lng":15.3119,"country":"Congo (Kinshasa)","iso2":"CD","iso3":"COD","admin_name":"Kinshasa","capital":"primary","population":12836000},{"city":"Rio de Janeiro","city_ascii":"Rio de Janeiro","lat":-22.9111,"lng":-43.2056,"country":"Brazil","iso2":"BR","iso3":"BRA","admin_name":"Rio de Janeiro","capital":"admin","population":12592000},{"city":"Chennai","city_ascii":"Chennai","lat":13.0825,"lng":80.275,"country":"India","iso2":"IN","iso3":"IND","admin_name":"Tamil Nādu","capital":"admin","population":12395000},{"city":"Xi’an","city_ascii":"Xi'an","lat":34.2611,"lng":108.9422,"country":"China","iso2":"CN","iso3":"CHN","admin_name":"Shaanxi","capital":"admin","population":12328000},{"city":"Lahore","city_ascii":"Lahore","lat":31.5497,"lng":74.3436,"country":"Pakistan","iso2":"PK","iso3":"PAK","admin_name":"Punjab","capital":"admin","population":12306000},{"city":"Chongqing","city_ascii":"Chongqing","lat":29.5637,"lng":106.5504,"country":"China","iso2":"CN","iso3":"CHN","admin_name":"Chongqing","capital":"admin","population":12135000},{"city":"Los Angeles","city_ascii":"Los Angeles","lat":34.1141,"lng":-118.4068,"country":"United States","iso2":"US","iso3":"USA","admin_name":"California","capital":"","population":11922389},{"city":"Baoding","city_ascii":"Baoding","lat":38.874,"lng":115.464,"country":"China","iso2":"CN","iso3":"CHN","admin_name":"Hebei","capital":"minor","population":11544036},{"city":"London","city_ascii":"London","lat":51.5072,"lng":-0.1275,"country":"United Kingdom","iso2":"GB","iso3":"GBR","admin_name":"London, City of","capital":"primary","population":11262000},{"city":"Paris","city_ascii":"Paris","lat":48.8567,"lng":2.3522,"country":"France","iso2":"FR","iso3":"FRA","admin_name":"Île-de-France","capital":"primary","population":11060000},{"city":"Linyi","city_ascii":"Linyi","lat":35.1038,"lng":118.3564,"country":"China","iso2":"CN","iso3":"CHN","admin_name":"Shandong","capital":"","population":11018365},{"city":"Dongguan","city_ascii":"Dongguan","lat":23.021,"lng":113.752,"country":"China","iso2":"CN","iso3":"CHN","admin_name":"Guangdong","capital":"minor","population":10646000},{"city":"Hyderābād","city_ascii":"Hyderabad","lat":17.3617,"lng":78.4747,"country":"India","iso2":"IN","iso3":"IND","admin_name":"Telangāna","capital":"admin","population":10494000},{"city":"Tianjin","city_ascii":"Tianjin","lat":39.1336,"lng":117.2054,"country":"China","iso2":"CN","iso3":"CHN","admin_name":"Tianjin","capital":"admin","population":10368000},{"city":"Lima","city_ascii":"Lima","lat":-12.06,"lng":-77.0375,"country":"Peru","iso2":"PE","iso3":"PER","admin_name":"Lima","capital":"primary","population":10320000},{"city":"Wuhan","city_ascii":"Wuhan","lat":30.5934,"lng":114.3046,"country":"China","iso2":"CN","iso3":"CHN","admin_name":"Hubei","capital":"admin","population":10251000},{"city":"Nanyang","city_ascii":"Nanyang","lat":32.9987,"lng":112.5292,"country":"China","iso2":"CN","iso3":"CHN","admin_name":"Henan","capital":"","population":9713112},{"city":"Hangzhou","city_ascii":"Hangzhou","lat":30.267,"lng":120.153,"country":"China","iso2":"CN","iso3":"CHN","admin_name":"Zhejiang","capital":"admin","population":9523000},{"city":"Foshan","city_ascii":"Foshan","lat":23.0214,"lng":113.1216,"country":"China","iso2":"CN","iso3":"CHN","admin_name":"Guangdong","capital":"minor","population":9498863},{"city":"Nagoya","city_ascii":"Nagoya","lat":35.1833,"lng":136.9,"country":"Japan","iso2":"JP","iso3":"JPN","admin_name":"Aichi","capital":"admin","population":9197000},{"city":"Tongshan","city_ascii":"Tongshan","lat":34.204,"lng":117.284,"country":"China","iso2":"CN","iso3":"CHN","admin_name":"Jiangsu","capital":"minor","population":9083790},{"city":"Luanda","city_ascii":"Luanda","lat":-8.8383,"lng":13.2344,"country":"Angola","iso2":"AO","iso3":"AGO","admin_name":"Luanda","capital":"primary","population":9051000},{"city":"Zhoukou","city_ascii":"Zhoukou","lat":33.625,"lng":114.6418,"country":"China","iso2":"CN","iso3":"CHN","admin_name":"Henan","capital":"minor","population":9026015},{"city":"Ganzhou","city_ascii":"Ganzhou","lat":25.831,"lng":114.933,"country":"China","iso2":"CN","iso3":"CHN","admin_name":"Jiangxi","capital":"minor","population":8970014},{"city":"Kuala Lumpur","city_ascii":"Kuala Lumpur","lat":3.1478,"lng":101.6953,"country":"Malaysia","iso2":"MY","iso3":"MYS","admin_name":"Kuala Lumpur","capital":"primary","population":8911000},{"city":"Heze","city_ascii":"Heze","lat":35.2343,"lng":115.4796,"country":"China","iso2":"CN","iso3":"CHN","admin_name":"Shandong","capital":"minor","population":8795939},{"city":"Quanzhou","city_ascii":"Quanzhou","lat":24.8744,"lng":118.6757,"country":"China","iso2":"CN","iso3":"CHN","admin_name":"Fujian","capital":"minor","population":8782285},{"city":"Johannesburg","city_ascii":"Johannesburg","lat":-26.2044,"lng":28.0456,"country":"South Africa","iso2":"ZA","iso3":"ZAF","admin_name":"Gauteng","capital":"admin","population":8500000},{"city":"Chicago","city_ascii":"Chicago","lat":41.8375,"lng":-87.6866,"country":"United States","iso2":"US","iso3":"USA","admin_name":"Illinois","capital":"","population":8497759},{"city":"Nanjing","city_ascii":"Nanjing","lat":32.0608,"lng":118.7789,"country":"China","iso2":"CN","iso3":"CHN","admin_name":"Jiangsu","capital":"admin","population":8422000},{"city":"Jining","city_ascii":"Jining","lat":35.4151,"lng":116.5871,"country":"China","iso2":"CN","iso3":"CHN","admin_name":"Shandong","capital":"","population":8357897},{"city":"Hanoi","city_ascii":"Hanoi","lat":21,"lng":105.85,"country":"Vietnam","iso2":"VN","iso3":"VNM","admin_name":"Hà Nội","capital":"primary","population":8246600},{"city":"Pune","city_ascii":"Pune","lat":18.5203,"lng":73.8567,"country":"India","iso2":"IN","iso3":"IND","admin_name":"Mahārāshtra","capital":"","population":8231000},{"city":"Fuyang","city_ascii":"Fuyang","lat":32.89,"lng":115.814,"country":"China","iso2":"CN","iso3":"CHN","admin_name":"Anhui","capital":"","population":8200264},{"city":"Ahmedabad","city_ascii":"Ahmedabad","lat":23.0225,"lng":72.5714,"country":"India","iso2":"IN","iso3":"IND","admin_name":"Gujarāt","capital":"minor","population":8009000},{"city":"Bogotá","city_ascii":"Bogota","lat":4.7111,"lng":-74.0722,"country":"Colombia","iso2":"CO","iso3":"COL","admin_name":"Bogotá","capital":"primary","population":7968095},{"city":"Shenyang","city_ascii":"Shenyang","lat":41.8025,"lng":123.4281,"country":"China","iso2":"CN","iso3":"CHN","admin_name":"Liaoning","capital":"admin","population":7964000},{"city":"Dar es Salaam","city_ascii":"Dar es Salaam","lat":-6.8161,"lng":39.2803,"country":"Tanzania","iso2":"TZ","iso3":"TZA","admin_name":"Dar es Salaam","capital":"admin","population":7962000},{"city":"Khartoum","city_ascii":"Khartoum","lat":15.6,"lng":32.5,"country":"Sudan","iso2":"SD","iso3":"SDN","admin_name":"Khartoum","capital":"primary","population":7869000},{"city":"Shangqiu","city_ascii":"Shangqiu","lat":34.415,"lng":115.656,"country":"China","iso2":"CN","iso3":"CHN","admin_name":"Henan","capital":"","population":7816831},{"city":"Hong Kong","city_ascii":"Hong Kong","lat":22.3,"lng":114.2,"country":"Hong Kong","iso2":"HK","iso3":"HKG","admin_name":"","capital":"primary","population":7450000},{"city":"Cangzhou","city_ascii":"Cangzhou","lat":38.3047,"lng":116.8387,"country":"China","iso2":"CN","iso3":"CHN","admin_name":"Hebei","capital":"minor","population":7300783},{"city":"Riyadh","city_ascii":"Riyadh","lat":24.6333,"lng":46.7167,"country":"Saudi Arabia","iso2":"SA","iso3":"SAU","admin_name":"Ar Riyāḑ","capital":"primary","population":7237000},{"city":"Santiago","city_ascii":"Santiago","lat":-33.4372,"lng":-70.6506,"country":"Chile","iso2":"CL","iso3":"CHL","admin_name":"Región Metropolitana","capital":"primary","population":7171000},{"city":"Xingtai","city_ascii":"Xingtai","lat":37.0717,"lng":114.5048,"country":"China","iso2":"CN","iso3":"CHN","admin_name":"Hebei","capital":"","population":7111106},{"city":"Zhumadian","city_ascii":"Zhumadian","lat":33.014,"lng":114.022,"country":"China","iso2":"CN","iso3":"CHN","admin_name":"Henan","capital":"","population":7008427},{"city":"Chattogram","city_ascii":"Chattogram","lat":22.335,"lng":91.8325,"country":"Bangladesh","iso2":"BD","iso3":"BGD","admin_name":"Chattogram","capital":"admin","population":7000000},{"city":"Surabaya","city_ascii":"Surabaya","lat":-7.2458,"lng":112.7378,"country":"Indonesia","iso2":"ID","iso3":"IDN","admin_name":"Jawa Timur","capital":"admin","population":6998000},{"city":"Zhanjiang","city_ascii":"Zhanjiang","lat":21.2701,"lng":110.3575,"country":"China","iso2":"CN","iso3":"CHN","admin_name":"Guangdong","capital":"minor","population":6981236},{"city":"Bijie","city_ascii":"Bijie","lat":27.284,"lng":105.292,"country":"China","iso2":"CN","iso3":"CHN","admin_name":"Guizhou","capital":"","population":6899636},{"city":"Yancheng","city_ascii":"Yancheng","lat":33.3482,"lng":120.1626,"country":"China","iso2":"CN","iso3":"CHN","admin_name":"Jiangsu","capital":"minor","population":6709629},{"city":"Hengyang","city_ascii":"Hengyang","lat":26.894,"lng":112.572,"country":"China","iso2":"CN","iso3":"CHN","admin_name":"Hunan","capital":"","population":6645243},{"city":"Zunyi","city_ascii":"Zunyi","lat":27.722,"lng":107.031,"country":"China","iso2":"CN","iso3":"CHN","admin_name":"Guizhou","capital":"","population":6606675},{"city":"Shaoyang","city_ascii":"Shaoyang","lat":27.2395,"lng":111.4679,"country":"China","iso2":"CN","iso3":"CHN","admin_name":"Hunan","capital":"","population":6563520},{"city":"Sūrat","city_ascii":"Surat","lat":21.1702,"lng":72.8311,"country":"India","iso2":"IN","iso3":"IND","admin_name":"Gujarāt","capital":"","population":6538000},{"city":"Shangrao","city_ascii":"Shangrao","lat":28.4551,"lng":117.9431,"country":"China","iso2":"CN","iso3":"CHN","admin_name":"Jiangxi","capital":"minor","population":6435300},{"city":"Xinyang","city_ascii":"Xinyang","lat":32.149,"lng":114.091,"country":"China","iso2":"CN","iso3":"CHN","admin_name":"Henan","capital":"","population":6234401},{"city":"Madrid","city_ascii":"Madrid","lat":40.4169,"lng":-3.7033,"country":"Spain","iso2":"ES","iso3":"ESP","admin_name":"Madrid","capital":"primary","population":6211000},{"city":"Baghdad","city_ascii":"Baghdad","lat":33.3153,"lng":44.3661,"country":"Iraq","iso2":"IQ","iso3":"IRQ","admin_name":"Baghdād","capital":"primary","population":6183000},{"city":"Maoming","city_ascii":"Maoming","lat":21.6627,"lng":110.9255,"country":"China","iso2":"CN","iso3":"CHN","admin_name":"Guangdong","capital":"minor","population":6174050},{"city":"Jieyang","city_ascii":"Jieyang","lat":23.551,"lng":116.3727,"country":"China","iso2":"CN","iso3":"CHN","admin_name":"Guangdong","capital":"minor","population":6089400},{"city":"Miami","city_ascii":"Miami","lat":25.784,"lng":-80.2101,"country":"United States","iso2":"US","iso3":"USA","admin_name":"Florida","capital":"","population":6080145},{"city":"Singapore","city_ascii":"Singapore","lat":1.3,"lng":103.8,"country":"Singapore","iso2":"SG","iso3":"SGP","admin_name":"","capital":"primary","population":5983000},{"city":"Houston","city_ascii":"Houston","lat":29.786,"lng":-95.3885,"country":"United States","iso2":"US","iso3":"USA","admin_name":"Texas","capital":"","population":5970127},{"city":"Liaocheng","city_ascii":"Liaocheng","lat":36.4559,"lng":115.9852,"country":"China","iso2":"CN","iso3":"CHN","admin_name":"Shandong","capital":"minor","population":5952128},{"city":"Huanggang","city_ascii":"Huanggang","lat":30.4537,"lng":114.8724,"country":"China","iso2":"CN","iso3":"CHN","admin_name":"Hubei","capital":"minor","population":5882719},{"city":"Dalian","city_ascii":"Dalian","lat":38.9,"lng":121.6,"country":"China","iso2":"CN","iso3":"CHN","admin_name":"Liaoning","capital":"","population":5871474},{"city":"Dallas","city_ascii":"Dallas","lat":32.7935,"lng":-96.7667,"country":"United States","iso2":"US","iso3":"USA","admin_name":"Texas","capital":"","population":5830932},{"city":"Qingdao","city_ascii":"Qingdao","lat":36.0669,"lng":120.3827,"country":"China","iso2":"CN","iso3":"CHN","admin_name":"Shandong","capital":"minor","population":5818255},{"city":"Yulin","city_ascii":"Yulin","lat":22.654,"lng":110.181,"country":"China","iso2":"CN","iso3":"CHN","admin_name":"Guangxi","capital":"minor","population":5796766},{"city":"Douala","city_ascii":"Douala","lat":4.05,"lng":9.7,"country":"Cameroon","iso2":"CM","iso3":"CMR","admin_name":"Littoral","capital":"admin","population":5768400},{"city":"Qujing","city_ascii":"Qujing","lat":25.491,"lng":103.796,"country":"China","iso2":"CN","iso3":"CHN","admin_name":"Yunnan","capital":"","population":5765775},{"city":"Nangandao","city_ascii":"Nangandao","lat":35.3036,"lng":113.9268,"country":"China","iso2":"CN","iso3":"CHN","admin_name":"Henan","capital":"minor","population":5708191},{"city":"Philadelphia","city_ascii":"Philadelphia","lat":40.0077,"lng":-75.1339,"country":"United States","iso2":"US","iso3":"USA","admin_name":"Pennsylvania","capital":"","population":5683533},{"city":"Pudong","city_ascii":"Pudong","lat":31.2347,"lng":121.5064,"country":"China","iso2":"CN","iso3":"CHN","admin_name":"Shanghai","capital":"minor","population":5681512},{"city":"Toronto","city_ascii":"Toronto","lat":43.7417,"lng":-79.3733,"country":"Canada","iso2":"CA","iso3":"CAN","admin_name":"Ontario","capital":"admin","population":5647656},{"city":"Zhengzhou","city_ascii":"Zhengzhou","lat":34.764,"lng":113.684,"country":"China","iso2":"CN","iso3":"CHN","admin_name":"Henan","capital":"admin","population":5621593},{"city":"Dezhou","city_ascii":"Dezhou","lat":37.436,"lng":116.359,"country":"China","iso2":"CN","iso3":"CHN","admin_name":"Shandong","capital":"minor","population":5611194},{"city":"Nanchong","city_ascii":"Nanchong","lat":30.8372,"lng":106.1106,"country":"China","iso2":"CN","iso3":"CHN","admin_name":"Sichuan","capital":"minor","population":5607565},{"city":"Jinan","city_ascii":"Jinan","lat":36.6702,"lng":117.0207,"country":"China","iso2":"CN","iso3":"CHN","admin_name":"Shandong","capital":"admin","population":5606374},{"city":"Giza","city_ascii":"Giza","lat":29.987,"lng":31.2118,"country":"Egypt","iso2":"EG","iso3":"EGY","admin_name":"Al Jīzah","capital":"admin","population":5598402},{"city":"Nairobi","city_ascii":"Nairobi","lat":-1.2864,"lng":36.8172,"country":"Kenya","iso2":"KE","iso3":"KEN","admin_name":"Nairobi City","capital":"primary","population":5545000},{"city":"Guadalajara","city_ascii":"Guadalajara","lat":20.6767,"lng":-103.3475,"country":"Mexico","iso2":"MX","iso3":"MEX","admin_name":"Jalisco","capital":"admin","population":5525000},{"city":"Ankara","city_ascii":"Ankara","lat":39.93,"lng":32.85,"country":"Turkey","iso2":"TR","iso3":"TUR","admin_name":"Ankara","capital":"primary","population":5503985},{"city":"Tai’an","city_ascii":"Tai'an","lat":36.202,"lng":117.087,"country":"China","iso2":"CN","iso3":"CHN","admin_name":"Shandong","capital":"","population":5472217},{"city":"Langfang","city_ascii":"Langfang","lat":39.5383,"lng":116.6835,"country":"China","iso2":"CN","iso3":"CHN","admin_name":"Hebei","capital":"minor","population":5464087},{"city":"Dazhou","city_ascii":"Dazhou","lat":31.2093,"lng":107.4678,"country":"China","iso2":"CN","iso3":"CHN","admin_name":"Sichuan","capital":"minor","population":5385422},{"city":"Saint Petersburg","city_ascii":"Saint Petersburg","lat":59.9375,"lng":30.3086,"country":"Russia","iso2":"RU","iso3":"RUS","admin_name":"Sankt-Peterburg","capital":"admin","population":5384342},{"city":"Monterrey","city_ascii":"Monterrey","lat":25.6667,"lng":-100.3,"country":"Mexico","iso2":"MX","iso3":"MEX","admin_name":"Nuevo León","capital":"admin","population":5341171},{"city":"Belo Horizonte","city_ascii":"Belo Horizonte","lat":-19.9167,"lng":-43.9333,"country":"Brazil","iso2":"BR","iso3":"BRA","admin_name":"Minas Gerais","capital":"admin","population":5328000},{"city":"Suzhou","city_ascii":"Suzhou","lat":33.6333,"lng":116.9683,"country":"China","iso2":"CN","iso3":"CHN","admin_name":"Anhui","capital":"","population":5324476},{"city":"Yongzhou","city_ascii":"Yongzhou","lat":26.42,"lng":111.613,"country":"China","iso2":"CN","iso3":"CHN","admin_name":"Hunan","capital":"","population":5289824},{"city":"Changde","city_ascii":"Changde","lat":29.031,"lng":111.699,"country":"China","iso2":"CN","iso3":"CHN","admin_name":"Hunan","capital":"minor","population":5279102},{"city":"Xiangyang","city_ascii":"Xiangyang","lat":32.01,"lng":112.122,"country":"China","iso2":"CN","iso3":"CHN","admin_name":"Hubei","capital":"minor","population":5260951},{"city":"Rangoon","city_ascii":"Rangoon","lat":16.795,"lng":96.16,"country":"Burma","iso2":"MM","iso3":"MMR","admin_name":"Yangon","capital":"primary","population":5209541},{"city":"Atlanta","city_ascii":"Atlanta","lat":33.7628,"lng":-84.422,"country":"United States","iso2":"US","iso3":"USA","admin_name":"Georgia","capital":"admin","population":5180179},{"city":"Washington","city_ascii":"Washington","lat":38.9047,"lng":-77.0163,"country":"United States","iso2":"US","iso3":"USA","admin_name":"District of Columbia","capital":"primary","population":5116378},{"city":"Zhaotong","city_ascii":"Zhaotong","lat":27.338,"lng":103.717,"country":"China","iso2":"CN","iso3":"CHN","admin_name":"Yunnan","capital":"","population":5092611},{"city":"Zhangzhou","city_ascii":"Zhangzhou","lat":24.513,"lng":117.647,"country":"China","iso2":"CN","iso3":"CHN","admin_name":"Fujian","capital":"minor","population":5054328},{"city":"Melbourne","city_ascii":"Melbourne","lat":-37.8142,"lng":144.9631,"country":"Australia","iso2":"AU","iso3":"AUS","admin_name":"Victoria","capital":"admin","population":5031195},{"city":"Yichun","city_ascii":"Yichun","lat":27.816,"lng":114.417,"country":"China","iso2":"CN","iso3":"CHN","admin_name":"Jiangxi","capital":"minor","population":5007702},{"city":"Bozhou","city_ascii":"Bozhou","lat":33.8626,"lng":115.7742,"country":"China","iso2":"CN","iso3":"CHN","admin_name":"Anhui","capital":"","population":4996844},{"city":"Suqian","city_ascii":"Suqian","lat":33.9331,"lng":118.2831,"country":"China","iso2":"CN","iso3":"CHN","admin_name":"Jiangsu","capital":"","population":4986192},{"city":"Abidjan","city_ascii":"Abidjan","lat":5.3167,"lng":-4.0333,"country":"Côte d’Ivoire","iso2":"CI","iso3":"CIV","admin_name":"Abidjan","capital":"primary","population":4980000},{"city":"Ji’an","city_ascii":"Ji'an","lat":27.0912,"lng":114.9668,"country":"China","iso2":"CN","iso3":"CHN","admin_name":"Jiangxi","capital":"minor","population":4956600},{"city":"Guilin","city_ascii":"Guilin","lat":25.275,"lng":110.296,"country":"China","iso2":"CN","iso3":"CHN","admin_name":"Guangxi","capital":"minor","population":4931137},{"city":"Pingdingshan","city_ascii":"Pingdingshan","lat":33.735,"lng":113.2999,"country":"China","iso2":"CN","iso3":"CHN","admin_name":"Henan","capital":"","population":4904701},{"city":"Berlin","city_ascii":"Berlin","lat":52.52,"lng":13.405,"country":"Germany","iso2":"DE","iso3":"DEU","admin_name":"Berlin","capital":"primary","population":4890363},{"city":"Alexandria","city_ascii":"Alexandria","lat":31.1975,"lng":29.8925,"country":"Egypt","iso2":"EG","iso3":"EGY","admin_name":"Al Iskandarīyah","capital":"admin","population":4870000},{"city":"Mianyang","city_ascii":"Mianyang","lat":31.468,"lng":104.679,"country":"China","iso2":"CN","iso3":"CHN","admin_name":"Sichuan","capital":"minor","population":4868243},{"city":"Sydney","city_ascii":"Sydney","lat":-33.8678,"lng":151.21,"country":"Australia","iso2":"AU","iso3":"AUS","admin_name":"New South Wales","capital":"admin","population":4840600},{"city":"Huanglongsi","city_ascii":"Huanglongsi","lat":34.795,"lng":114.345,"country":"China","iso2":"CN","iso3":"CHN","admin_name":"Henan","capital":"","population":4824016},{"city":"Barcelona","city_ascii":"Barcelona","lat":41.3828,"lng":2.1769,"country":"Spain","iso2":"ES","iso3":"ESP","admin_name":"Catalonia","capital":"admin","population":4800000},{"city":"Yuncheng","city_ascii":"Yuncheng","lat":35.0267,"lng":111.007,"country":"China","iso2":"CN","iso3":"CHN","admin_name":"Shanxi","capital":"","population":4774508},{"city":"Cape Town","city_ascii":"Cape Town","lat":-33.9253,"lng":18.4239,"country":"South Africa","iso2":"ZA","iso3":"ZAF","admin_name":"Western Cape","capital":"primary","population":4770313},{"city":"Changsha","city_ascii":"Changsha","lat":28.228,"lng":112.939,"country":"China","iso2":"CN","iso3":"CHN","admin_name":"Hunan","capital":"admin","population":4766296},{"city":"Jeddah","city_ascii":"Jeddah","lat":21.5433,"lng":39.1728,"country":"Saudi Arabia","iso2":"SA","iso3":"SAU","admin_name":"Makkah al Mukarramah","capital":"","population":4697000},{"city":"Weinan","city_ascii":"Weinan","lat":34.5206,"lng":109.471,"country":"China","iso2":"CN","iso3":"CHN","admin_name":"Shaanxi","capital":"minor","population":4688744},{"city":"Chenzhou","city_ascii":"Chenzhou","lat":25.77,"lng":113.016,"country":"China","iso2":"CN","iso3":"CHN","admin_name":"Hunan","capital":"minor","population":4667134},{"city":"Jiangmen","city_ascii":"Jiangmen","lat":22.5789,"lng":113.0815,"country":"China","iso2":"CN","iso3":"CHN","admin_name":"Guangdong","capital":"minor","population":4630300},{"city":"Jiujiang","city_ascii":"Jiujiang","lat":29.661,"lng":115.954,"country":"China","iso2":"CN","iso3":"CHN","admin_name":"Jiangxi","capital":"minor","population":4600276},{"city":"Xinpu","city_ascii":"Xinpu","lat":34.5966,"lng":119.2214,"country":"China","iso2":"CN","iso3":"CHN","admin_name":"Jiangsu","capital":"minor","population":4599360},{"city":"Yibin","city_ascii":"Yibin","lat":28.752,"lng":104.643,"country":"China","iso2":"CN","iso3":"CHN","admin_name":"Sichuan","capital":"minor","population":4588804},{"city":"Huaihua","city_ascii":"Huaihua","lat":27.5698,"lng":110.0016,"country":"China","iso2":"CN","iso3":"CHN","admin_name":"Hunan","capital":"","population":4587594},{"city":"Yangzhou","city_ascii":"Yangzhou","lat":32.3912,"lng":119.4363,"country":"China","iso2":"CN","iso3":"CHN","admin_name":"Jiangsu","capital":"","population":4559797},{"city":"Taizhou","city_ascii":"Taizhou","lat":32.4567,"lng":119.9229,"country":"China","iso2":"CN","iso3":"CHN","admin_name":"Jiangsu","capital":"minor","population":4512762},{"city":"Kunming","city_ascii":"Kunming","lat":25.0464,"lng":102.7094,"country":"China","iso2":"CN","iso3":"CHN","admin_name":"Yunnan","capital":"admin","population":4422686},{"city":"Yiyang","city_ascii":"Yiyang","lat":28.5549,"lng":112.356,"country":"China","iso2":"CN","iso3":"CHN","admin_name":"Hunan","capital":"","population":4413800},{"city":"Changchun","city_ascii":"Changchun","lat":43.897,"lng":125.326,"country":"China","iso2":"CN","iso3":"CHN","admin_name":"Jilin","capital":"admin","population":4408154},{"city":"Lu’an","city_ascii":"Lu'an","lat":31.736,"lng":116.52,"country":"China","iso2":"CN","iso3":"CHN","admin_name":"Anhui","capital":"minor","population":4393699},{"city":"Jiangguanchi","city_ascii":"Jiangguanchi","lat":34.0244,"lng":113.8201,"country":"China","iso2":"CN","iso3":"CHN","admin_name":"Henan","capital":"minor","population":4379998},{"city":"Meizhou","city_ascii":"Meizhou","lat":24.289,"lng":116.122,"country":"China","iso2":"CN","iso3":"CHN","admin_name":"Guangdong","capital":"minor","population":4378800},{"city":"Ürümqi","city_ascii":"Urumqi","lat":43.8225,"lng":87.6125,"country":"China","iso2":"CN","iso3":"CHN","admin_name":"Xinjiang","capital":"admin","population":4335017},{"city":"Suzhou","city_ascii":"Suzhou","lat":31.3,"lng":120.6194,"country":"China","iso2":"CN","iso3":"CHN","admin_name":"Jiangsu","capital":"minor","population":4330000},{"city":"Boston","city_ascii":"Boston","lat":42.3188,"lng":-71.0852,"country":"United States","iso2":"US","iso3":"USA","admin_name":"Massachusetts","capital":"admin","population":4328315},{"city":"İzmir","city_ascii":"Izmir","lat":38.42,"lng":27.14,"country":"Turkey","iso2":"TR","iso3":"TUR","admin_name":"İzmir","capital":"admin","population":4320519},{"city":"Guigang","city_ascii":"Guigang","lat":23.112,"lng":109.599,"country":"China","iso2":"CN","iso3":"CHN","admin_name":"Guangxi","capital":"minor","population":4316262},{"city":"Shantou","city_ascii":"Shantou","lat":23.354,"lng":116.682,"country":"China","iso2":"CN","iso3":"CHN","admin_name":"Guangdong","capital":"minor","population":4312192},{"city":"Kabul","city_ascii":"Kabul","lat":34.5253,"lng":69.1783,"country":"Afghanistan","iso2":"AF","iso3":"AFG","admin_name":"Kābul","capital":"primary","population":4273156},{"city":"Xiaoganzhan","city_ascii":"Xiaoganzhan","lat":30.918,"lng":113.957,"country":"China","iso2":"CN","iso3":"CHN","admin_name":"Hubei","capital":"","population":4270371},{"city":"Bamako","city_ascii":"Bamako","lat":12.6392,"lng":-8.0028,"country":"Mali","iso2":"ML","iso3":"MLI","admin_name":"Bamako","capital":"primary","population":4227569},{"city":"Luzhou","city_ascii":"Luzhou","lat":28.871,"lng":105.442,"country":"China","iso2":"CN","iso3":"CHN","admin_name":"Sichuan","capital":"minor","population":4218427},{"city":"Hefei","city_ascii":"Hefei","lat":31.8206,"lng":117.2273,"country":"China","iso2":"CN","iso3":"CHN","admin_name":"Anhui","capital":"admin","population":4216940},{"city":"Hengshui","city_ascii":"Hengshui","lat":37.739,"lng":115.669,"country":"China","iso2":"CN","iso3":"CHN","admin_name":"Hebei","capital":"minor","population":4212933},{"city":"Fortaleza","city_ascii":"Fortaleza","lat":-3.7275,"lng":-38.5275,"country":"Brazil","iso2":"BR","iso3":"BRA","admin_name":"Ceará","capital":"admin","population":4167996},{"city":"Anqing","city_ascii":"Anqing","lat":30.5318,"lng":117.1153,"country":"China","iso2":"CN","iso3":"CHN","admin_name":"Anhui","capital":"minor","population":4165284},{"city":"Liuzhou","city_ascii":"Liuzhou","lat":24.3264,"lng":109.4281,"country":"China","iso2":"CN","iso3":"CHN","admin_name":"Guangxi","capital":"minor","population":4157934},{"city":"Zhangjiakou","city_ascii":"Zhangjiakou","lat":40.769,"lng":114.886,"country":"China","iso2":"CN","iso3":"CHN","admin_name":"Hebei","capital":"minor","population":4118908},{"city":"Zhaoqing","city_ascii":"Zhaoqing","lat":23.05,"lng":112.4667,"country":"China","iso2":"CN","iso3":"CHN","admin_name":"Guangdong","capital":"minor","population":4113594},{"city":"Shijiazhuang","city_ascii":"Shijiazhuang","lat":38.0425,"lng":114.51,"country":"China","iso2":"CN","iso3":"CHN","admin_name":"Hebei","capital":"admin","population":4098243},{"city":"Ningbo","city_ascii":"Ningbo","lat":29.8603,"lng":121.6245,"country":"China","iso2":"CN","iso3":"CHN","admin_name":"Zhejiang","capital":"minor","population":4087523},{"city":"Qiqihar","city_ascii":"Qiqihar","lat":47.3549,"lng":123.9182,"country":"China","iso2":"CN","iso3":"CHN","admin_name":"Heilongjiang","capital":"minor","population":4067489},{"city":"Phoenix","city_ascii":"Phoenix","lat":33.5722,"lng":-112.0892,"country":"United States","iso2":"US","iso3":"USA","admin_name":"Arizona","capital":"admin","population":4064275},{"city":"Fuzhou","city_ascii":"Fuzhou","lat":27.949,"lng":116.358,"country":"China","iso2":"CN","iso3":"CHN","admin_name":"Jiangxi","capital":"","population":4047200},{"city":"Chifeng","city_ascii":"Chifeng","lat":42.257,"lng":118.888,"country":"China","iso2":"CN","iso3":"CHN","admin_name":"Inner Mongolia","capital":"minor","population":4035967},{"city":"Xiaoxita","city_ascii":"Xiaoxita","lat":30.692,"lng":111.287,"country":"China","iso2":"CN","iso3":"CHN","admin_name":"Hubei","capital":"minor","population":4017607},{"city":"Amman","city_ascii":"Amman","lat":31.9497,"lng":35.9328,"country":"Jordan","iso2":"JO","iso3":"JOR","admin_name":"Al ‘Āşimah","capital":"primary","population":4007526},{"city":"Chuzhou","city_ascii":"Chuzhou","lat":32.256,"lng":118.333,"country":"China","iso2":"CN","iso3":"CHN","admin_name":"Anhui","capital":"","population":3987054},{"city":"Linfen","city_ascii":"Linfen","lat":36.088,"lng":111.519,"country":"China","iso2":"CN","iso3":"CHN","admin_name":"Shanxi","capital":"","population":3976481},{"city":"Qingyuan","city_ascii":"Qingyuan","lat":23.682,"lng":113.056,"country":"China","iso2":"CN","iso3":"CHN","admin_name":"Guangdong","capital":"minor","population":3969473},{"city":"Xianyang","city_ascii":"Xianyang","lat":34.3299,"lng":108.7088,"country":"China","iso2":"CN","iso3":"CHN","admin_name":"Shaanxi","capital":"minor","population":3959842},{"city":"Loudi","city_ascii":"Loudi","lat":27.6998,"lng":111.9944,"country":"China","iso2":"CN","iso3":"CHN","admin_name":"Hunan","capital":"","population":3931800},{"city":"Binzhou","city_ascii":"Binzhou","lat":37.383,"lng":117.971,"country":"China","iso2":"CN","iso3":"CHN","admin_name":"Shandong","capital":"","population":3928568},{"city":"Zhuzhou","city_ascii":"Zhuzhou","lat":27.829,"lng":113.133,"country":"China","iso2":"CN","iso3":"CHN","admin_name":"Hunan","capital":"minor","population":3902738},{"city":"Taiyuan","city_ascii":"Taiyuan","lat":37.8704,"lng":112.5497,"country":"China","iso2":"CN","iso3":"CHN","admin_name":"Shanxi","capital":"admin","population":3875053},{"city":"Nanning","city_ascii":"Nanning","lat":22.8167,"lng":108.3275,"country":"China","iso2":"CN","iso3":"CHN","admin_name":"Guangxi","capital":"admin","population":3837978},{"city":"Harbin","city_ascii":"Harbin","lat":45.7576,"lng":126.6409,"country":"China","iso2":"CN","iso3":"CHN","admin_name":"Heilongjiang","capital":"admin","population":3830000},{"city":"Abuja","city_ascii":"Abuja","lat":9.0667,"lng":7.4833,"country":"Nigeria","iso2":"NG","iso3":"NGA","admin_name":"Federal Capital Territory","capital":"primary","population":3770000},{"city":"Yokohama","city_ascii":"Yokohama","lat":35.4442,"lng":139.6381,"country":"Japan","iso2":"JP","iso3":"JPN","admin_name":"Kanagawa","capital":"admin","population":3757630},{"city":"Suihua","city_ascii":"Suihua","lat":46.654,"lng":126.969,"country":"China","iso2":"CN","iso3":"CHN","admin_name":"Heilongjiang","capital":"minor","population":3756167},{"city":"Zaozhuang","city_ascii":"Zaozhuang","lat":34.8109,"lng":117.3238,"country":"China","iso2":"CN","iso3":"CHN","admin_name":"Shandong","capital":"","population":3729140},{"city":"Detroit","city_ascii":"Detroit","lat":42.3834,"lng":-83.1024,"country":"United States","iso2":"US","iso3":"USA","admin_name":"Michigan","capital":"","population":3725908},{"city":"Xiamen","city_ascii":"Xiamen","lat":24.4796,"lng":118.0889,"country":"China","iso2":"CN","iso3":"CHN","admin_name":"Fujian","capital":"minor","population":3707090},{"city":"Neijiang","city_ascii":"Neijiang","lat":29.5802,"lng":105.058,"country":"China","iso2":"CN","iso3":"CHN","admin_name":"Sichuan","capital":"minor","population":3702847},{"city":"Montréal","city_ascii":"Montreal","lat":45.5089,"lng":-73.5617,"country":"Canada","iso2":"CA","iso3":"CAN","admin_name":"Quebec","capital":"","population":3675219},{"city":"Fuzhou","city_ascii":"Fuzhou","lat":26.0743,"lng":119.2964,"country":"China","iso2":"CN","iso3":"CHN","admin_name":"Fujian","capital":"admin","population":3671192},{"city":"Baicheng","city_ascii":"Baicheng","lat":23.903,"lng":106.619,"country":"China","iso2":"CN","iso3":"CHN","admin_name":"Guangxi","capital":"minor","population":3669400},{"city":"Wuhu","city_ascii":"Wuhu","lat":31.3526,"lng":118.4331,"country":"China","iso2":"CN","iso3":"CHN","admin_name":"Anhui","capital":"minor","population":3644420},{"city":"Yulinshi","city_ascii":"Yulinshi","lat":38.2858,"lng":109.7341,"country":"China","iso2":"CN","iso3":"CHN","admin_name":"Shaanxi","capital":"","population":3634750},{"city":"Medan","city_ascii":"Medan","lat":3.5894,"lng":98.6739,"country":"Indonesia","iso2":"ID","iso3":"IDN","admin_name":"Sumatera Utara","capital":"admin","population":3632000},{"city":"Wenzhou","city_ascii":"Wenzhou","lat":27.9938,"lng":120.6993,"country":"China","iso2":"CN","iso3":"CHN","admin_name":"Zhejiang","capital":"","population":3604446},{"city":"Changzhou","city_ascii":"Changzhou","lat":31.811,"lng":119.974,"country":"China","iso2":"CN","iso3":"CHN","admin_name":"Jiangsu","capital":"minor","population":3601079},{"city":"Puyang","city_ascii":"Puyang","lat":35.7627,"lng":115.0292,"country":"China","iso2":"CN","iso3":"CHN","admin_name":"Henan","capital":"minor","population":3598740},{"city":"Jiaozuo","city_ascii":"Jiaozuo","lat":35.2157,"lng":113.2419,"country":"China","iso2":"CN","iso3":"CHN","admin_name":"Henan","capital":"","population":3590700},{"city":"Nanchang","city_ascii":"Nanchang","lat":28.683,"lng":115.858,"country":"China","iso2":"CN","iso3":"CHN","admin_name":"Jiangxi","capital":"admin","population":3576547},{"city":"Seattle","city_ascii":"Seattle","lat":47.6211,"lng":-122.3244,"country":"United States","iso2":"US","iso3":"USA","admin_name":"Washington","capital":"","population":3561397},{"city":"Ibadan","city_ascii":"Ibadan","lat":7.3964,"lng":3.9167,"country":"Nigeria","iso2":"NG","iso3":"NGA","admin_name":"Oyo","capital":"admin","population":3552000},{"city":"Casablanca","city_ascii":"Casablanca","lat":33.5333,"lng":-7.5833,"country":"Morocco","iso2":"MA","iso3":"MAR","admin_name":"Casablanca-Settat","capital":"admin","population":3499000},{"city":"Kumasi","city_ascii":"Kumasi","lat":6.7,"lng":-1.625,"country":"Ghana","iso2":"GH","iso3":"GHA","admin_name":"Ashanti","capital":"admin","population":3490030},{"city":"Deyang","city_ascii":"Deyang","lat":31.127,"lng":104.398,"country":"China","iso2":"CN","iso3":"CHN","admin_name":"Sichuan","capital":"minor","population":3456161},{"city":"Busan","city_ascii":"Busan","lat":35.18,"lng":129.075,"country":"Korea, South","iso2":"KR","iso3":"KOR","admin_name":"Busan","capital":"admin","population":3453198},{"city":"Hohhot","city_ascii":"Hohhot","lat":40.842,"lng":111.749,"country":"China","iso2":"CN","iso3":"CHN","admin_name":"Inner Mongolia","capital":"admin","population":3446100},{"city":"Hechi","city_ascii":"Hechi","lat":24.693,"lng":108.085,"country":"China","iso2":"CN","iso3":"CHN","admin_name":"Guangxi","capital":"minor","population":3417945},{"city":"Algiers","city_ascii":"Algiers","lat":36.7539,"lng":3.0589,"country":"Algeria","iso2":"DZ","iso3":"DZA","admin_name":"Alger","capital":"primary","population":3415811},{"city":"Tangshan","city_ascii":"Tangshan","lat":39.6294,"lng":118.1739,"country":"China","iso2":"CN","iso3":"CHN","admin_name":"Hebei","capital":"","population":3399231},{"city":"Shiyan","city_ascii":"Shiyan","lat":32.629,"lng":110.7987,"country":"China","iso2":"CN","iso3":"CHN","admin_name":"Hubei","capital":"minor","population":3398000},{"city":"Lucknow","city_ascii":"Lucknow","lat":26.85,"lng":80.95,"country":"India","iso2":"IN","iso3":"IND","admin_name":"Uttar Pradesh","capital":"admin","population":3382000},{"city":"Mashhad","city_ascii":"Mashhad","lat":36.3264,"lng":59.5433,"country":"Iran","iso2":"IR","iso3":"IRN","admin_name":"Khorāsān-e Raẕavī","capital":"admin","population":3372090},{"city":"San Francisco","city_ascii":"San Francisco","lat":37.7558,"lng":-122.4449,"country":"United States","iso2":"US","iso3":"USA","admin_name":"California","capital":"","population":3364979},{"city":"Boankra","city_ascii":"Boankra","lat":6.6944,"lng":-1.4028,"country":"Ghana","iso2":"GH","iso3":"GHA","admin_name":"Ashanti","capital":"","population":3348000},{"city":"Dubai","city_ascii":"Dubai","lat":25.2631,"lng":55.2972,"country":"United Arab Emirates","iso2":"AE","iso3":"ARE","admin_name":"Dubayy","capital":"admin","population":3331420},{"city":"Anshan","city_ascii":"Anshan","lat":41.108,"lng":122.994,"country":"China","iso2":"CN","iso3":"CHN","admin_name":"Liaoning","capital":"","population":3325372},{"city":"Baojishi","city_ascii":"Baojishi","lat":34.363,"lng":107.238,"country":"China","iso2":"CN","iso3":"CHN","admin_name":"Shaanxi","capital":"","population":3321853},{"city":"Qinzhou","city_ascii":"Qinzhou","lat":21.981,"lng":108.654,"country":"China","iso2":"CN","iso3":"CHN","admin_name":"Guangxi","capital":"minor","population":3304400},{"city":"Guiyang","city_ascii":"Guiyang","lat":26.647,"lng":106.63,"country":"China","iso2":"CN","iso3":"CHN","admin_name":"Guizhou","capital":"admin","population":3299724},{"city":"Bengbu","city_ascii":"Bengbu","lat":32.917,"lng":117.389,"country":"China","iso2":"CN","iso3":"CHN","admin_name":"Anhui","capital":"","population":3296408},{"city":"Bazhou","city_ascii":"Bazhou","lat":31.868,"lng":106.748,"country":"China","iso2":"CN","iso3":"CHN","admin_name":"Sichuan","capital":"minor","population":3283148},{"city":"Suining","city_ascii":"Suining","lat":30.533,"lng":105.593,"country":"China","iso2":"CN","iso3":"CHN","admin_name":"Sichuan","capital":"minor","population":3252619},{"city":"Wuxi","city_ascii":"Wuxi","lat":31.491,"lng":120.312,"country":"China","iso2":"CN","iso3":"CHN","admin_name":"Jiangsu","capital":"minor","population":3245179},{"city":"Kotla Qasim Khan","city_ascii":"Kotla Qasim Khan","lat":32.5833,"lng":73.75,"country":"Pakistan","iso2":"PK","iso3":"PAK","admin_name":"Punjab","capital":"","population":3219375},{"city":"Hanzhong","city_ascii":"Hanzhong","lat":33.0664,"lng":107.0232,"country":"China","iso2":"CN","iso3":"CHN","admin_name":"Shaanxi","capital":"","population":3211462},{"city":"Putian","city_ascii":"Putian","lat":25.4526,"lng":119.0078,"country":"China","iso2":"CN","iso3":"CHN","admin_name":"Fujian","capital":"minor","population":3210714},{"city":"Zhenjiang","city_ascii":"Zhenjiang","lat":32.188,"lng":119.424,"country":"China","iso2":"CN","iso3":"CHN","admin_name":"Jiangsu","capital":"minor","population":3210418},{"city":"Guang’an","city_ascii":"Guang'an","lat":30.4564,"lng":106.6326,"country":"China","iso2":"CN","iso3":"CHN","admin_name":"Sichuan","capital":"minor","population":3205476},{"city":"Faisalabad","city_ascii":"Faisalabad","lat":31.4167,"lng":73.0911,"country":"Pakistan","iso2":"PK","iso3":"PAK","admin_name":"Punjab","capital":"minor","population":3203846},{"city":"Changzhi","city_ascii":"Changzhi","lat":36.195,"lng":113.117,"country":"China","iso2":"CN","iso3":"CHN","admin_name":"Shanxi","capital":"minor","population":3180884},{"city":"Tongren","city_ascii":"Tongren","lat":27.7316,"lng":109.1895,"country":"China","iso2":"CN","iso3":"CHN","admin_name":"Guizhou","capital":"","population":3168800},{"city":"Leshan","city_ascii":"Leshan","lat":29.552,"lng":103.766,"country":"China","iso2":"CN","iso3":"CHN","admin_name":"Sichuan","capital":"","population":3160168},{"city":"Santa Cruz de la Sierra","city_ascii":"Santa Cruz de la Sierra","lat":-17.7892,"lng":-63.1975,"country":"Bolivia","iso2":"BO","iso3":"BOL","admin_name":"Santa Cruz","capital":"","population":3151676},{"city":"Qinhuangdao","city_ascii":"Qinhuangdao","lat":39.8882,"lng":119.5202,"country":"China","iso2":"CN","iso3":"CHN","admin_name":"Hebei","capital":"","population":3146300},{"city":"Jaipur","city_ascii":"Jaipur","lat":26.9,"lng":75.8,"country":"India","iso2":"IN","iso3":"IND","admin_name":"Rājasthān","capital":"admin","population":3073350},{"city":"Xinzhou","city_ascii":"Xinzhou","lat":38.416,"lng":112.734,"country":"China","iso2":"CN","iso3":"CHN","admin_name":"Shanxi","capital":"minor","population":3067501},{"city":"Lanzhou","city_ascii":"Lanzhou","lat":36.0606,"lng":103.8268,"country":"China","iso2":"CN","iso3":"CHN","admin_name":"Gansu","capital":"admin","population":3067141},{"city":"Wuzhou","city_ascii":"Wuzhou","lat":23.4767,"lng":111.279,"country":"China","iso2":"CN","iso3":"CHN","admin_name":"Guangxi","capital":"minor","population":3061100},{"city":"Athens","city_ascii":"Athens","lat":37.9842,"lng":23.7281,"country":"Greece","iso2":"GR","iso3":"GRC","admin_name":"Attikí","capital":"primary","population":3059764},{"city":"San Diego","city_ascii":"San Diego","lat":32.8313,"lng":-117.1222,"country":"United States","iso2":"US","iso3":"USA","admin_name":"California","capital":"","population":3046560},{"city":"Addis Ababa","city_ascii":"Addis Ababa","lat":9.03,"lng":38.74,"country":"Ethiopia","iso2":"ET","iso3":"ETH","admin_name":"Ādīs Ābeba","capital":"primary","population":3041002},{"city":"Taichung","city_ascii":"Taichung","lat":24.1439,"lng":120.6794,"country":"Taiwan","iso2":"TW","iso3":"TWN","admin_name":"Taichung","capital":"admin","population":3033885},{"city":"Huainan","city_ascii":"Huainan","lat":32.6314,"lng":117.0194,"country":"China","iso2":"CN","iso3":"CHN","admin_name":"Anhui","capital":"","population":3033528},{"city":"Guatemala City","city_ascii":"Guatemala City","lat":14.6133,"lng":-90.5353,"country":"Guatemala","iso2":"GT","iso3":"GTM","admin_name":"Guatemala","capital":"primary","population":3014000},{"city":"Kuwait City","city_ascii":"Kuwait City","lat":29.3697,"lng":47.9783,"country":"Kuwait","iso2":"KW","iso3":"KWT","admin_name":"Al ‘Āşimah","capital":"primary","population":3000000},{"city":"Budapest","city_ascii":"Budapest","lat":47.4925,"lng":19.0514,"country":"Hungary","iso2":"HU","iso3":"HUN","admin_name":"Budapest","capital":"primary","population":2997958},{"city":"Qincheng","city_ascii":"Qincheng","lat":34.5809,"lng":105.7311,"country":"China","iso2":"CN","iso3":"CHN","admin_name":"Gansu","capital":"minor","population":2984659},{"city":"Rizhao","city_ascii":"Rizhao","lat":35.417,"lng":119.527,"country":"China","iso2":"CN","iso3":"CHN","admin_name":"Shandong","capital":"minor","population":2968365},{"city":"Quezon City","city_ascii":"Quezon City","lat":14.65,"lng":121.0475,"country":"Philippines","iso2":"PH","iso3":"PHL","admin_name":"Quezon","capital":"admin","population":2960048},{"city":"Sanaa","city_ascii":"Sanaa","lat":15.3483,"lng":44.2064,"country":"Yemen","iso2":"YE","iso3":"YEM","admin_name":"Amānat al ‘Āşimah","capital":"primary","population":2957000},{"city":"Tashkent","city_ascii":"Tashkent","lat":41.3111,"lng":69.2797,"country":"Uzbekistan","iso2":"UZ","iso3":"UZB","admin_name":"Toshkent","capital":"primary","population":2956384},{"city":"Kyiv","city_ascii":"Kyiv","lat":50.45,"lng":30.5233,"country":"Ukraine","iso2":"UA","iso3":"UKR","admin_name":"Kyiv, Misto","capital":"primary","population":2952301},{"city":"Meishan","city_ascii":"Meishan","lat":30.0771,"lng":103.8484,"country":"China","iso2":"CN","iso3":"CHN","admin_name":"Sichuan","capital":"","population":2950545},{"city":"Incheon","city_ascii":"Incheon","lat":37.4833,"lng":126.6333,"country":"Korea, South","iso2":"KR","iso3":"KOR","admin_name":"Incheon","capital":"admin","population":2936117},{"city":"Birmingham","city_ascii":"Birmingham","lat":52.48,"lng":-1.9025,"country":"United Kingdom","iso2":"GB","iso3":"GBR","admin_name":"Birmingham","capital":"","population":2919600},{"city":"Ningde","city_ascii":"Ningde","lat":26.6662,"lng":119.5477,"country":"China","iso2":"CN","iso3":"CHN","admin_name":"Fujian","capital":"minor","population":2910000},{"city":"Zhongshan","city_ascii":"Zhongshan","lat":22.517,"lng":113.3925,"country":"China","iso2":"CN","iso3":"CHN","admin_name":"Guangdong","capital":"minor","population":2909633},{"city":"Weihai","city_ascii":"Weihai","lat":37.5133,"lng":122.1205,"country":"China","iso2":"CN","iso3":"CHN","admin_name":"Shandong","capital":"minor","population":2906548},{"city":"Bursa","city_ascii":"Bursa","lat":40.1833,"lng":29.05,"country":"Turkey","iso2":"TR","iso3":"TUR","admin_name":"Bursa","capital":"admin","population":2901396},{"city":"Minneapolis","city_ascii":"Minneapolis","lat":44.9635,"lng":-93.2678,"country":"United States","iso2":"US","iso3":"USA","admin_name":"Minnesota","capital":"","population":2892569},{"city":"Mbuji-Mayi","city_ascii":"Mbuji-Mayi","lat":-6.15,"lng":23.6,"country":"Congo (Kinshasa)","iso2":"CD","iso3":"COD","admin_name":"Kasaï Oriental","capital":"admin","population":2892000},{"city":"Haikou","city_ascii":"Haikou","lat":20.0186,"lng":110.3488,"country":"China","iso2":"CN","iso3":"CHN","admin_name":"Hainan","capital":"admin","population":2873358},{"city":"Tongliao","city_ascii":"Tongliao","lat":43.654,"lng":122.243,"country":"China","iso2":"CN","iso3":"CHN","admin_name":"Inner Mongolia","capital":"minor","population":2873168},{"city":"Chaoyang","city_ascii":"Chaoyang","lat":41.571,"lng":120.453,"country":"China","iso2":"CN","iso3":"CHN","admin_name":"Liaoning","capital":"","population":2872857},{"city":"La Paz","city_ascii":"La Paz","lat":-16.4958,"lng":-68.1333,"country":"Bolivia","iso2":"BO","iso3":"BOL","admin_name":"La Paz","capital":"primary","population":2867504},{"city":"Pyongyang","city_ascii":"Pyongyang","lat":39.0167,"lng":125.7475,"country":"Korea, North","iso2":"KP","iso3":"PRK","admin_name":"P’yŏngyang","capital":"primary","population":2863000},{"city":"Tampa","city_ascii":"Tampa","lat":27.9945,"lng":-82.4447,"country":"United States","iso2":"US","iso3":"USA","admin_name":"Florida","capital":"","population":2861173},{"city":"Shaoguan","city_ascii":"Shaoguan","lat":24.811,"lng":113.597,"country":"China","iso2":"CN","iso3":"CHN","admin_name":"Guangdong","capital":"minor","population":2855131},{"city":"Heyuan","city_ascii":"Heyuan","lat":23.7443,"lng":114.7002,"country":"China","iso2":"CN","iso3":"CHN","admin_name":"Guangdong","capital":"minor","population":2837686},{"city":"Brasília","city_ascii":"Brasilia","lat":-15.7939,"lng":-47.8828,"country":"Brazil","iso2":"BR","iso3":"BRA","admin_name":"Distrito Federal","capital":"primary","population":2817068},{"city":"Omdurman","city_ascii":"Omdurman","lat":15.65,"lng":32.4833,"country":"Sudan","iso2":"SD","iso3":"SDN","admin_name":"Khartoum","capital":"","population":2805396},{"city":"Malang","city_ascii":"Malang","lat":-7.98,"lng":112.62,"country":"Indonesia","iso2":"ID","iso3":"IDN","admin_name":"Jawa Timur","capital":"","population":2795209},{"city":"Stuttgart","city_ascii":"Stuttgart","lat":48.7775,"lng":9.18,"country":"Germany","iso2":"DE","iso3":"DEU","admin_name":"Baden-Württemberg","capital":"admin","population":2787724},{"city":"Daqing","city_ascii":"Daqing","lat":46.589,"lng":125.104,"country":"China","iso2":"CN","iso3":"CHN","admin_name":"Heilongjiang","capital":"minor","population":2781562},{"city":"Rome","city_ascii":"Rome","lat":41.8933,"lng":12.4828,"country":"Italy","iso2":"IT","iso3":"ITA","admin_name":"Lazio","capital":"primary","population":2748109},{"city":"Brooklyn","city_ascii":"Brooklyn","lat":40.6501,"lng":-73.9496,"country":"United States","iso2":"US","iso3":"USA","admin_name":"New York","capital":"","population":2736074},{"city":"Kaohsiung","city_ascii":"Kaohsiung","lat":22.615,"lng":120.2975,"country":"Taiwan","iso2":"TW","iso3":"TWN","admin_name":"Kaohsiung","capital":"admin","population":2733964},{"city":"Xiangtan","city_ascii":"Xiangtan","lat":27.8313,"lng":112.9454,"country":"China","iso2":"CN","iso3":"CHN","admin_name":"Hunan","capital":"","population":2726181},{"city":"Longyan","city_ascii":"Longyan","lat":25.076,"lng":117.017,"country":"China","iso2":"CN","iso3":"CHN","admin_name":"Fujian","capital":"minor","population":2723637},{"city":"Baotou","city_ascii":"Baotou","lat":40.6213,"lng":109.9532,"country":"China","iso2":"CN","iso3":"CHN","admin_name":"Inner Mongolia","capital":"","population":2709378},{"city":"Handan","city_ascii":"Handan","lat":36.601,"lng":114.487,"country":"China","iso2":"CN","iso3":"CHN","admin_name":"Hebei","capital":"minor","population":2708015},{"city":"Jinzhou","city_ascii":"Jinzhou","lat":41.129,"lng":121.148,"country":"China","iso2":"CN","iso3":"CHN","admin_name":"Liaoning","capital":"","population":2703853},{"city":"Kanpur","city_ascii":"Kanpur","lat":26.4499,"lng":80.3319,"country":"India","iso2":"IN","iso3":"IND","admin_name":"Uttar Pradesh","capital":"","population":2701324},{"city":"Denver","city_ascii":"Denver","lat":39.762,"lng":-104.8758,"country":"United States","iso2":"US","iso3":"USA","admin_name":"Colorado","capital":"admin","population":2687458},{"city":"Nanping","city_ascii":"Nanping","lat":26.6418,"lng":118.1774,"country":"China","iso2":"CN","iso3":"CHN","admin_name":"Fujian","capital":"minor","population":2680645},{"city":"Gāzipura","city_ascii":"Gazipura","lat":23.9889,"lng":90.375,"country":"Bangladesh","iso2":"BD","iso3":"BGD","admin_name":"Dhaka","capital":"","population":2674697},{"city":"Shanwei","city_ascii":"Shanwei","lat":22.7872,"lng":115.3756,"country":"China","iso2":"CN","iso3":"CHN","admin_name":"Guangdong","capital":"minor","population":2672819},{"city":"Chaozhou","city_ascii":"Chaozhou","lat":23.658,"lng":116.622,"country":"China","iso2":"CN","iso3":"CHN","admin_name":"Guangdong","capital":"minor","population":2656600},{"city":"Guayaquil","city_ascii":"Guayaquil","lat":-2.19,"lng":-79.8875,"country":"Ecuador","iso2":"EC","iso3":"ECU","admin_name":"Guayas","capital":"admin","population":2650288},{"city":"Weifang","city_ascii":"Weifang","lat":36.708,"lng":119.162,"country":"China","iso2":"CN","iso3":"CHN","admin_name":"Shandong","capital":"","population":2636154},{"city":"Huai’an","city_ascii":"Huai'an","lat":33.551,"lng":119.113,"country":"China","iso2":"CN","iso3":"CHN","admin_name":"Jiangsu","capital":"","population":2632788},{"city":"Zibo","city_ascii":"Zibo","lat":36.8138,"lng":118.055,"country":"China","iso2":"CN","iso3":"CHN","admin_name":"Shandong","capital":"","population":2631647},{"city":"Ankang","city_ascii":"Ankang","lat":32.6854,"lng":109.029,"country":"China","iso2":"CN","iso3":"CHN","admin_name":"Shaanxi","capital":"","population":2629906},{"city":"Mogadishu","city_ascii":"Mogadishu","lat":2.0392,"lng":45.3419,"country":"Somalia","iso2":"SO","iso3":"SOM","admin_name":"Banaadir","capital":"primary","population":2610483},{"city":"Munich","city_ascii":"Munich","lat":48.1375,"lng":11.575,"country":"Germany","iso2":"DE","iso3":"DEU","admin_name":"Bavaria","capital":"admin","population":2606021},{"city":"Gulou","city_ascii":"Gulou","lat":26.0865,"lng":119.298,"country":"China","iso2":"CN","iso3":"CHN","admin_name":"Fujian","capital":"minor","population":2606000},{"city":"Taipei","city_ascii":"Taipei","lat":25.0375,"lng":121.5625,"country":"Taiwan","iso2":"TW","iso3":"TWN","admin_name":"Taipei","capital":"primary","population":2603150},{"city":"Bekasi","city_ascii":"Bekasi","lat":-6.2349,"lng":106.9923,"country":"Indonesia","iso2":"ID","iso3":"IDN","admin_name":"Jawa Barat","capital":"","population":2590257},{"city":"Damascus","city_ascii":"Damascus","lat":33.5131,"lng":36.2919,"country":"Syria","iso2":"SY","iso3":"SYR","admin_name":"Dimashq","capital":"primary","population":2584771},{"city":"Sanming","city_ascii":"Sanming","lat":26.2634,"lng":117.6389,"country":"China","iso2":"CN","iso3":"CHN","admin_name":"Fujian","capital":"minor","population":2580000},{"city":"Yangjiang","city_ascii":"Yangjiang","lat":21.857,"lng":111.983,"country":"China","iso2":"CN","iso3":"CHN","admin_name":"Guangdong","capital":"minor","population":2555600},{"city":"Jiamusi","city_ascii":"Jiamusi","lat":46.8,"lng":130.319,"country":"China","iso2":"CN","iso3":"CHN","admin_name":"Heilongjiang","capital":"minor","population":2552097},{"city":"Luohe","city_ascii":"Luohe","lat":33.583,"lng":114.0109,"country":"China","iso2":"CN","iso3":"CHN","admin_name":"Henan","capital":"minor","population":2544266},{"city":"Medellín","city_ascii":"Medellin","lat":6.2308,"lng":-75.5906,"country":"Colombia","iso2":"CO","iso3":"COL","admin_name":"Antioquia","capital":"admin","population":2529403},{"city":"Dingxi","city_ascii":"Dingxi","lat":35.608,"lng":104.592,"country":"China","iso2":"CN","iso3":"CHN","admin_name":"Gansu","capital":"minor","population":2524097},{"city":"Shaoxing","city_ascii":"Shaoxing","lat":30.0511,"lng":120.5833,"country":"China","iso2":"CN","iso3":"CHN","admin_name":"Zhejiang","capital":"minor","population":2521964},{"city":"Yantai","city_ascii":"Yantai","lat":37.4646,"lng":121.4478,"country":"China","iso2":"CN","iso3":"CHN","admin_name":"Shandong","capital":"","population":2511053},{"city":"Huizhou","city_ascii":"Huizhou","lat":23.112,"lng":114.416,"country":"China","iso2":"CN","iso3":"CHN","admin_name":"Guangdong","capital":"minor","population":2509243},{"city":"Lishui","city_ascii":"Lishui","lat":28.468,"lng":119.923,"country":"China","iso2":"CN","iso3":"CHN","admin_name":"Zhejiang","capital":"minor","population":2507396},{"city":"Xuanzhou","city_ascii":"Xuanzhou","lat":30.939,"lng":118.759,"country":"China","iso2":"CN","iso3":"CHN","admin_name":"Anhui","capital":"","population":2500063},{"city":"Khowrhesht","city_ascii":"Khowrhesht","lat":36.205,"lng":49.6872,"country":"Iran","iso2":"IR","iso3":"IRN","admin_name":"Qazvīn","capital":"","population":2500000},{"city":"Mirzāpur","city_ascii":"Mirzapur","lat":25.146,"lng":82.569,"country":"India","iso2":"IN","iso3":"IND","admin_name":"Uttar Pradesh","capital":"","population":2496970},{"city":"Zigong","city_ascii":"Zigong","lat":29.339,"lng":104.779,"country":"China","iso2":"CN","iso3":"CHN","admin_name":"Sichuan","capital":"","population":2489256},{"city":"Hamburg","city_ascii":"Hamburg","lat":53.55,"lng":10,"country":"Germany","iso2":"DE","iso3":"DEU","admin_name":"Hamburg","capital":"admin","population":2484800},{"city":"Guangyuan","city_ascii":"Guangyuan","lat":32.436,"lng":105.844,"country":"China","iso2":"CN","iso3":"CHN","admin_name":"Sichuan","capital":"","population":2484122},{"city":"Cali","city_ascii":"Cali","lat":3.4206,"lng":-76.5222,"country":"Colombia","iso2":"CO","iso3":"COL","admin_name":"Valle del Cauca","capital":"admin","population":2471474},{"city":"Huangshi","city_ascii":"Huangshi","lat":30.2011,"lng":115.039,"country":"China","iso2":"CN","iso3":"CHN","admin_name":"Hubei","capital":"minor","population":2469079},{"city":"Xining","city_ascii":"Xining","lat":36.6224,"lng":101.7804,"country":"China","iso2":"CN","iso3":"CHN","admin_name":"Qinghai","capital":"admin","population":2467965},{"city":"Lusaka","city_ascii":"Lusaka","lat":-15.4167,"lng":28.2833,"country":"Zambia","iso2":"ZM","iso3":"ZMB","admin_name":"Lusaka","capital":"primary","population":2467563},{"city":"Ouagadougou","city_ascii":"Ouagadougou","lat":12.3686,"lng":-1.5275,"country":"Burkina Faso","iso2":"BF","iso3":"BFA","admin_name":"Centre","capital":"primary","population":2453496},{"city":"Yaoundé","city_ascii":"Yaounde","lat":3.8667,"lng":11.5167,"country":"Cameroon","iso2":"CM","iso3":"CMR","admin_name":"Centre","capital":"primary","population":2440462},{"city":"Zhuhai","city_ascii":"Zhuhai","lat":22.2716,"lng":113.5769,"country":"China","iso2":"CN","iso3":"CHN","admin_name":"Guangdong","capital":"minor","population":2439585},{"city":"Huludao","city_ascii":"Huludao","lat":40.711,"lng":120.837,"country":"China","iso2":"CN","iso3":"CHN","admin_name":"Liaoning","capital":"minor","population":2434194},{"city":"Baoshan","city_ascii":"Baoshan","lat":25.112,"lng":99.161,"country":"China","iso2":"CN","iso3":"CHN","admin_name":"Yunnan","capital":"","population":2431211},{"city":"Mecca","city_ascii":"Mecca","lat":21.4225,"lng":39.8233,"country":"Saudi Arabia","iso2":"SA","iso3":"SAU","admin_name":"Makkah al Mukarramah","capital":"admin","population":2427924},{"city":"Vancouver","city_ascii":"Vancouver","lat":49.25,"lng":-123.1,"country":"Canada","iso2":"CA","iso3":"CAN","admin_name":"British Columbia","capital":"","population":2426160},{"city":"Lianshan","city_ascii":"Lianshan","lat":40.7523,"lng":120.828,"country":"China","iso2":"CN","iso3":"CHN","admin_name":"Liaoning","capital":"minor","population":2426000},{"city":"Beirut","city_ascii":"Beirut","lat":33.8983,"lng":35.5057,"country":"Lebanon","iso2":"LB","iso3":"LBN","admin_name":"Beyrouth","capital":"primary","population":2421354},{"city":"Salvador","city_ascii":"Salvador","lat":-12.9747,"lng":-38.4767,"country":"Brazil","iso2":"BR","iso3":"BRA","admin_name":"Bahia","capital":"admin","population":2418005},{"city":"Bucharest","city_ascii":"Bucharest","lat":44.4325,"lng":26.1039,"country":"Romania","iso2":"RO","iso3":"ROU","admin_name":"Bucureşti","capital":"primary","population":2412530},{"city":"Longba","city_ascii":"Longba","lat":33.3702,"lng":104.9603,"country":"China","iso2":"CN","iso3":"CHN","admin_name":"Gansu","capital":"","population":2407272},{"city":"Nāgpur","city_ascii":"Nagpur","lat":21.1497,"lng":79.0806,"country":"India","iso2":"IN","iso3":"IND","admin_name":"Mahārāshtra","capital":"","population":2405665},{"city":"Queens","city_ascii":"Queens","lat":40.7498,"lng":-73.7976,"country":"United States","iso2":"US","iso3":"USA","admin_name":"New York","capital":"","population":2405464},{"city":"Jilin","city_ascii":"Jilin","lat":43.8519,"lng":126.5481,"country":"China","iso2":"CN","iso3":"CHN","admin_name":"Jilin","capital":"","population":2396000},{"city":"Tieling","city_ascii":"Tieling","lat":42.2237,"lng":123.726,"country":"China","iso2":"CN","iso3":"CHN","admin_name":"Liaoning","capital":"","population":2388294},{"city":"Accra","city_ascii":"Accra","lat":5.55,"lng":-0.2,"country":"Ghana","iso2":"GH","iso3":"GHA","admin_name":"Greater Accra","capital":"primary","population":2388000},{"city":"Yunfu","city_ascii":"Yunfu","lat":22.9152,"lng":112.0445,"country":"China","iso2":"CN","iso3":"CHN","admin_name":"Guangdong","capital":"minor","population":2383350},{"city":"Bekasi Kota","city_ascii":"Bekasi Kota","lat":-6.2333,"lng":107,"country":"Indonesia","iso2":"ID","iso3":"IDN","admin_name":"Jawa Barat","capital":"","population":2381053},{"city":"Daegu","city_ascii":"Daegu","lat":35.8717,"lng":128.6017,"country":"Korea, South","iso2":"KR","iso3":"KOR","admin_name":"Daegu","capital":"admin","population":2376044},{"city":"Ghāziābād","city_ascii":"Ghaziabad","lat":28.67,"lng":77.42,"country":"India","iso2":"IN","iso3":"IND","admin_name":"Uttar Pradesh","capital":"","population":2375820},{"city":"Luoyang","city_ascii":"Luoyang","lat":34.6197,"lng":112.4539,"country":"China","iso2":"CN","iso3":"CHN","admin_name":"Henan","capital":"","population":2372571},{"city":"Brisbane","city_ascii":"Brisbane","lat":-27.4678,"lng":153.0281,"country":"Australia","iso2":"AU","iso3":"AUS","admin_name":"Queensland","capital":"admin","population":2360241},{"city":"Anshun","city_ascii":"Anshun","lat":26.2531,"lng":105.9476,"country":"China","iso2":"CN","iso3":"CHN","admin_name":"Guizhou","capital":"","population":2353100},{"city":"Riverside","city_ascii":"Riverside","lat":33.9381,"lng":-117.3949,"country":"United States","iso2":"US","iso3":"USA","admin_name":"California","capital":"","population":2332836},{"city":"Yingkou","city_ascii":"Yingkou","lat":40.625,"lng":122.219,"country":"China","iso2":"CN","iso3":"CHN","admin_name":"Liaoning","capital":"minor","population":2328582},{"city":"Colombo","city_ascii":"Colombo","lat":6.9344,"lng":79.8428,"country":"Sri Lanka","iso2":"LK","iso3":"LKA","admin_name":"Western","capital":"primary","population":2323826},{"city":"Yanjiang","city_ascii":"Yanjiang","lat":30.129,"lng":104.627,"country":"China","iso2":"CN","iso3":"CHN","admin_name":"Sichuan","capital":"minor","population":2308631},{"city":"Baku","city_ascii":"Baku","lat":40.3953,"lng":49.8822,"country":"Azerbaijan","iso2":"AZ","iso3":"AZE","admin_name":"Bakı","capital":"primary","population":2300500},{"city":"Antananarivo","city_ascii":"Antananarivo","lat":-18.91,"lng":47.525,"country":"Madagascar","iso2":"MG","iso3":"MDG","admin_name":"Antananarivo","capital":"primary","population":2300000},{"city":"Mudanjiang","city_ascii":"Mudanjiang","lat":44.5514,"lng":129.6329,"country":"China","iso2":"CN","iso3":"CHN","admin_name":"Heilongjiang","capital":"minor","population":2290208},{"city":"Fukuoka","city_ascii":"Fukuoka","lat":33.59,"lng":130.4017,"country":"Japan","iso2":"JP","iso3":"JPN","admin_name":"Fukuoka","capital":"admin","population":2286000},{"city":"Yan’an","city_ascii":"Yan'an","lat":36.65,"lng":109.494,"country":"China","iso2":"CN","iso3":"CHN","admin_name":"Shaanxi","capital":"","population":2282581},{"city":"Jincheng","city_ascii":"Jincheng","lat":35.491,"lng":112.852,"country":"China","iso2":"CN","iso3":"CHN","admin_name":"Shanxi","capital":"minor","population":2279146},{"city":"Nantong","city_ascii":"Nantong","lat":31.981,"lng":120.894,"country":"China","iso2":"CN","iso3":"CHN","admin_name":"Jiangsu","capital":"minor","population":2261382},{"city":"Lincang","city_ascii":"Lincang","lat":23.884,"lng":100.089,"country":"China","iso2":"CN","iso3":"CHN","admin_name":"Yunnan","capital":"","population":2257991},{"city":"Yuxi","city_ascii":"Yuxi","lat":24.347,"lng":102.527,"country":"China","iso2":"CN","iso3":"CHN","admin_name":"Yunnan","capital":"minor","population":2249502},{"city":"Las Vegas","city_ascii":"Las Vegas","lat":36.2333,"lng":-115.2654,"country":"United States","iso2":"US","iso3":"USA","admin_name":"Nevada","capital":"","population":2248047},{"city":"Caracas","city_ascii":"Caracas","lat":10.4806,"lng":-66.9036,"country":"Venezuela","iso2":"VE","iso3":"VEN","admin_name":"Distrito Capital","capital":"primary","population":2245744},{"city":"Tangerang","city_ascii":"Tangerang","lat":-6.1703,"lng":106.6403,"country":"Indonesia","iso2":"ID","iso3":"IDN","admin_name":"Jawa Barat","capital":"","population":2237006},{"city":"Laibin","city_ascii":"Laibin","lat":23.7501,"lng":109.2212,"country":"China","iso2":"CN","iso3":"CHN","admin_name":"Guangxi","capital":"minor","population":2233900},{"city":"Konya","city_ascii":"Konya","lat":37.8667,"lng":32.4833,"country":"Turkey","iso2":"TR","iso3":"TUR","admin_name":"Konya","capital":"admin","population":2232374},{"city":"Supaul","city_ascii":"Supaul","lat":26.126,"lng":86.605,"country":"India","iso2":"IN","iso3":"IND","admin_name":"Bihār","capital":"","population":2229076},{"city":"Vienna","city_ascii":"Vienna","lat":48.2083,"lng":16.3725,"country":"Austria","iso2":"AT","iso3":"AUT","admin_name":"Wien","capital":"primary","population":2223236},{"city":"Eşfahān","city_ascii":"Esfahan","lat":32.6447,"lng":51.6675,"country":"Iran","iso2":"IR","iso3":"IRN","admin_name":"Eşfahān","capital":"admin","population":2219343},{"city":"Baltimore","city_ascii":"Baltimore","lat":39.3051,"lng":-76.6144,"country":"United States","iso2":"US","iso3":"USA","admin_name":"Maryland","capital":"","population":2196524},{"city":"Shengli","city_ascii":"Shengli","lat":37.434,"lng":118.6746,"country":"China","iso2":"CN","iso3":"CHN","admin_name":"Shandong","capital":"minor","population":2193518},{"city":"Dandong","city_ascii":"Dandong","lat":40.1167,"lng":124.3833,"country":"China","iso2":"CN","iso3":"CHN","admin_name":"Liaoning","capital":"","population":2188436},{"city":"Qinbaling","city_ascii":"Qinbaling","lat":35.7278,"lng":107.64,"country":"China","iso2":"CN","iso3":"CHN","admin_name":"Gansu","capital":"","population":2179716},{"city":"Gaoping","city_ascii":"Gaoping","lat":30.7824,"lng":106.1281,"country":"China","iso2":"CN","iso3":"CHN","admin_name":"Sichuan","capital":"minor","population":2174000},{"city":"Awka","city_ascii":"Awka","lat":6.2069,"lng":7.0678,"country":"Nigeria","iso2":"NG","iso3":"NGA","admin_name":"Anambra","capital":"admin","population":2171900},{"city":"Taizhou","city_ascii":"Taizhou","lat":28.6557,"lng":121.4208,"country":"China","iso2":"CN","iso3":"CHN","admin_name":"Zhejiang","capital":"minor","population":2162461},{"city":"Ma’anshan","city_ascii":"Ma'anshan","lat":31.669,"lng":118.507,"country":"China","iso2":"CN","iso3":"CHN","admin_name":"Anhui","capital":"minor","population":2159930},{"city":"Harare","city_ascii":"Harare","lat":-17.8292,"lng":31.0522,"country":"Zimbabwe","iso2":"ZW","iso3":"ZWE","admin_name":"Harare","capital":"primary","population":2150000},{"city":"Perth","city_ascii":"Perth","lat":-31.9559,"lng":115.8606,"country":"Australia","iso2":"AU","iso3":"AUS","admin_name":"Western Australia","capital":"admin","population":2141834},{"city":"St. Louis","city_ascii":"St. Louis","lat":38.6359,"lng":-90.2451,"country":"United States","iso2":"US","iso3":"USA","admin_name":"Missouri","capital":"","population":2130881},{"city":"Phnom Penh","city_ascii":"Phnom Penh","lat":11.5694,"lng":104.9211,"country":"Cambodia","iso2":"KH","iso3":"KHM","admin_name":"Phnom Penh","capital":"primary","population":2129371},{"city":"Depok","city_ascii":"Depok","lat":-6.394,"lng":106.8225,"country":"Indonesia","iso2":"ID","iso3":"IDN","admin_name":"Jawa Barat","capital":"","population":2123349},{"city":"Stockholm","city_ascii":"Stockholm","lat":59.3294,"lng":18.0686,"country":"Sweden","iso2":"SE","iso3":"SWE","admin_name":"Stockholm","capital":"primary","population":2121000},{"city":"Puning","city_ascii":"Puning","lat":23.298,"lng":116.166,"country":"China","iso2":"CN","iso3":"CHN","admin_name":"Guangdong","capital":"","population":2118200},{"city":"Huaibei","city_ascii":"Huaibei","lat":33.956,"lng":116.798,"country":"China","iso2":"CN","iso3":"CHN","admin_name":"Anhui","capital":"","population":2114276},{"city":"Kowloon","city_ascii":"Kowloon","lat":22.3167,"lng":114.1833,"country":"Hong Kong","iso2":"HK","iso3":"HKG","admin_name":"","capital":"","population":2108419},{"city":"Córdoba","city_ascii":"Cordoba","lat":-31.4167,"lng":-64.1833,"country":"Argentina","iso2":"AR","iso3":"ARG","admin_name":"Córdoba","capital":"admin","population":2106734},{"city":"Haiphong","city_ascii":"Haiphong","lat":20.8651,"lng":106.6838,"country":"Vietnam","iso2":"VN","iso3":"VNM","admin_name":"Hải Phòng","capital":"admin","population":2103500},{"city":"Zamboanga City","city_ascii":"Zamboanga City","lat":6.9042,"lng":122.0761,"country":"Philippines","iso2":"PH","iso3":"PHL","admin_name":"Zamboanga","capital":"admin","population":2100000},{"city":"Chongzuo","city_ascii":"Chongzuo","lat":22.377,"lng":107.365,"country":"China","iso2":"CN","iso3":"CHN","admin_name":"Guangxi","capital":"minor","population":2099400},{"city":"Rawalpindi","city_ascii":"Rawalpindi","lat":33.6,"lng":73.0333,"country":"Pakistan","iso2":"PK","iso3":"PAK","admin_name":"Punjab","capital":"minor","population":2098231},{"city":"Portland","city_ascii":"Portland","lat":45.5371,"lng":-122.65,"country":"United States","iso2":"US","iso3":"USA","admin_name":"Oregon","capital":"","population":2095808},{"city":"Kano","city_ascii":"Kano","lat":12,"lng":8.5167,"country":"Nigeria","iso2":"NG","iso3":"NGA","admin_name":"Kano","capital":"admin","population":2095000},{"city":"Yushan","city_ascii":"Yushan","lat":31.322,"lng":120.985,"country":"China","iso2":"CN","iso3":"CHN","admin_name":"Jiangsu","capital":"minor","population":2092496},{"city":"Havana","city_ascii":"Havana","lat":23.1367,"lng":-82.3589,"country":"Cuba","iso2":"CU","iso3":"CUB","admin_name":"La Habana","capital":"primary","population":2089532},{"city":"Hezhou","city_ascii":"Hezhou","lat":24.4042,"lng":111.5672,"country":"China","iso2":"CN","iso3":"CHN","admin_name":"Guangxi","capital":"minor","population":2072600},{"city":"Pingliang","city_ascii":"Pingliang","lat":35.5424,"lng":106.6649,"country":"China","iso2":"CN","iso3":"CHN","admin_name":"Gansu","capital":"minor","population":2068033},{"city":"Vadodara","city_ascii":"Vadodara","lat":22.3,"lng":73.2,"country":"India","iso2":"IN","iso3":"IND","admin_name":"Gujarāt","capital":"","population":2065771},{"city":"Manaus","city_ascii":"Manaus","lat":-3.1189,"lng":-60.0217,"country":"Brazil","iso2":"BR","iso3":"BRA","admin_name":"Amazonas","capital":"admin","population":2063547},{"city":"Qingyang","city_ascii":"Qingyang","lat":24.7816,"lng":118.5517,"country":"China","iso2":"CN","iso3":"CHN","admin_name":"Fujian","capital":"minor","population":2061600},{"city":"San Antonio","city_ascii":"San Antonio","lat":29.4632,"lng":-98.5238,"country":"United States","iso2":"US","iso3":"USA","admin_name":"Texas","capital":"","population":2058444},{"city":"Rājkot","city_ascii":"Rajkot","lat":22.3,"lng":70.7833,"country":"India","iso2":"IN","iso3":"IND","admin_name":"Gujarāt","capital":"","population":2043000},{"city":"Shangzhou","city_ascii":"Shangzhou","lat":33.868,"lng":109.9244,"country":"China","iso2":"CN","iso3":"CHN","admin_name":"Shaanxi","capital":"","population":2041231},{"city":"Vishākhapatnam","city_ascii":"Vishakhapatnam","lat":17.7042,"lng":83.2978,"country":"India","iso2":"IN","iso3":"IND","admin_name":"Andhra Pradesh","capital":"","population":2035922},{"city":"Sanmenxia","city_ascii":"Sanmenxia","lat":34.7732,"lng":111.2004,"country":"China","iso2":"CN","iso3":"CHN","admin_name":"Henan","capital":"","population":2034872},{"city":"Baicheng","city_ascii":"Baicheng","lat":45.62,"lng":122.838,"country":"China","iso2":"CN","iso3":"CHN","admin_name":"Jilin","capital":"minor","population":2032356},{"city":"Gujranwala","city_ascii":"Gujranwala","lat":32.1567,"lng":74.19,"country":"Pakistan","iso2":"PK","iso3":"PAK","admin_name":"Punjab","capital":"minor","population":2027001},{"city":"Aleppo","city_ascii":"Aleppo","lat":36.2,"lng":37.16,"country":"Syria","iso2":"SY","iso3":"SYR","admin_name":"Ḩalab","capital":"admin","population":2003671},{"city":"Tijuana","city_ascii":"Tijuana","lat":32.525,"lng":-117.0333,"country":"Mexico","iso2":"MX","iso3":"MEX","admin_name":"Baja California","capital":"minor","population":2002000},{"city":"Bamenda","city_ascii":"Bamenda","lat":5.9614,"lng":10.1517,"country":"Cameroon","iso2":"CM","iso3":"CMR","admin_name":"North-West","capital":"admin","population":2000000},{"city":"Minsk","city_ascii":"Minsk","lat":53.9,"lng":27.5667,"country":"Belarus","iso2":"BY","iso3":"BLR","admin_name":"Minsk","capital":"primary","population":1995471},{"city":"Indore","city_ascii":"Indore","lat":22.7167,"lng":75.8472,"country":"India","iso2":"IN","iso3":"IND","admin_name":"Madhya Pradesh","capital":"","population":1994397},{"city":"Karaj","city_ascii":"Karaj","lat":35.8272,"lng":50.9489,"country":"Iran","iso2":"IR","iso3":"IRN","admin_name":"Alborz","capital":"admin","population":1973470},{"city":"Kananga","city_ascii":"Kananga","lat":-5.897,"lng":22.4488,"country":"Congo (Kinshasa)","iso2":"CD","iso3":"COD","admin_name":"Kasaï Central","capital":"admin","population":1971704},{"city":"Peshawar","city_ascii":"Peshawar","lat":34.0144,"lng":71.5675,"country":"Pakistan","iso2":"PK","iso3":"PAK","admin_name":"Khyber Pakhtunkhwa","capital":"admin","population":1970042},{"city":"Sapporo","city_ascii":"Sapporo","lat":43.0619,"lng":141.3544,"country":"Japan","iso2":"JP","iso3":"JPN","admin_name":"Hokkaidō","capital":"admin","population":1959313},{"city":"Sacramento","city_ascii":"Sacramento","lat":38.5677,"lng":-121.4685,"country":"United States","iso2":"US","iso3":"USA","admin_name":"California","capital":"admin","population":1957738},{"city":"Tilburg","city_ascii":"Tilburg","lat":51.55,"lng":5.0833,"country":"Netherlands","iso2":"NL","iso3":"NLD","admin_name":"Noord-Brabant","capital":"minor","population":1944588},{"city":"Pingxiang","city_ascii":"Pingxiang","lat":27.659,"lng":113.887,"country":"China","iso2":"CN","iso3":"CHN","admin_name":"Jiangxi","capital":"minor","population":1933200},{"city":"Ecatepec","city_ascii":"Ecatepec","lat":19.6097,"lng":-99.06,"country":"Mexico","iso2":"MX","iso3":"MEX","admin_name":"México","capital":"minor","population":1929926},{"city":"Almaty","city_ascii":"Almaty","lat":43.24,"lng":76.915,"country":"Kazakhstan","iso2":"KZ","iso3":"KAZ","admin_name":"Almaty","capital":"admin","population":1916822},{"city":"Austin","city_ascii":"Austin","lat":30.3005,"lng":-97.7522,"country":"United States","iso2":"US","iso3":"USA","admin_name":"Texas","capital":"admin","population":1905945},{"city":"Yinchuan","city_ascii":"Yinchuan","lat":38.485,"lng":106.225,"country":"China","iso2":"CN","iso3":"CHN","admin_name":"Ningxia","capital":"admin","population":1901793},{"city":"Santos","city_ascii":"Santos","lat":-23.9369,"lng":-46.325,"country":"Brazil","iso2":"BR","iso3":"BRA","admin_name":"São Paulo","capital":"","population":1897551},{"city":"Blantyre","city_ascii":"Blantyre","lat":-15.7861,"lng":35.0058,"country":"Malawi","iso2":"MW","iso3":"MWI","admin_name":"Blantyre","capital":"admin","population":1895973},{"city":"Thāne","city_ascii":"Thane","lat":19.1972,"lng":72.9722,"country":"India","iso2":"IN","iso3":"IND","admin_name":"Mahārāshtra","capital":"","population":1886941},{"city":"Orlando","city_ascii":"Orlando","lat":28.4773,"lng":-81.337,"country":"United States","iso2":"US","iso3":"USA","admin_name":"Florida","capital":"","population":1882705},{"city":"Tainan","city_ascii":"Tainan","lat":22.9833,"lng":120.1833,"country":"Taiwan","iso2":"TW","iso3":"TWN","admin_name":"Tainan","capital":"admin","population":1874686},{"city":"Xiping","city_ascii":"Xiping","lat":40.082,"lng":113.2981,"country":"China","iso2":"CN","iso3":"CHN","admin_name":"Shanxi","capital":"minor","population":1873000},{"city":"Multan","city_ascii":"Multan","lat":30.1978,"lng":71.4697,"country":"Pakistan","iso2":"PK","iso3":"PAK","admin_name":"Punjab","capital":"minor","population":1871843},{"city":"Santa Cruz","city_ascii":"Santa Cruz","lat":-17.8,"lng":-63.1833,"country":"Bolivia","iso2":"BO","iso3":"BOL","admin_name":"Santa Cruz","capital":"admin","population":1867673},{"city":"Port Harcourt","city_ascii":"Port Harcourt","lat":4.8242,"lng":7.0336,"country":"Nigeria","iso2":"NG","iso3":"NGA","admin_name":"Rivers","capital":"admin","population":1865000},{"city":"Jixi","city_ascii":"Jixi","lat":45.295,"lng":130.969,"country":"China","iso2":"CN","iso3":"CHN","admin_name":"Heilongjiang","capital":"minor","population":1862165},{"city":"Fushun","city_ascii":"Fushun","lat":41.881,"lng":123.957,"country":"China","iso2":"CN","iso3":"CHN","admin_name":"Liaoning","capital":"","population":1861372},{"city":"Warsaw","city_ascii":"Warsaw","lat":52.23,"lng":21.0111,"country":"Poland","iso2":"PL","iso3":"POL","admin_name":"Mazowieckie","capital":"primary","population":1860281},{"city":"Beihai","city_ascii":"Beihai","lat":21.481,"lng":109.12,"country":"China","iso2":"CN","iso3":"CHN","admin_name":"Guangxi","capital":"minor","population":1853227},{"city":"Fuxin","city_ascii":"Fuxin","lat":42.022,"lng":121.67,"country":"China","iso2":"CN","iso3":"CHN","admin_name":"Liaoning","capital":"","population":1819339},{"city":"Wuwei","city_ascii":"Wuwei","lat":37.929,"lng":102.638,"country":"China","iso2":"CN","iso3":"CHN","admin_name":"Gansu","capital":"minor","population":1815059},{"city":"Siping","city_ascii":"Siping","lat":43.1668,"lng":124.3506,"country":"China","iso2":"CN","iso3":"CHN","admin_name":"Jilin","capital":"minor","population":1814733},{"city":"San Juan","city_ascii":"San Juan","lat":18.3985,"lng":-66.061,"country":"Puerto Rico","iso2":"PR","iso3":"PRI","admin_name":"Puerto Rico","capital":"primary","population":1814587},{"city":"Mersin","city_ascii":"Mersin","lat":36.8,"lng":34.6333,"country":"Turkey","iso2":"TR","iso3":"TUR","admin_name":"Mersin","capital":"admin","population":1814468},{"city":"Bhopāl","city_ascii":"Bhopal","lat":23.2599,"lng":77.4126,"country":"India","iso2":"IN","iso3":"IND","admin_name":"Madhya Pradesh","capital":"admin","population":1798218},{"city":"Mosul","city_ascii":"Mosul","lat":36.34,"lng":43.13,"country":"Iraq","iso2":"IQ","iso3":"IRQ","admin_name":"Nīnawá","capital":"admin","population":1792000},{"city":"Lubumbashi","city_ascii":"Lubumbashi","lat":-11.6647,"lng":27.4794,"country":"Congo (Kinshasa)","iso2":"CD","iso3":"COD","admin_name":"Haut-Katanga","capital":"admin","population":1786397},{"city":"Davao","city_ascii":"Davao","lat":7.07,"lng":125.6,"country":"Philippines","iso2":"PH","iso3":"PHL","admin_name":"Davao","capital":"admin","population":1776949},{"city":"Curitiba","city_ascii":"Curitiba","lat":-25.4297,"lng":-49.2711,"country":"Brazil","iso2":"BR","iso3":"BRA","admin_name":"Paraná","capital":"admin","population":1773733},{"city":"San Jose","city_ascii":"San Jose","lat":37.3012,"lng":-121.848,"country":"United States","iso2":"US","iso3":"USA","admin_name":"California","capital":"","population":1771413},{"city":"Shuyangzha","city_ascii":"Shuyangzha","lat":34.1299,"lng":118.7734,"country":"China","iso2":"CN","iso3":"CHN","admin_name":"Jiangsu","capital":"","population":1770000},{"city":"Adana","city_ascii":"Adana","lat":37,"lng":35.3213,"country":"Turkey","iso2":"TR","iso3":"TUR","admin_name":"Adana","capital":"admin","population":1765981},{"city":"Quito","city_ascii":"Quito","lat":-0.22,"lng":-78.5125,"country":"Ecuador","iso2":"EC","iso3":"ECU","admin_name":"Pichincha","capital":"primary","population":1763275},{"city":"Pittsburgh","city_ascii":"Pittsburgh","lat":40.4397,"lng":-79.9763,"country":"United States","iso2":"US","iso3":"USA","admin_name":"Pennsylvania","capital":"","population":1749091},{"city":"Brazzaville","city_ascii":"Brazzaville","lat":-4.2694,"lng":15.2711,"country":"Congo (Brazzaville)","iso2":"CG","iso3":"COG","admin_name":"Brazzaville","capital":"primary","population":1733263},{"city":"Hyderabad City","city_ascii":"Hyderabad City","lat":25.3792,"lng":68.3683,"country":"Pakistan","iso2":"PK","iso3":"PAK","admin_name":"Sindh","capital":"minor","population":1732693},{"city":"Diyarbakır","city_ascii":"Diyarbakir","lat":37.91,"lng":40.24,"country":"Turkey","iso2":"TR","iso3":"TUR","admin_name":"Diyarbakır","capital":"admin","population":1732396},{"city":"Indianapolis","city_ascii":"Indianapolis","lat":39.7771,"lng":-86.1458,"country":"United States","iso2":"US","iso3":"USA","admin_name":"Indiana","capital":"admin","population":1729849},{"city":"Pimpri-Chinchwad","city_ascii":"Pimpri-Chinchwad","lat":18.6186,"lng":73.8037,"country":"India","iso2":"IN","iso3":"IND","admin_name":"Mahārāshtra","capital":"","population":1727692},{"city":"Masqaţ","city_ascii":"Masqat","lat":23.5889,"lng":58.4083,"country":"Oman","iso2":"OM","iso3":"OMN","admin_name":"Masqaţ","capital":"","population":1720000},{"city":"Montevideo","city_ascii":"Montevideo","lat":-34.8836,"lng":-56.1819,"country":"Uruguay","iso2":"UY","iso3":"URY","admin_name":"Montevideo","capital":"primary","population":1719453},{"city":"Shuozhou","city_ascii":"Shuozhou","lat":39.3317,"lng":112.4329,"country":"China","iso2":"CN","iso3":"CHN","admin_name":"Shanxi","capital":"minor","population":1714857},{"city":"Manhattan","city_ascii":"Manhattan","lat":40.7834,"lng":-73.9662,"country":"United States","iso2":"US","iso3":"USA","admin_name":"New York","capital":"","population":1694263},{"city":"Cincinnati","city_ascii":"Cincinnati","lat":39.1413,"lng":-84.506,"country":"United States","iso2":"US","iso3":"USA","admin_name":"Ohio","capital":"","population":1692702},{"city":"Kansas City","city_ascii":"Kansas City","lat":39.1238,"lng":-94.5541,"country":"United States","iso2":"US","iso3":"USA","admin_name":"Missouri","capital":"","population":1689556},{"city":"Patna","city_ascii":"Patna","lat":25.594,"lng":85.1376,"country":"India","iso2":"IN","iso3":"IND","admin_name":"Bihār","capital":"admin","population":1684222},{"city":"Tegucigalpa","city_ascii":"Tegucigalpa","lat":14.1058,"lng":-87.2047,"country":"Honduras","iso2":"HN","iso3":"HND","admin_name":"Francisco Morazán","capital":"primary","population":1682725},{"city":"Kampala","city_ascii":"Kampala","lat":0.3136,"lng":32.5811,"country":"Uganda","iso2":"UG","iso3":"UGA","admin_name":"Kampala","capital":"primary","population":1680600},{"city":"Cleveland","city_ascii":"Cleveland","lat":41.4764,"lng":-81.6805,"country":"United States","iso2":"US","iso3":"USA","admin_name":"Ohio","capital":"","population":1680247},{"city":"Sanzhou","city_ascii":"Sanzhou","lat":30.82,"lng":108.4,"country":"China","iso2":"CN","iso3":"CHN","admin_name":"Chongqing","capital":"","population":1680000},{"city":"Changshu","city_ascii":"Changshu","lat":31.656,"lng":120.753,"country":"China","iso2":"CN","iso3":"CHN","admin_name":"Jiangsu","capital":"","population":1677050},{"city":"Heihe","city_ascii":"Heihe","lat":50.2401,"lng":127.521,"country":"China","iso2":"CN","iso3":"CHN","admin_name":"Heilongjiang","capital":"minor","population":1673899},{"city":"Conakry","city_ascii":"Conakry","lat":9.5092,"lng":-13.7122,"country":"Guinea","iso2":"GN","iso3":"GIN","admin_name":"Conakry","capital":"primary","population":1667864},{"city":"Ximeicun","city_ascii":"Ximeicun","lat":24.9612,"lng":118.3849,"country":"China","iso2":"CN","iso3":"CHN","admin_name":"Fujian","capital":"","population":1663542},{"city":"Caloocan City","city_ascii":"Caloocan City","lat":14.65,"lng":120.97,"country":"Philippines","iso2":"PH","iso3":"PHL","admin_name":"Caloocan","capital":"admin","population":1661584},{"city":"Masvingo","city_ascii":"Masvingo","lat":-20.0744,"lng":30.8328,"country":"Zimbabwe","iso2":"ZW","iso3":"ZWE","admin_name":"Masvingo","capital":"admin","population":1638528},{"city":"Zhongli","city_ascii":"Zhongli","lat":24.965,"lng":121.2168,"country":"Taiwan","iso2":"TW","iso3":"TWN","admin_name":"Taoyuan","capital":"","population":1632616},{"city":"Novosibirsk","city_ascii":"Novosibirsk","lat":55.05,"lng":82.95,"country":"Russia","iso2":"RU","iso3":"RUS","admin_name":"Novosibirskaya Oblast’","capital":"admin","population":1625631},{"city":"Bilāspur","city_ascii":"Bilaspur","lat":22.09,"lng":82.15,"country":"India","iso2":"IN","iso3":"IND","admin_name":"Chhattīsgarh","capital":"","population":1625502},{"city":"Semarang","city_ascii":"Semarang","lat":-6.99,"lng":110.4225,"country":"Indonesia","iso2":"ID","iso3":"IDN","admin_name":"Jawa Tengah","capital":"admin","population":1621384},{"city":"Jingdezhen","city_ascii":"Jingdezhen","lat":29.2917,"lng":117.1986,"country":"China","iso2":"CN","iso3":"CHN","admin_name":"Jiangxi","capital":"minor","population":1618979},{"city":"Ludhiāna","city_ascii":"Ludhiana","lat":30.91,"lng":75.85,"country":"India","iso2":"IN","iso3":"IND","admin_name":"Punjab","capital":"","population":1618879},{"city":"Liaoyang","city_ascii":"Liaoyang","lat":41.279,"lng":123.176,"country":"China","iso2":"CN","iso3":"CHN","admin_name":"Liaoning","capital":"","population":1604580},{"city":"Chengtangcun","city_ascii":"Chengtangcun","lat":35.0833,"lng":117.15,"country":"China","iso2":"CN","iso3":"CHN","admin_name":"Shandong","capital":"","population":1603659},{"city":"Rājshāhi","city_ascii":"Rajshahi","lat":24.3667,"lng":88.6,"country":"Bangladesh","iso2":"BD","iso3":"BGD","admin_name":"Rājshāhi","capital":"admin","population":1600000},{"city":"Balandougou","city_ascii":"Balandougou","lat":13.3558,"lng":-9.5517,"country":"Mali","iso2":"ML","iso3":"MLI","admin_name":"Kayes","capital":"","population":1596882},{"city":"Jiangyin","city_ascii":"Jiangyin","lat":31.839,"lng":120.295,"country":"China","iso2":"CN","iso3":"CHN","admin_name":"Jiangsu","capital":"","population":1595138},{"city":"Valencia","city_ascii":"Valencia","lat":39.47,"lng":-0.3764,"country":"Spain","iso2":"ES","iso3":"ESP","admin_name":"Valencia","capital":"admin","population":1595000},{"city":"Āgra","city_ascii":"Agra","lat":27.18,"lng":78.02,"country":"India","iso2":"IN","iso3":"IND","admin_name":"Uttar Pradesh","capital":"","population":1585704},{"city":"León de los Aldama","city_ascii":"Leon de los Aldama","lat":21.1167,"lng":-101.6833,"country":"Mexico","iso2":"MX","iso3":"MEX","admin_name":"Guanajuato","capital":"minor","population":1579803},{"city":"Puebla","city_ascii":"Puebla","lat":19.0333,"lng":-98.1833,"country":"Mexico","iso2":"MX","iso3":"MEX","admin_name":"Puebla","capital":"admin","population":1576259},{"city":"Columbus","city_ascii":"Columbus","lat":39.9862,"lng":-82.9855,"country":"United States","iso2":"US","iso3":"USA","admin_name":"Ohio","capital":"admin","population":1572546},{"city":"Yopougon","city_ascii":"Yopougon","lat":5.3167,"lng":-4.0667,"country":"Côte d’Ivoire","iso2":"CI","iso3":"CIV","admin_name":"Abidjan","capital":"","population":1571065},{"city":"Hebi","city_ascii":"Hebi","lat":35.748,"lng":114.297,"country":"China","iso2":"CN","iso3":"CHN","admin_name":"Henan","capital":"","population":1569208},{"city":"Shīrāz","city_ascii":"Shiraz","lat":29.61,"lng":52.5425,"country":"Iran","iso2":"IR","iso3":"IRN","admin_name":"Fārs","capital":"admin","population":1565572},{"city":"Madurai","city_ascii":"Madurai","lat":9.9252,"lng":78.1198,"country":"India","iso2":"IN","iso3":"IND","admin_name":"Tamil Nādu","capital":"minor","population":1561129},{"city":"Huzhou","city_ascii":"Huzhou","lat":30.8925,"lng":120.0875,"country":"China","iso2":"CN","iso3":"CHN","admin_name":"Zhejiang","capital":"minor","population":1558826},{"city":"Tabrīz","city_ascii":"Tabriz","lat":38.0814,"lng":46.3006,"country":"Iran","iso2":"IR","iso3":"IRN","admin_name":"Āz̄arbāyjān-e Sharqī","capital":"admin","population":1558693},{"city":"Jamshedpur","city_ascii":"Jamshedpur","lat":22.7925,"lng":86.1842,"country":"India","iso2":"IN","iso3":"IND","admin_name":"Jhārkhand","capital":"","population":1558000},{"city":"Maracaibo","city_ascii":"Maracaibo","lat":10.6333,"lng":-71.6333,"country":"Venezuela","iso2":"VE","iso3":"VEN","admin_name":"Zulia","capital":"admin","population":1551539},{"city":"Sofia","city_ascii":"Sofia","lat":42.7,"lng":23.33,"country":"Bulgaria","iso2":"BG","iso3":"BGR","admin_name":"Sofia-Grad","capital":"primary","population":1547779},{"city":"San José","city_ascii":"San Jose","lat":9.9325,"lng":-84.08,"country":"Costa Rica","iso2":"CR","iso3":"CRI","admin_name":"San José","capital":"primary","population":1543000},{"city":"Prayagraj","city_ascii":"Prayagraj","lat":25.4358,"lng":81.8464,"country":"India","iso2":"IN","iso3":"IND","admin_name":"Uttar Pradesh","capital":"","population":1536218},{"city":"Palembang","city_ascii":"Palembang","lat":-2.9861,"lng":104.7556,"country":"Indonesia","iso2":"ID","iso3":"IDN","admin_name":"Sumatera Selatan","capital":"admin","population":1535952},{"city":"Kawasaki","city_ascii":"Kawasaki","lat":35.5167,"lng":139.7,"country":"Japan","iso2":"JP","iso3":"JPN","admin_name":"Kanagawa","capital":"","population":1531646},{"city":"Kōbe","city_ascii":"Kobe","lat":34.69,"lng":135.1956,"country":"Japan","iso2":"JP","iso3":"JPN","admin_name":"Hyōgo","capital":"admin","population":1521707},{"city":"Jiaxing","city_ascii":"Jiaxing","lat":30.747,"lng":120.756,"country":"China","iso2":"CN","iso3":"CHN","admin_name":"Zhejiang","capital":"minor","population":1518654},{"city":"Kigali","city_ascii":"Kigali","lat":-1.9439,"lng":30.0594,"country":"Rwanda","iso2":"RW","iso3":"RWA","admin_name":"Kigali","capital":"primary","population":1518632},{"city":"Zhangjiajie","city_ascii":"Zhangjiajie","lat":29.117,"lng":110.479,"country":"China","iso2":"CN","iso3":"CHN","admin_name":"Hunan","capital":"minor","population":1517027},{"city":"Baiyin","city_ascii":"Baiyin","lat":36.5451,"lng":104.1389,"country":"China","iso2":"CN","iso3":"CHN","admin_name":"Gansu","capital":"minor","population":1512110},{"city":"Guiping","city_ascii":"Guiping","lat":23.4,"lng":110.0833,"country":"China","iso2":"CN","iso3":"CHN","admin_name":"Guangxi","capital":"minor","population":1511011},{"city":"Lianjiang","city_ascii":"Lianjiang","lat":21.7333,"lng":110.2833,"country":"China","iso2":"CN","iso3":"CHN","admin_name":"Guangdong","capital":"","population":1509400},{"city":"Jianguang","city_ascii":"Jianguang","lat":28.1958,"lng":115.7833,"country":"China","iso2":"CN","iso3":"CHN","admin_name":"Jiangxi","capital":"","population":1507402},{"city":"Yucheng","city_ascii":"Yucheng","lat":30.01,"lng":103.0415,"country":"China","iso2":"CN","iso3":"CHN","admin_name":"Sichuan","capital":"minor","population":1507258},{"city":"Xushan","city_ascii":"Xushan","lat":30.1667,"lng":121.2333,"country":"China","iso2":"CN","iso3":"CHN","admin_name":"Zhejiang","capital":"minor","population":1502000},{"city":"Panama City","city_ascii":"Panama City","lat":8.9833,"lng":-79.5167,"country":"Panama","iso2":"PA","iso3":"PAN","admin_name":"Panamá","capital":"primary","population":1500189},{"city":"Nneyi-Umuleri","city_ascii":"Nneyi-Umuleri","lat":6.3333,"lng":6.8333,"country":"Nigeria","iso2":"NG","iso3":"NGA","admin_name":"Anambra","capital":"","population":1500000},{"city":"Leizhou","city_ascii":"Leizhou","lat":20.9143,"lng":110.0967,"country":"China","iso2":"CN","iso3":"CHN","admin_name":"Guangdong","capital":"minor","population":1494700},{"city":"Gwangju","city_ascii":"Gwangju","lat":35.1653,"lng":126.8486,"country":"Korea, South","iso2":"KR","iso3":"KOR","admin_name":"Gwangju","capital":"admin","population":1490092},{"city":"Katako-Kombe","city_ascii":"Katako-Kombe","lat":-3.4,"lng":24.42,"country":"Congo (Kinshasa)","iso2":"CD","iso3":"COD","admin_name":"Sankuru","capital":"","population":1488922},{"city":"Recife","city_ascii":"Recife","lat":-8.05,"lng":-34.9,"country":"Brazil","iso2":"BR","iso3":"BRA","admin_name":"Pernambuco","capital":"admin","population":1488920},{"city":"Nāsik","city_ascii":"Nasik","lat":19.9975,"lng":73.7898,"country":"India","iso2":"IN","iso3":"IND","admin_name":"Mahārāshtra","capital":"","population":1486053},{"city":"Valencia","city_ascii":"Valencia","lat":10.1833,"lng":-68,"country":"Venezuela","iso2":"VE","iso3":"VEN","admin_name":"Carabobo","capital":"admin","population":1484430},{"city":"Onitsha","city_ascii":"Onitsha","lat":6.1667,"lng":6.7833,"country":"Nigeria","iso2":"NG","iso3":"NGA","admin_name":"Anambra","capital":"minor","population":1483000},{"city":"Abu Dhabi","city_ascii":"Abu Dhabi","lat":24.4667,"lng":54.3667,"country":"United Arab Emirates","iso2":"AE","iso3":"ARE","admin_name":"Abū Z̧aby","capital":"primary","population":1483000},{"city":"Zapopan","city_ascii":"Zapopan","lat":20.7167,"lng":-103.4,"country":"Mexico","iso2":"MX","iso3":"MEX","admin_name":"Jalisco","capital":"minor","population":1476491},{"city":"Daejeon","city_ascii":"Daejeon","lat":36.35,"lng":127.385,"country":"Korea, South","iso2":"KR","iso3":"KOR","admin_name":"Daejeon","capital":"admin","population":1475221},{"city":"Bronx","city_ascii":"Bronx","lat":40.8501,"lng":-73.8662,"country":"United States","iso2":"US","iso3":"USA","admin_name":"New York","capital":"","population":1472654},{"city":"Yekaterinburg","city_ascii":"Yekaterinburg","lat":56.8356,"lng":60.6128,"country":"Russia","iso2":"RU","iso3":"RUS","admin_name":"Sverdlovskaya Oblast’","capital":"admin","population":1468833},{"city":"Huazhou","city_ascii":"Huazhou","lat":32.688,"lng":112.087,"country":"China","iso2":"CN","iso3":"CHN","admin_name":"Henan","capital":"minor","population":1468061},{"city":"Jinhua","city_ascii":"Jinhua","lat":29.079,"lng":119.647,"country":"China","iso2":"CN","iso3":"CHN","admin_name":"Zhejiang","capital":"minor","population":1463990},{"city":"Kyōto","city_ascii":"Kyoto","lat":35.0117,"lng":135.7683,"country":"Japan","iso2":"JP","iso3":"JPN","admin_name":"Kyōto","capital":"admin","population":1463723},{"city":"Amsterdam","city_ascii":"Amsterdam","lat":52.3728,"lng":4.8936,"country":"Netherlands","iso2":"NL","iso3":"NLD","admin_name":"Noord-Holland","capital":"primary","population":1459402},{"city":"Pizhou","city_ascii":"Pizhou","lat":34.398,"lng":117.89,"country":"China","iso2":"CN","iso3":"CHN","admin_name":"Jiangsu","capital":"","population":1458038},{"city":"Kismaayo","city_ascii":"Kismaayo","lat":-0.3581,"lng":42.5453,"country":"Somalia","iso2":"SO","iso3":"SOM","admin_name":"Jubbada Hoose","capital":"admin","population":1458000},{"city":"Yangshe","city_ascii":"Yangshe","lat":31.8767,"lng":120.556,"country":"China","iso2":"CN","iso3":"CHN","admin_name":"Jiangsu","capital":"minor","population":1447600},{"city":"Virginia Beach","city_ascii":"Virginia Beach","lat":36.7335,"lng":-76.0435,"country":"United States","iso2":"US","iso3":"USA","admin_name":"Virginia","capital":"","population":1443020},{"city":"Dakar","city_ascii":"Dakar","lat":14.6928,"lng":-17.4467,"country":"Senegal","iso2":"SN","iso3":"SEN","admin_name":"Dakar","capital":"primary","population":1438725},{"city":"Goiânia","city_ascii":"Goiania","lat":-16.6667,"lng":-49.25,"country":"Brazil","iso2":"BR","iso3":"BRA","admin_name":"Goiás","capital":"admin","population":1437237},{"city":"Charlotte","city_ascii":"Charlotte","lat":35.2083,"lng":-80.8303,"country":"United States","iso2":"US","iso3":"USA","admin_name":"North Carolina","capital":"","population":1427444},{"city":"Rui’an","city_ascii":"Rui'an","lat":27.7833,"lng":120.625,"country":"China","iso2":"CN","iso3":"CHN","admin_name":"Zhejiang","capital":"","population":1424667},{"city":"Muscat","city_ascii":"Muscat","lat":23.6139,"lng":58.5922,"country":"Oman","iso2":"OM","iso3":"OMN","admin_name":"Masqaţ","capital":"primary","population":1421409},{"city":"Kharkiv","city_ascii":"Kharkiv","lat":49.9925,"lng":36.2311,"country":"Ukraine","iso2":"UA","iso3":"UKR","admin_name":"Kharkivska Oblast","capital":"admin","population":1421125},{"city":"Wenling","city_ascii":"Wenling","lat":28.3667,"lng":121.3667,"country":"China","iso2":"CN","iso3":"CHN","admin_name":"Zhejiang","capital":"","population":1416199},{"city":"Gaozhou","city_ascii":"Gaozhou","lat":21.9244,"lng":110.8422,"country":"China","iso2":"CN","iso3":"CHN","admin_name":"Guangdong","capital":"minor","population":1414100},{"city":"Farīdābād","city_ascii":"Faridabad","lat":28.4211,"lng":77.3078,"country":"India","iso2":"IN","iso3":"IND","admin_name":"Haryāna","capital":"","population":1414050},{"city":"Medina","city_ascii":"Medina","lat":24.47,"lng":39.61,"country":"Saudi Arabia","iso2":"SA","iso3":"SAU","admin_name":"Al Madīnah al Munawwarah","capital":"admin","population":1411599},{"city":"Khulna","city_ascii":"Khulna","lat":22.8167,"lng":89.55,"country":"Bangladesh","iso2":"BD","iso3":"BGD","admin_name":"Khulna","capital":"admin","population":1400689},{"city":"Ulaanbaatar","city_ascii":"Ulaanbaatar","lat":47.9203,"lng":106.9172,"country":"Mongolia","iso2":"MN","iso3":"MNG","admin_name":"Ulaanbaatar","capital":"primary","population":1396288},{"city":"Fuqing","city_ascii":"Fuqing","lat":25.7167,"lng":119.3833,"country":"China","iso2":"CN","iso3":"CHN","admin_name":"Fujian","capital":"minor","population":1390487},{"city":"Kayseri","city_ascii":"Kayseri","lat":38.7225,"lng":35.4875,"country":"Turkey","iso2":"TR","iso3":"TUR","admin_name":"Kayseri","capital":"admin","population":1389680},{"city":"Tel Aviv-Yafo","city_ascii":"Tel Aviv-Yafo","lat":32.08,"lng":34.78,"country":"Israel","iso2":"IL","iso3":"ISR","admin_name":"Tel Aviv","capital":"admin","population":1388400},{"city":"Wuzhong","city_ascii":"Wuzhong","lat":37.9978,"lng":106.1986,"country":"China","iso2":"CN","iso3":"CHN","admin_name":"Ningxia","capital":"minor","population":1382713},{"city":"Pingdu","city_ascii":"Pingdu","lat":36.7769,"lng":119.9884,"country":"China","iso2":"CN","iso3":"CHN","admin_name":"Shandong","capital":"","population":1378900},{"city":"Sangereng","city_ascii":"Sangereng","lat":-6.2889,"lng":106.7181,"country":"Indonesia","iso2":"ID","iso3":"IDN","admin_name":"Jawa Barat","capital":"","population":1378466},{"city":"Yangquan","city_ascii":"Yangquan","lat":37.8571,"lng":113.5804,"country":"China","iso2":"CN","iso3":"CHN","admin_name":"Shanxi","capital":"minor","population":1368502},{"city":"Samsun","city_ascii":"Samsun","lat":41.2903,"lng":36.3336,"country":"Turkey","iso2":"TR","iso3":"TUR","admin_name":"Samsun","capital":"admin","population":1368488},{"city":"Yutan","city_ascii":"Yutan","lat":28.278,"lng":112.552,"country":"China","iso2":"CN","iso3":"CHN","admin_name":"Hunan","capital":"minor","population":1368117},{"city":"Copenhagen","city_ascii":"Copenhagen","lat":55.6761,"lng":12.5683,"country":"Denmark","iso2":"DK","iso3":"DNK","admin_name":"Hovedstaden","capital":"primary","population":1366301},