[{"city":"Burien","city_ascii":"Burien","lat":47.4762,"lng":-122.3394,"country":"United States","iso2":"US","iso3":"USA","admin_name":"Washington","capital":"","population":51505},{"city":"Barri","city_ascii":"Barri","lat":51.405,"lng":-3.27,"country":"United Kingdom","iso2":"GB","iso3":"GBR","admin_name":"Vale of Glamorgan, The","capital":"","population":51502},{"city":"Baham","city_ascii":"Baham","lat":5.3333,"lng":10.4,"country":"Cameroon","iso2":"CM","iso3":"CMR","admin_name":"Ouest","capital":"","population":51500},{"city":"Abdul Hakim","city_ascii":"Abdul Hakim","lat":30.55,"lng":72.1328,"country":"Pakistan","iso2":"PK","iso3":"PAK","admin_name":"Punjab","capital":"","population":51494},{"city":"Ravensburg","city_ascii":"Ravensburg","lat":47.7831,"lng":9.6114,"country":"Germany","iso2":"DE","iso3":"DEU","admin_name":"Baden-Württemberg","capital":"minor","population":51482},{"city":"Râs el Oued","city_ascii":"Ras el Oued","lat":35.9497,"lng":5.0358,"country":"Algeria","iso2":"DZ","iso3":"DZA","admin_name":"Bordj Bou Arréridj","capital":"","population":51482},{"city":"Sombor","city_ascii":"Sombor","lat":45.7833,"lng":19.1167,"country":"Serbia","iso2":"RS","iso3":"SRB","admin_name":"Sombor","capital":"admin","population":51471},{"city":"Bantacan","city_ascii":"Bantacan","lat":7.5483,"lng":126.1381,"country":"Philippines","iso2":"PH","iso3":"PHL","admin_name":"Davao de Oro","capital":"","population":51466},{"city":"Böblingen","city_ascii":"Boblingen","lat":48.6856,"lng":9.0153,"country":"Germany","iso2":"DE","iso3":"DEU","admin_name":"Baden-Württemberg","capital":"minor","population":51460},{"city":"Dunwoody","city_ascii":"Dunwoody","lat":33.9418,"lng":-84.3122,"country":"United States","iso2":"US","iso3":"USA","admin_name":"Georgia","capital":"","population":51458},{"city":"Ensenada Berisso","city_ascii":"Ensenada Berisso","lat":-34.8667,"lng":-57.9,"country":"Argentina","iso2":"AR","iso3":"ARG","admin_name":"Buenos Aires","capital":"","population":51448},{"city":"Viana","city_ascii":"Viana","lat":-3.22,"lng":-45.0039,"country":"Brazil","iso2":"BR","iso3":"BRA","admin_name":"Maranhão","capital":"minor","population":51442},{"city":"Sūsangerd","city_ascii":"Susangerd","lat":31.5569,"lng":48.1894,"country":"Iran","iso2":"IR","iso3":"IRN","admin_name":"Khūzestān","capital":"minor","population":51431},{"city":"Mangochi","city_ascii":"Mangochi","lat":-14.4667,"lng":35.2667,"country":"Malawi","iso2":"MW","iso3":"MWI","admin_name":"Mangochi","capital":"admin","population":51429},{"city":"Willenhall","city_ascii":"Willenhall","lat":52.5798,"lng":-2.0605,"country":"United Kingdom","iso2":"GB","iso3":"GBR","admin_name":"Walsall","capital":"","population":51429},{"city":"Peine","city_ascii":"Peine","lat":52.3203,"lng":10.2336,"country":"Germany","iso2":"DE","iso3":"DEU","admin_name":"Lower Saxony","capital":"minor","population":51411},{"city":"Cerca la Source","city_ascii":"Cerca la Source","lat":19.1667,"lng":-71.7833,"country":"Haiti","iso2":"HT","iso3":"HTI","admin_name":"Centre","capital":"","population":51410},{"city":"El Kelaa des Srarhna","city_ascii":"El Kelaa des Srarhna","lat":32.0481,"lng":-7.4083,"country":"Morocco","iso2":"MA","iso3":"MAR","admin_name":"Marrakech-Safi","capital":"","population":51404},{"city":"Bootle","city_ascii":"Bootle","lat":53.4457,"lng":-2.9891,"country":"United Kingdom","iso2":"GB","iso3":"GBR","admin_name":"Sefton","capital":"","population":51394},{"city":"Stratford","city_ascii":"Stratford","lat":51.5423,"lng":-0.0026,"country":"United Kingdom","iso2":"GB","iso3":"GBR","admin_name":"Newham","capital":"","population":51387},{"city":"Speyer","city_ascii":"Speyer","lat":49.3194,"lng":8.4311,"country":"Germany","iso2":"DE","iso3":"DEU","admin_name":"Rhineland-Palatinate","capital":"minor","population":51368},{"city":"Torrelavega","city_ascii":"Torrelavega","lat":43.3531,"lng":-4.0458,"country":"Spain","iso2":"ES","iso3":"ESP","admin_name":"Cantabria","capital":"","population":51361},{"city":"Uzlovaya","city_ascii":"Uzlovaya","lat":53.9833,"lng":38.1667,"country":"Russia","iso2":"RU","iso3":"RUS","admin_name":"Tul’skaya Oblast’","capital":"minor","population":51358},{"city":"Morrinhos","city_ascii":"Morrinhos","lat":-17.7297,"lng":-49.0783,"country":"Brazil","iso2":"BR","iso3":"BRA","admin_name":"Goiás","capital":"minor","population":51351},{"city":"Nentón","city_ascii":"Nenton","lat":15.8,"lng":-91.75,"country":"Guatemala","iso2":"GT","iso3":"GTM","admin_name":"Huehuetenango","capital":"minor","population":51349},{"city":"Koumantou","city_ascii":"Koumantou","lat":11.4167,"lng":-6.8333,"country":"Mali","iso2":"ML","iso3":"MLI","admin_name":"Sikasso","capital":"","population":51348},{"city":"Gopālganj","city_ascii":"Gopalganj","lat":23.01,"lng":89.82,"country":"Bangladesh","iso2":"BD","iso3":"BGD","admin_name":"Dhaka","capital":"","population":51346},{"city":"Boukadir","city_ascii":"Boukadir","lat":36.0667,"lng":1.1333,"country":"Algeria","iso2":"DZ","iso3":"DZA","admin_name":"Chlef","capital":"","population":51340},{"city":"Folkestone","city_ascii":"Folkestone","lat":51.0792,"lng":1.1794,"country":"United Kingdom","iso2":"GB","iso3":"GBR","admin_name":"Kent","capital":"","population":51337},{"city":"’Aïn Merane","city_ascii":"'Ain Merane","lat":36.1628,"lng":0.9706,"country":"Algeria","iso2":"DZ","iso3":"DZA","admin_name":"Relizane","capital":"","population":51326},{"city":"Tadmur","city_ascii":"Tadmur","lat":34.56,"lng":38.2672,"country":"Syria","iso2":"SY","iso3":"SYR","admin_name":"Ḩimş","capital":"minor","population":51323},{"city":"Brandon","city_ascii":"Brandon","lat":49.8483,"lng":-99.95,"country":"Canada","iso2":"CA","iso3":"CAN","admin_name":"Manitoba","capital":"","population":51313},{"city":"Rastatt","city_ascii":"Rastatt","lat":48.85,"lng":8.2,"country":"Germany","iso2":"DE","iso3":"DEU","admin_name":"Baden-Württemberg","capital":"minor","population":51310},{"city":"Samut Prakan","city_ascii":"Samut Prakan","lat":13.5897,"lng":100.6386,"country":"Thailand","iso2":"TH","iso3":"THA","admin_name":"Samut Prakan","capital":"admin","population":51309},{"city":"Kalawana","city_ascii":"Kalawana","lat":6.5315,"lng":80.3967,"country":"Sri Lanka","iso2":"LK","iso3":"LKA","admin_name":"Sabaragamuwa","capital":"","population":51307},{"city":"Sapé","city_ascii":"Sape","lat":-7.095,"lng":-35.2328,"country":"Brazil","iso2":"BR","iso3":"BRA","admin_name":"Paraíba","capital":"minor","population":51306},{"city":"Lənkəran","city_ascii":"Lankaran","lat":38.7536,"lng":48.8511,"country":"Azerbaijan","iso2":"AZ","iso3":"AZE","admin_name":"Lənkəran","capital":"admin","population":51300},{"city":"Rincón de la Victoria","city_ascii":"Rincon de la Victoria","lat":36.7167,"lng":-4.2833,"country":"Spain","iso2":"ES","iso3":"ESP","admin_name":"Andalusia","capital":"","population":51300},{"city":"Kyzyl-Kyya","city_ascii":"Kyzyl-Kyya","lat":40.2611,"lng":72.1306,"country":"Kyrgyzstan","iso2":"KG","iso3":"KGZ","admin_name":"Batken","capital":"","population":51300},{"city":"Palm Desert","city_ascii":"Palm Desert","lat":33.7378,"lng":-116.3695,"country":"United States","iso2":"US","iso3":"USA","admin_name":"California","capital":"","population":51290},{"city":"Puerto Francisco de Orellana","city_ascii":"Puerto Francisco de Orellana","lat":-0.4625,"lng":-76.9842,"country":"Ecuador","iso2":"EC","iso3":"ECU","admin_name":"Orellana","capital":"admin","population":51281},{"city":"Cutervo","city_ascii":"Cutervo","lat":-6.3778,"lng":-78.8167,"country":"Peru","iso2":"PE","iso3":"PER","admin_name":"Cajamarca","capital":"","population":51272},{"city":"Peranāmpattu","city_ascii":"Peranampattu","lat":12.9387,"lng":78.7028,"country":"India","iso2":"IN","iso3":"IND","admin_name":"Tamil Nādu","capital":"","population":51271},{"city":"Troy","city_ascii":"Troy","lat":42.7354,"lng":-73.6751,"country":"United States","iso2":"US","iso3":"USA","admin_name":"New York","capital":"","population":51268},{"city":"Guarne","city_ascii":"Guarne","lat":6.28,"lng":-75.4427,"country":"Colombia","iso2":"CO","iso3":"COL","admin_name":"Antioquia","capital":"minor","population":51265},{"city":"Tamalous","city_ascii":"Tamalous","lat":36.8361,"lng":6.6417,"country":"Algeria","iso2":"DZ","iso3":"DZA","admin_name":"Skikda","capital":"","population":51262},{"city":"Racibórz","city_ascii":"Raciborz","lat":50.0833,"lng":18.2333,"country":"Poland","iso2":"PL","iso3":"POL","admin_name":"Śląskie","capital":"minor","population":51257},{"city":"Rongat","city_ascii":"Rongat","lat":12.4667,"lng":92.9333,"country":"India","iso2":"IN","iso3":"IND","admin_name":"Andaman and Nicobar Islands","capital":"","population":51247},{"city":"Wāliṅ","city_ascii":"Walin","lat":27.9889,"lng":83.7675,"country":"Nepal","iso2":"NP","iso3":"NPL","admin_name":"","capital":"","population":51243},{"city":"Dartford","city_ascii":"Dartford","lat":51.4444,"lng":0.2172,"country":"United Kingdom","iso2":"GB","iso3":"GBR","admin_name":"Kent","capital":"","population":51240},{"city":"Dabhoi","city_ascii":"Dabhoi","lat":22.1376,"lng":73.4162,"country":"India","iso2":"IN","iso3":"IND","admin_name":"Gujarāt","capital":"","population":51240},{"city":"Montijo","city_ascii":"Montijo","lat":38.6833,"lng":-8.9,"country":"Portugal","iso2":"PT","iso3":"PRT","admin_name":"Setúbal","capital":"minor","population":51222},{"city":"Sartrouville","city_ascii":"Sartrouville","lat":48.9372,"lng":2.1644,"country":"France","iso2":"FR","iso3":"FRA","admin_name":"Île-de-France","capital":"","population":51220},{"city":"Severomorsk","city_ascii":"Severomorsk","lat":69.0667,"lng":33.4167,"country":"Russia","iso2":"RU","iso3":"RUS","admin_name":"Murmanskaya Oblast’","capital":"minor","population":51209},{"city":"Herning","city_ascii":"Herning","lat":56.1333,"lng":8.9833,"country":"Denmark","iso2":"DK","iso3":"DNK","admin_name":"Midtjylland","capital":"minor","population":51193},{"city":"Salekhard","city_ascii":"Salekhard","lat":66.5333,"lng":66.6,"country":"Russia","iso2":"RU","iso3":"RUS","admin_name":"Yamalo-Nenetskiy Avtonomnyy Okrug","capital":"admin","population":51188},{"city":"Bargny","city_ascii":"Bargny","lat":14.6939,"lng":-17.2336,"country":"Senegal","iso2":"SN","iso3":"SEN","admin_name":"Dakar","capital":"","population":51188},{"city":"Bhavāni","city_ascii":"Bhavani","lat":11.4455,"lng":77.6821,"country":"India","iso2":"IN","iso3":"IND","admin_name":"Tamil Nādu","capital":"","population":51186},{"city":"Puthuppariyāram","city_ascii":"Puthuppariyaram","lat":10.8036,"lng":76.6221,"country":"India","iso2":"IN","iso3":"IND","admin_name":"Kerala","capital":"","population":51185},{"city":"Mascouche","city_ascii":"Mascouche","lat":45.75,"lng":-73.6,"country":"Canada","iso2":"CA","iso3":"CAN","admin_name":"Quebec","capital":"","population":51183},{"city":"Collierville","city_ascii":"Collierville","lat":35.047,"lng":-89.6987,"country":"United States","iso2":"US","iso3":"USA","admin_name":"Tennessee","capital":"","population":51170},{"city":"Sidlaghatta","city_ascii":"Sidlaghatta","lat":13.39,"lng":77.86,"country":"India","iso2":"IN","iso3":"IND","admin_name":"Karnātaka","capital":"","population":51159},{"city":"Jūrmala","city_ascii":"Jurmala","lat":56.9681,"lng":23.7703,"country":"Latvia","iso2":"LV","iso3":"LVA","admin_name":"Jūrmala","capital":"admin","population":51158},{"city":"Korçë","city_ascii":"Korce","lat":40.6167,"lng":20.7667,"country":"Albania","iso2":"AL","iso3":"ALB","admin_name":"Korçë","capital":"admin","population":51152},{"city":"Levittown","city_ascii":"Levittown","lat":40.1533,"lng":-74.8531,"country":"United States","iso2":"US","iso3":"USA","admin_name":"Pennsylvania","capital":"","population":51152},{"city":"Leopoldina","city_ascii":"Leopoldina","lat":-21.5319,"lng":-42.6428,"country":"Brazil","iso2":"BR","iso3":"BRA","admin_name":"Minas Gerais","capital":"","population":51145},{"city":"Martin","city_ascii":"Martin","lat":49.065,"lng":18.9219,"country":"Slovakia","iso2":"SK","iso3":"SVK","admin_name":"Žilina","capital":"minor","population":51139},{"city":"Tsukubamirai","city_ascii":"Tsukubamirai","lat":35.9631,"lng":140.037,"country":"Japan","iso2":"JP","iso3":"JPN","admin_name":"Ibaraki","capital":"","population":51134},{"city":"Fuchū","city_ascii":"Fuchu","lat":34.3925,"lng":132.5044,"country":"Japan","iso2":"JP","iso3":"JPN","admin_name":"Hiroshima","capital":"","population":51096},{"city":"Barra","city_ascii":"Barra","lat":-11.0889,"lng":-43.1419,"country":"Brazil","iso2":"BR","iso3":"BRA","admin_name":"Bahia","capital":"minor","population":51092},{"city":"Brejo Santo","city_ascii":"Brejo Santo","lat":-7.4833,"lng":-39,"country":"Brazil","iso2":"BR","iso3":"BRA","admin_name":"Ceará","capital":"minor","population":51090},{"city":"Marpalli","city_ascii":"Marpalli","lat":17.5389,"lng":77.7708,"country":"India","iso2":"IN","iso3":"IND","admin_name":"Telangāna","capital":"","population":51090},{"city":"Bowringpet","city_ascii":"Bowringpet","lat":12.9912,"lng":78.178,"country":"India","iso2":"IN","iso3":"IND","admin_name":"Karnātaka","capital":"","population":51087},{"city":"Knysna","city_ascii":"Knysna","lat":-34.0356,"lng":23.0489,"country":"South Africa","iso2":"ZA","iso3":"ZAF","admin_name":"Western Cape","capital":"","population":51078},{"city":"Sar-e Pul","city_ascii":"Sar-e Pul","lat":36.2214,"lng":65.9278,"country":"Afghanistan","iso2":"AF","iso3":"AFG","admin_name":"Sar-e Pul","capital":"admin","population":51075},{"city":"Ocampo","city_ascii":"Ocampo","lat":13.5594,"lng":123.3761,"country":"Philippines","iso2":"PH","iso3":"PHL","admin_name":"Camarines Sur","capital":"","population":51073},{"city":"San Narciso","city_ascii":"San Narciso","lat":13.5677,"lng":122.5667,"country":"Philippines","iso2":"PH","iso3":"PHL","admin_name":"Quezon","capital":"","population":51058},{"city":"Aurangābād","city_ascii":"Aurangabad","lat":27.894,"lng":77.369,"country":"India","iso2":"IN","iso3":"IND","admin_name":"Haryāna","capital":"","population":51050},{"city":"Hodal","city_ascii":"Hodal","lat":27.894,"lng":77.369,"country":"India","iso2":"IN","iso3":"IND","admin_name":"Haryāna","capital":"","population":51050},{"city":"Snezhinsk","city_ascii":"Snezhinsk","lat":56.0833,"lng":60.7333,"country":"Russia","iso2":"RU","iso3":"RUS","admin_name":"Chelyabinskaya Oblast’","capital":"","population":51048},{"city":"Fatwa","city_ascii":"Fatwa","lat":25.5096,"lng":85.305,"country":"India","iso2":"IN","iso3":"IND","admin_name":"Bihār","capital":"","population":51047},{"city":"Rosemead","city_ascii":"Rosemead","lat":34.0689,"lng":-118.0823,"country":"United States","iso2":"US","iso3":"USA","admin_name":"California","capital":"","population":51043},{"city":"Rosso","city_ascii":"Rosso","lat":16.5128,"lng":-15.805,"country":"Mauritania","iso2":"MR","iso3":"MRT","admin_name":"Trarza","capital":"admin","population":51026},{"city":"Kot Mumin","city_ascii":"Kot Mumin","lat":32.1883,"lng":73.0286,"country":"Pakistan","iso2":"PK","iso3":"PAK","admin_name":"Punjab","capital":"","population":51021},{"city":"Shimencun","city_ascii":"Shimencun","lat":30.6265,"lng":120.4417,"country":"China","iso2":"CN","iso3":"CHN","admin_name":"Zhejiang","capital":"","population":51021},{"city":"Weymouth","city_ascii":"Weymouth","lat":50.6097,"lng":-2.4547,"country":"United Kingdom","iso2":"GB","iso3":"GBR","admin_name":"Dorset","capital":"","population":51012},{"city":"Segovia","city_ascii":"Segovia","lat":40.9481,"lng":-4.1183,"country":"Spain","iso2":"ES","iso3":"ESP","admin_name":"Castille-Leon","capital":"minor","population":51011},{"city":"Kalbā","city_ascii":"Kalba","lat":25.0742,"lng":56.3553,"country":"United Arab Emirates","iso2":"AE","iso3":"ARE","admin_name":"Ash Shāriqah","capital":"","population":51000},{"city":"Iormughanlo","city_ascii":"Iormughanlo","lat":41.5961,"lng":45.5294,"country":"Georgia","iso2":"GE","iso3":"GEO","admin_name":"K’akheti","capital":"","population":51000},{"city":"Umán","city_ascii":"Uman","lat":20.8833,"lng":-89.75,"country":"Mexico","iso2":"MX","iso3":"MEX","admin_name":"Yucatán","capital":"","population":50993},{"city":"Country Club","city_ascii":"Country Club","lat":25.9407,"lng":-80.3102,"country":"United States","iso2":"US","iso3":"USA","admin_name":"Florida","capital":"","population":50975},{"city":"Tucurú","city_ascii":"Tucuru","lat":15.3,"lng":-90.0667,"country":"Guatemala","iso2":"GT","iso3":"GTM","admin_name":"Alta Verapaz","capital":"minor","population":50971},{"city":"Massy","city_ascii":"Massy","lat":48.7309,"lng":2.2713,"country":"France","iso2":"FR","iso3":"FRA","admin_name":"Île-de-France","capital":"","population":50962},{"city":"Enid","city_ascii":"Enid","lat":36.4063,"lng":-97.87,"country":"United States","iso2":"US","iso3":"USA","admin_name":"Oklahoma","capital":"","population":50961},{"city":"Horsham","city_ascii":"Horsham","lat":51.062,"lng":-0.325,"country":"United Kingdom","iso2":"GB","iso3":"GBR","admin_name":"West Sussex","capital":"","population":50934},{"city":"Cumbernauld","city_ascii":"Cumbernauld","lat":55.945,"lng":-3.994,"country":"United Kingdom","iso2":"GB","iso3":"GBR","admin_name":"North Lanarkshire","capital":"","population":50920},{"city":"Pardwāl","city_ascii":"Pardwal","lat":32.3286,"lng":76.1153,"country":"India","iso2":"IN","iso3":"IND","admin_name":"Himāchal Pradesh","capital":"","population":50920},{"city":"Djamaa","city_ascii":"Djamaa","lat":33.5333,"lng":6,"country":"Algeria","iso2":"DZ","iso3":"DZA","admin_name":"Ouargla","capital":"","population":50916},{"city":"Cuyahoga Falls","city_ascii":"Cuyahoga Falls","lat":41.1641,"lng":-81.5207,"country":"United States","iso2":"US","iso3":"USA","admin_name":"Ohio","capital":"","population":50916},{"city":"Guaxupé","city_ascii":"Guaxupe","lat":-21.305,"lng":-46.7128,"country":"Brazil","iso2":"BR","iso3":"BRA","admin_name":"Minas Gerais","capital":"","population":50911},{"city":"Tobias Barreto","city_ascii":"Tobias Barreto","lat":-11.1839,"lng":-37.9978,"country":"Brazil","iso2":"BR","iso3":"BRA","admin_name":"Sergipe","capital":"","population":50905},{"city":"Esher","city_ascii":"Esher","lat":51.3691,"lng":-0.365,"country":"United Kingdom","iso2":"GB","iso3":"GBR","admin_name":"Surrey","capital":"","population":50904},{"city":"Metpalli","city_ascii":"Metpalli","lat":18.8492,"lng":78.6262,"country":"India","iso2":"IN","iso3":"IND","admin_name":"Telangāna","capital":"","population":50902},{"city":"Kalamansig","city_ascii":"Kalamansig","lat":6.57,"lng":124.05,"country":"Philippines","iso2":"PH","iso3":"PHL","admin_name":"Sultan Kudarat","capital":"","population":50900},{"city":"Mishawaka","city_ascii":"Mishawaka","lat":41.6742,"lng":-86.1666,"country":"United States","iso2":"US","iso3":"USA","admin_name":"Indiana","capital":"","population":50899},{"city":"Columbus","city_ascii":"Columbus","lat":39.2093,"lng":-85.9183,"country":"United States","iso2":"US","iso3":"USA","admin_name":"Indiana","capital":"","population":50896},{"city":"Andover","city_ascii":"Andover","lat":51.208,"lng":-1.48,"country":"United Kingdom","iso2":"GB","iso3":"GBR","admin_name":"Hampshire","capital":"","population":50887},{"city":"Kirishi","city_ascii":"Kirishi","lat":59.45,"lng":32.0167,"country":"Russia","iso2":"RU","iso3":"RUS","admin_name":"Leningradskaya Oblast’","capital":"minor","population":50885},{"city":"Juruti","city_ascii":"Juruti","lat":-2.1522,"lng":-56.0922,"country":"Brazil","iso2":"BR","iso3":"BRA","admin_name":"Pará","capital":"","population":50881},{"city":"Babīlā","city_ascii":"Babila","lat":33.4728,"lng":36.3344,"country":"Syria","iso2":"SY","iso3":"SYR","admin_name":"Rīf Dimashq","capital":"minor","population":50880},{"city":"Silkeborg","city_ascii":"Silkeborg","lat":56.1833,"lng":9.5517,"country":"Denmark","iso2":"DK","iso3":"DNK","admin_name":"Midtjylland","capital":"minor","population":50866},{"city":"Repalle","city_ascii":"Repalle","lat":16.0172,"lng":80.8294,"country":"India","iso2":"IN","iso3":"IND","admin_name":"Andhra Pradesh","capital":"","population":50866},{"city":"Huaiyang","city_ascii":"Huaiyang","lat":37.7701,"lng":114.5312,"country":"China","iso2":"CN","iso3":"CHN","admin_name":"Hebei","capital":"minor","population":50859},{"city":"Skenderaj","city_ascii":"Skenderaj","lat":42.7333,"lng":20.7833,"country":"Kosovo","iso2":"XK","iso3":"XKS","admin_name":"Skenderaj","capital":"admin","population":50858},{"city":"Mabini","city_ascii":"Mabini","lat":13.72,"lng":120.9,"country":"Philippines","iso2":"PH","iso3":"PHL","admin_name":"Batangas","capital":"","population":50858},{"city":"Kyōtango","city_ascii":"Kyotango","lat":35.6242,"lng":135.0611,"country":"Japan","iso2":"JP","iso3":"JPN","admin_name":"Kyōto","capital":"","population":50857},{"city":"Miyako","city_ascii":"Miyako","lat":39.6414,"lng":141.9571,"country":"Japan","iso2":"JP","iso3":"JPN","admin_name":"Iwate","capital":"","population":50855},{"city":"Pontal","city_ascii":"Pontal","lat":-21.0225,"lng":-48.0372,"country":"Brazil","iso2":"BR","iso3":"BRA","admin_name":"São Paulo","capital":"","population":50852},{"city":"Campos do Jordão","city_ascii":"Campos do Jordao","lat":-22.7389,"lng":-45.5908,"country":"Brazil","iso2":"BR","iso3":"BRA","admin_name":"São Paulo","capital":"","population":50852},{"city":"Teplice","city_ascii":"Teplice","lat":50.6444,"lng":13.8319,"country":"Czechia","iso2":"CZ","iso3":"CZE","admin_name":"Ústecký Kraj","capital":"","population":50843},{"city":"Summerville","city_ascii":"Summerville","lat":33.0016,"lng":-80.1799,"country":"United States","iso2":"US","iso3":"USA","admin_name":"South Carolina","capital":"","population":50839},{"city":"Vigia","city_ascii":"Vigia","lat":-0.8583,"lng":-48.1417,"country":"Brazil","iso2":"BR","iso3":"BRA","admin_name":"Pará","capital":"minor","population":50832},{"city":"Livingston","city_ascii":"Livingston","lat":55.8834,"lng":-3.5157,"country":"United Kingdom","iso2":"GB","iso3":"GBR","admin_name":"West Lothian","capital":"","population":50826},{"city":"Nicoya","city_ascii":"Nicoya","lat":10.1024,"lng":-85.4431,"country":"Costa Rica","iso2":"CR","iso3":"CRI","admin_name":"Guanacaste","capital":"","population":50825},{"city":"Banī Walīd","city_ascii":"Bani Walid","lat":31.7619,"lng":14.0139,"country":"Libya","iso2":"LY","iso3":"LBY","admin_name":"Mişrātah","capital":"","population":50824},{"city":"Cheremkhovo","city_ascii":"Cheremkhovo","lat":53.15,"lng":103.0833,"country":"Russia","iso2":"RU","iso3":"RUS","admin_name":"Irkutskaya Oblast’","capital":"","population":50819},{"city":"Çermik","city_ascii":"Cermik","lat":38.1372,"lng":39.4511,"country":"Turkey","iso2":"TR","iso3":"TUR","admin_name":"Diyarbakır","capital":"minor","population":50812},{"city":"Levittown","city_ascii":"Levittown","lat":40.7241,"lng":-73.5125,"country":"United States","iso2":"US","iso3":"USA","admin_name":"New York","capital":"","population":50804},{"city":"Tŭrtkŭl","city_ascii":"Turtkul","lat":41.55,"lng":61,"country":"Uzbekistan","iso2":"UZ","iso3":"UZB","admin_name":"Qoraqalpog‘iston","capital":"","population":50800},{"city":"Geyve","city_ascii":"Geyve","lat":40.5089,"lng":30.29,"country":"Turkey","iso2":"TR","iso3":"TUR","admin_name":"Sakarya","capital":"minor","population":50799},{"city":"Kuchaiburi","city_ascii":"Kuchaiburi","lat":22.27,"lng":86.17,"country":"India","iso2":"IN","iso3":"IND","admin_name":"Odisha","capital":"","population":50798},{"city":"Vyāra","city_ascii":"Vyara","lat":21.12,"lng":73.4,"country":"India","iso2":"IN","iso3":"IND","admin_name":"Gujarāt","capital":"","population":50789},{"city":"Whangarei","city_ascii":"Whangarei","lat":-35.725,"lng":174.3236,"country":"New Zealand","iso2":"NZ","iso3":"NZL","admin_name":"Northland","capital":"admin","population":50784},{"city":"Zabīd","city_ascii":"Zabid","lat":14.2,"lng":43.3167,"country":"Yemen","iso2":"YE","iso3":"YEM","admin_name":"Al Ḩudaydah","capital":"minor","population":50781},{"city":"Sibsāgar","city_ascii":"Sibsagar","lat":26.98,"lng":94.63,"country":"India","iso2":"IN","iso3":"IND","admin_name":"Assam","capital":"","population":50781},{"city":"Irondequoit","city_ascii":"Irondequoit","lat":43.2096,"lng":-77.5705,"country":"United States","iso2":"US","iso3":"USA","admin_name":"New York","capital":"","population":50780},{"city":"Mahmudābād","city_ascii":"Mahmudabad","lat":27.3,"lng":81.12,"country":"India","iso2":"IN","iso3":"IND","admin_name":"Uttar Pradesh","capital":"","population":50777},{"city":"Elmshorn","city_ascii":"Elmshorn","lat":53.7519,"lng":9.6511,"country":"Germany","iso2":"DE","iso3":"DEU","admin_name":"Schleswig-Holstein","capital":"","population":50772},{"city":"Grapevine","city_ascii":"Grapevine","lat":32.9343,"lng":-97.0742,"country":"United States","iso2":"US","iso3":"USA","admin_name":"Texas","capital":"","population":50763},{"city":"Goshogawara","city_ascii":"Goshogawara","lat":40.808,"lng":140.4401,"country":"Japan","iso2":"JP","iso3":"JPN","admin_name":"Aomori","capital":"","population":50757},{"city":"Jarash","city_ascii":"Jarash","lat":32.2806,"lng":35.8972,"country":"Jordan","iso2":"JO","iso3":"JOR","admin_name":"Jarash","capital":"admin","population":50745},{"city":"Zumpango","city_ascii":"Zumpango","lat":19.7969,"lng":-99.0992,"country":"Mexico","iso2":"MX","iso3":"MEX","admin_name":"México","capital":"minor","population":50742},{"city":"Marigot","city_ascii":"Marigot","lat":18.2333,"lng":-72.3167,"country":"Haiti","iso2":"HT","iso3":"HTI","admin_name":"Sud-Est","capital":"","population":50734},{"city":"Covina","city_ascii":"Covina","lat":34.0903,"lng":-117.8818,"country":"United States","iso2":"US","iso3":"USA","admin_name":"California","capital":"","population":50717},{"city":"Rio Tinto","city_ascii":"Rio Tinto","lat":41.178,"lng":-8.56,"country":"Portugal","iso2":"PT","iso3":"PRT","admin_name":"Porto","capital":"","population":50713},{"city":"Ranchuelo","city_ascii":"Ranchuelo","lat":22.3764,"lng":-80.151,"country":"Cuba","iso2":"CU","iso3":"CUB","admin_name":"Villa Clara","capital":"minor","population":50708},{"city":"Quirinópolis","city_ascii":"Quirinopolis","lat":-18.4481,"lng":-50.4464,"country":"Brazil","iso2":"BR","iso3":"BRA","admin_name":"Goiás","capital":"minor","population":50701},{"city":"Beruniy","city_ascii":"Beruniy","lat":41.6833,"lng":60.75,"country":"Uzbekistan","iso2":"UZ","iso3":"UZB","admin_name":"Qoraqalpog‘iston","capital":"","population":50700},{"city":"Bikramganj","city_ascii":"Bikramganj","lat":25.2107,"lng":84.2551,"country":"India","iso2":"IN","iso3":"IND","admin_name":"Bihār","capital":"","population":50698},{"city":"Agrínio","city_ascii":"Agrinio","lat":38.6167,"lng":21.4,"country":"Greece","iso2":"GR","iso3":"GRC","admin_name":"Dytikí Elláda","capital":"minor","population":50690},{"city":"Göksun","city_ascii":"Goksun","lat":38.0211,"lng":36.4917,"country":"Turkey","iso2":"TR","iso3":"TUR","admin_name":"Kahramanmaraş","capital":"minor","population":50676},{"city":"Mweka","city_ascii":"Mweka","lat":-4.85,"lng":21.5667,"country":"Congo (Kinshasa)","iso2":"CD","iso3":"COD","admin_name":"Kasaï","capital":"","population":50675},{"city":"Chinchiná","city_ascii":"Chinchina","lat":4.9825,"lng":-75.6036,"country":"Colombia","iso2":"CO","iso3":"COL","admin_name":"Caldas","capital":"minor","population":50673},{"city":"Estância Velha","city_ascii":"Estancia Velha","lat":-29.65,"lng":-51.1833,"country":"Brazil","iso2":"BR","iso3":"BRA","admin_name":"Rio Grande do Sul","capital":"","population":50672},{"city":"Sunāmganj","city_ascii":"Sunamganj","lat":25.071,"lng":91.4035,"country":"Bangladesh","iso2":"BD","iso3":"BGD","admin_name":"Sylhet","capital":"","population":50664},{"city":"Milford city","city_ascii":"Milford city","lat":41.2255,"lng":-73.0625,"country":"United States","iso2":"US","iso3":"USA","admin_name":"Connecticut","capital":"","population":50664},{"city":"Neath","city_ascii":"Neath","lat":51.66,"lng":-3.81,"country":"United Kingdom","iso2":"GB","iso3":"GBR","admin_name":"Neath Port Talbot","capital":"","population":50658},{"city":"Chinnamanūr","city_ascii":"Chinnamanur","lat":9.8422,"lng":77.3857,"country":"India","iso2":"IN","iso3":"IND","admin_name":"Tamil Nādu","capital":"","population":50635},{"city":"Draper","city_ascii":"Draper","lat":40.4957,"lng":-111.8605,"country":"United States","iso2":"US","iso3":"USA","admin_name":"Utah","capital":"","population":50635},{"city":"Fafe","city_ascii":"Fafe","lat":41.45,"lng":-8.1667,"country":"Portugal","iso2":"PT","iso3":"PRT","admin_name":"Braga","capital":"minor","population":50633},{"city":"Cataingan","city_ascii":"Cataingan","lat":12.0028,"lng":123.9944,"country":"Philippines","iso2":"PH","iso3":"PHL","admin_name":"Masbate","capital":"","population":50623},{"city":"Kotka","city_ascii":"Kotka","lat":60.4667,"lng":26.9417,"country":"Finland","iso2":"FI","iso3":"FIN","admin_name":"Kymenlaakso","capital":"minor","population":50617},{"city":"El Jem","city_ascii":"El Jem","lat":35.2967,"lng":10.7128,"country":"Tunisia","iso2":"TN","iso3":"TUN","admin_name":"Mahdia","capital":"","population":50611},{"city":"Skien","city_ascii":"Skien","lat":59.2081,"lng":9.5528,"country":"Norway","iso2":"NO","iso3":"NOR","admin_name":"Vestfold og Telemark","capital":"admin","population":50607},{"city":"Lakewood","city_ascii":"Lakewood","lat":41.4822,"lng":-81.8008,"country":"United States","iso2":"US","iso3":"USA","admin_name":"Ohio","capital":"","population":50605},{"city":"Haskah Mēnah","city_ascii":"Haskah Menah","lat":34.1,"lng":70.4667,"country":"Afghanistan","iso2":"AF","iso3":"AFG","admin_name":"Nangarhār","capital":"","population":50595},{"city":"Jaru","city_ascii":"Jaru","lat":-10.4389,"lng":-62.4664,"country":"Brazil","iso2":"BR","iso3":"BRA","admin_name":"Rondônia","capital":"minor","population":50591},{"city":"Metema","city_ascii":"Metema","lat":12.9667,"lng":36.2,"country":"Ethiopia","iso2":"ET","iso3":"ETH","admin_name":"Āmara","capital":"","population":50581},{"city":"Sakaidechō","city_ascii":"Sakaidecho","lat":34.3167,"lng":133.8667,"country":"Japan","iso2":"JP","iso3":"JPN","admin_name":"Kagawa","capital":"","population":50577},{"city":"Catalina Foothills","city_ascii":"Catalina Foothills","lat":32.3046,"lng":-110.8838,"country":"United States","iso2":"US","iso3":"USA","admin_name":"Arizona","capital":"","population":50573},{"city":"Arao","city_ascii":"Arao","lat":32.9833,"lng":130.4353,"country":"Japan","iso2":"JP","iso3":"JPN","admin_name":"Kumamoto","capital":"","population":50570},{"city":"Ānaiyūr","city_ascii":"Anaiyur","lat":9.9615,"lng":78.1118,"country":"India","iso2":"IN","iso3":"IND","admin_name":"Tamil Nādu","capital":"","population":50569},{"city":"Kosamba","city_ascii":"Kosamba","lat":21.48,"lng":72.95,"country":"India","iso2":"IN","iso3":"IND","admin_name":"Gujarāt","capital":"","population":50568},{"city":"La Calera","city_ascii":"La Calera","lat":-32.7867,"lng":-71.1972,"country":"Chile","iso2":"CL","iso3":"CHL","admin_name":"Valparaíso","capital":"","population":50554},{"city":"Clacton-on-Sea","city_ascii":"Clacton-on-Sea","lat":51.7918,"lng":1.1457,"country":"United Kingdom","iso2":"GB","iso3":"GBR","admin_name":"Essex","capital":"","population":50548},{"city":"Cava de’ Tirreni","city_ascii":"Cava de' Tirreni","lat":40.7,"lng":14.7,"country":"Italy","iso2":"IT","iso3":"ITA","admin_name":"Campania","capital":"","population":50539},{"city":"Emden","city_ascii":"Emden","lat":53.3669,"lng":7.2061,"country":"Germany","iso2":"DE","iso3":"DEU","admin_name":"Lower Saxony","capital":"minor","population":50535},{"city":"Northwich","city_ascii":"Northwich","lat":53.259,"lng":-2.518,"country":"United Kingdom","iso2":"GB","iso3":"GBR","admin_name":"Cheshire West and Chester","capital":"","population":50531},{"city":"Jaspur","city_ascii":"Jaspur","lat":29.2833,"lng":78.8167,"country":"India","iso2":"IN","iso3":"IND","admin_name":"Uttarākhand","capital":"","population":50523},{"city":"Nichinan","city_ascii":"Nichinan","lat":31.6019,"lng":131.3786,"country":"Japan","iso2":"JP","iso3":"JPN","admin_name":"Miyazaki","capital":"","population":50518},{"city":"Acireale","city_ascii":"Acireale","lat":37.6167,"lng":15.1667,"country":"Italy","iso2":"IT","iso3":"ITA","admin_name":"Sicilia","capital":"","population":50515},{"city":"Susono","city_ascii":"Susono","lat":35.1739,"lng":138.9068,"country":"Japan","iso2":"JP","iso3":"JPN","admin_name":"Shizuoka","capital":"","population":50510},{"city":"Delano","city_ascii":"Delano","lat":35.7662,"lng":-119.2635,"country":"United States","iso2":"US","iso3":"USA","admin_name":"California","capital":"","population":50498},{"city":"Gloria","city_ascii":"Gloria","lat":12.9722,"lng":121.4778,"country":"Philippines","iso2":"PH","iso3":"PHL","admin_name":"Oriental Mindoro","capital":"","population":50496},{"city":"El Nido","city_ascii":"El Nido","lat":11.1956,"lng":119.4075,"country":"Philippines","iso2":"PH","iso3":"PHL","admin_name":"Palawan","capital":"","population":50494},{"city":"Maḩmūd-e Rāqī","city_ascii":"Mahmud-e Raqi","lat":35.0206,"lng":69.3306,"country":"Afghanistan","iso2":"AF","iso3":"AFG","admin_name":"Kāpīsā","capital":"admin","population":50490},{"city":"Forbesganj","city_ascii":"Forbesganj","lat":26.3,"lng":87.265,"country":"India","iso2":"IN","iso3":"IND","admin_name":"Bihār","capital":"","population":50475},{"city":"San Ignacio","city_ascii":"San Ignacio","lat":-26.8867,"lng":-57.0283,"country":"Paraguay","iso2":"PY","iso3":"PRY","admin_name":"Misiones","capital":"","population":50468},{"city":"Tebourba","city_ascii":"Tebourba","lat":36.8333,"lng":9.8333,"country":"Tunisia","iso2":"TN","iso3":"TUN","admin_name":"Manouba","capital":"","population":50458},{"city":"Hunedoara","city_ascii":"Hunedoara","lat":45.7697,"lng":22.9203,"country":"Romania","iso2":"RO","iso3":"ROU","admin_name":"Hunedoara","capital":"admin","population":50457},{"city":"Naviraí","city_ascii":"Navirai","lat":-23.065,"lng":-54.1908,"country":"Brazil","iso2":"BR","iso3":"BRA","admin_name":"Mato Grosso do Sul","capital":"","population":50457},{"city":"Bas Limbé","city_ascii":"Bas Limbe","lat":19.8,"lng":-72.3833,"country":"Haiti","iso2":"HT","iso3":"HTI","admin_name":"Nord","capital":"","population":50456},{"city":"Tūyserkān","city_ascii":"Tuyserkan","lat":34.5494,"lng":48.4456,"country":"Iran","iso2":"IR","iso3":"IRN","admin_name":"Hamadān","capital":"minor","population":50455},{"city":"Laksar","city_ascii":"Laksar","lat":29.749,"lng":78.024,"country":"India","iso2":"IN","iso3":"IND","admin_name":"Uttarākhand","capital":"","population":50450},{"city":"Youfangcun","city_ascii":"Youfangcun","lat":37.0042,"lng":115.7755,"country":"China","iso2":"CN","iso3":"CHN","admin_name":"Hebei","capital":"","population":50436},{"city":"Cabreúva","city_ascii":"Cabreuva","lat":-23.3075,"lng":-47.1331,"country":"Brazil","iso2":"BR","iso3":"BRA","admin_name":"São Paulo","capital":"","population":50429},{"city":"El Talar de Pacheco","city_ascii":"El Talar de Pacheco","lat":-34.4719,"lng":-58.655,"country":"Argentina","iso2":"AR","iso3":"ARG","admin_name":"Buenos Aires","capital":"","population":50426},{"city":"Bar Bigha","city_ascii":"Bar Bigha","lat":25.2186,"lng":85.7332,"country":"India","iso2":"IN","iso3":"IND","admin_name":"Bihār","capital":"","population":50424},{"city":"Tūndla","city_ascii":"Tundla","lat":27.2146,"lng":78.2368,"country":"India","iso2":"IN","iso3":"IND","admin_name":"Uttar Pradesh","capital":"","population":50423},{"city":"Arles","city_ascii":"Arles","lat":43.6767,"lng":4.6278,"country":"France","iso2":"FR","iso3":"FRA","admin_name":"Provence-Alpes-Côte d’Azur","capital":"minor","population":50415},{"city":"Boa Viagem","city_ascii":"Boa Viagem","lat":-5.1278,"lng":-39.7319,"country":"Brazil","iso2":"BR","iso3":"BRA","admin_name":"Ceará","capital":"minor","population":50411},{"city":"Bangued","city_ascii":"Bangued","lat":17.6,"lng":120.62,"country":"Philippines","iso2":"PH","iso3":"PHL","admin_name":"Abra","capital":"admin","population":50382},{"city":"Aringay","city_ascii":"Aringay","lat":16.3982,"lng":120.3555,"country":"Philippines","iso2":"PH","iso3":"PHL","admin_name":"La Union","capital":"","population":50380},{"city":"Haverford","city_ascii":"Haverford","lat":39.9868,"lng":-75.3164,"country":"United States","iso2":"US","iso3":"USA","admin_name":"Pennsylvania","capital":"","population":50375},{"city":"Tanjombato","city_ascii":"Tanjombato","lat":-18.95,"lng":47.5167,"country":"Madagascar","iso2":"MG","iso3":"MDG","admin_name":"Antananarivo","capital":"","population":50373},{"city":"Ampitatafika","city_ascii":"Ampitatafika","lat":-18.9333,"lng":47.475,"country":"Madagascar","iso2":"MG","iso3":"MDG","admin_name":"Fianarantsoa","capital":"","population":50373},{"city":"Plaisance","city_ascii":"Plaisance","lat":19.6,"lng":-72.4667,"country":"Haiti","iso2":"HT","iso3":"HTI","admin_name":"Nord","capital":"","population":50367},{"city":"Wao","city_ascii":"Wao","lat":7.6404,"lng":124.7257,"country":"Philippines","iso2":"PH","iso3":"PHL","admin_name":"Lanao del Sur","capital":"","population":50366},{"city":"Myrnohrad","city_ascii":"Myrnohrad","lat":48.2911,"lng":37.2681,"country":"Ukraine","iso2":"UA","iso3":"UKR","admin_name":"Donetska Oblast","capital":"","population":50360},{"city":"Chbar Mon","city_ascii":"Chbar Mon","lat":11.45,"lng":104.5,"country":"Cambodia","iso2":"KH","iso3":"KHM","admin_name":"Kampong Speu","capital":"","population":50359},{"city":"Ma‘ān","city_ascii":"Ma`an","lat":30.1962,"lng":35.7341,"country":"Jordan","iso2":"JO","iso3":"JOR","admin_name":"Ma‘ān","capital":"admin","population":50350},{"city":"Amulung","city_ascii":"Amulung","lat":17.8387,"lng":121.7235,"country":"Philippines","iso2":"PH","iso3":"PHL","admin_name":"Cagayan","capital":"","population":50336},{"city":"Vargem Grande Paulista","city_ascii":"Vargem Grande Paulista","lat":-23.6028,"lng":-47.0258,"country":"Brazil","iso2":"BR","iso3":"BRA","admin_name":"São Paulo","capital":"","population":50333},{"city":"Cojutepeque","city_ascii":"Cojutepeque","lat":13.7167,"lng":-88.9333,"country":"El Salvador","iso2":"SV","iso3":"SLV","admin_name":"Cuscatlán","capital":"admin","population":50315},{"city":"Chinú","city_ascii":"Chinu","lat":9.0833,"lng":-75.3333,"country":"Colombia","iso2":"CO","iso3":"COL","admin_name":"Córdoba","capital":"minor","population":50313},{"city":"Bāghpat","city_ascii":"Baghpat","lat":28.95,"lng":77.22,"country":"India","iso2":"IN","iso3":"IND","admin_name":"Uttar Pradesh","capital":"","population":50310},{"city":"Floreşti","city_ascii":"Floresti","lat":46.7475,"lng":23.4908,"country":"Romania","iso2":"RO","iso3":"ROU","admin_name":"Cluj","capital":"","population":50307},{"city":"Peñablanca","city_ascii":"Penablanca","lat":17.6258,"lng":121.7853,"country":"Philippines","iso2":"PH","iso3":"PHL","admin_name":"Cagayan","capital":"","population":50300},{"city":"Rho","city_ascii":"Rho","lat":45.5311,"lng":9.0406,"country":"Italy","iso2":"IT","iso3":"ITA","admin_name":"Lombardy","capital":"","population":50299},{"city":"Donsol","city_ascii":"Donsol","lat":12.9083,"lng":123.5981,"country":"Philippines","iso2":"PH","iso3":"PHL","admin_name":"Sorsogon","capital":"","population":50281},{"city":"Beveren","city_ascii":"Beveren","lat":51.2,"lng":4.25,"country":"Belgium","iso2":"BE","iso3":"BEL","admin_name":"Flanders","capital":"","population":50281},{"city":"Rowley Regis","city_ascii":"Rowley Regis","lat":52.488,"lng":-2.05,"country":"United Kingdom","iso2":"GB","iso3":"GBR","admin_name":"Sandwell","capital":"","population":50257},{"city":"Artur Nogueira","city_ascii":"Artur Nogueira","lat":-22.5731,"lng":-47.1725,"country":"Brazil","iso2":"BR","iso3":"BRA","admin_name":"São Paulo","capital":"","population":50246},{"city":"Bhawānīpur Rājdhām","city_ascii":"Bhawanipur Rajdham","lat":25.6501,"lng":87.1396,"country":"India","iso2":"IN","iso3":"IND","admin_name":"Bihār","capital":"","population":50234},{"city":"Houten","city_ascii":"Houten","lat":52.0333,"lng":5.1667,"country":"Netherlands","iso2":"NL","iso3":"NLD","admin_name":"Utrecht","capital":"minor","population":50223},{"city":"Yūki","city_ascii":"Yuki","lat":36.3055,"lng":139.8766,"country":"Japan","iso2":"JP","iso3":"JPN","admin_name":"Ibaraki","capital":"","population":50218},{"city":"Goslar","city_ascii":"Goslar","lat":51.9072,"lng":10.43,"country":"Germany","iso2":"DE","iso3":"DEU","admin_name":"Lower Saxony","capital":"minor","population":50203},{"city":"Ghŭlakandoz","city_ascii":"Ghulakandoz","lat":40.1617,"lng":69.4678,"country":"Tajikistan","iso2":"TJ","iso3":"TJK","admin_name":"Sughd","capital":"","population":50200},{"city":"Gombong","city_ascii":"Gombong","lat":-7.6,"lng":109.5167,"country":"Indonesia","iso2":"ID","iso3":"IDN","admin_name":"Jawa Tengah","capital":"","population":50200},{"city":"Nes Ẕiyyona","city_ascii":"Nes Ziyyona","lat":31.9333,"lng":34.8,"country":"Israel","iso2":"IL","iso3":"ISR","admin_name":"Central","capital":"","population":50200},{"city":"Nakagawa","city_ascii":"Nakagawa","lat":33.5,"lng":130.4167,"country":"Japan","iso2":"JP","iso3":"JPN","admin_name":"Fukuoka","capital":"","population":50186},{"city":"Palpalá","city_ascii":"Palpala","lat":-24.25,"lng":-65.1167,"country":"Argentina","iso2":"AR","iso3":"ARG","admin_name":"Jujuy","capital":"minor","population":50183},{"city":"Hamada","city_ascii":"Hamada","lat":34.8992,"lng":132.0964,"country":"Japan","iso2":"JP","iso3":"JPN","admin_name":"Shimane","capital":"","population":50176},{"city":"Karviná","city_ascii":"Karvina","lat":49.8542,"lng":18.5428,"country":"Czechia","iso2":"CZ","iso3":"CZE","admin_name":"Moravskoslezský Kraj","capital":"","population":50172},{"city":"Moskovskiy","city_ascii":"Moskovskiy","lat":55.6,"lng":37.35,"country":"Russia","iso2":"RU","iso3":"RUS","admin_name":"Moskovskaya Oblast’","capital":"","population":50167},{"city":"Adeje","city_ascii":"Adeje","lat":28.1167,"lng":-16.7167,"country":"Spain","iso2":"ES","iso3":"ESP","admin_name":"Canary Islands","capital":"","population":50167},{"city":"Gopālpur","city_ascii":"Gopalpur","lat":24.5583,"lng":89.9167,"country":"Bangladesh","iso2":"BD","iso3":"BGD","admin_name":"Dhaka","capital":"","population":50160},{"city":"Borovichi","city_ascii":"Borovichi","lat":58.4,"lng":33.9167,"country":"Russia","iso2":"RU","iso3":"RUS","admin_name":"Novgorodskaya Oblast’","capital":"minor","population":50144},{"city":"Willich","city_ascii":"Willich","lat":51.2631,"lng":6.5492,"country":"Germany","iso2":"DE","iso3":"DEU","admin_name":"North Rhine-Westphalia","capital":"","population":50144},{"city":"Cardona","city_ascii":"Cardona","lat":14.4861,"lng":121.2289,"country":"Philippines","iso2":"PH","iso3":"PHL","admin_name":"Rizal","capital":"","population":50143},{"city":"Qinhe","city_ascii":"Qinhe","lat":36.5014,"lng":112.3247,"country":"China","iso2":"CN","iso3":"CHN","admin_name":"Shanxi","capital":"minor","population":50143},{"city":"Bang Bua Thong","city_ascii":"Bang Bua Thong","lat":13.9099,"lng":100.4263,"country":"Thailand","iso2":"TH","iso3":"THA","admin_name":"Nonthaburi","capital":"minor","population":50141},{"city":"Scarborough","city_ascii":"Scarborough","lat":54.2825,"lng":-0.4,"country":"United Kingdom","iso2":"GB","iso3":"GBR","admin_name":"North Yorkshire","capital":"","population":50135},{"city":"Lincoln","city_ascii":"Lincoln","lat":38.8774,"lng":-121.2937,"country":"United States","iso2":"US","iso3":"USA","admin_name":"California","capital":"","population":50131},{"city":"Ercolano","city_ascii":"Ercolano","lat":40.8,"lng":14.35,"country":"Italy","iso2":"IT","iso3":"ITA","admin_name":"Campania","capital":"","population":50124},{"city":"Sour el Ghozlane","city_ascii":"Sour el Ghozlane","lat":36.1472,"lng":3.6906,"country":"Algeria","iso2":"DZ","iso3":"DZA","admin_name":"Bouira","capital":"","population":50120},{"city":"Déressia","city_ascii":"Deressia","lat":9.7603,"lng":16.2697,"country":"Chad","iso2":"TD","iso3":"TCD","admin_name":"Tandjilé","capital":"","population":50113},{"city":"Roslavl","city_ascii":"Roslavl","lat":53.95,"lng":32.8833,"country":"Russia","iso2":"RU","iso3":"RUS","admin_name":"Smolenskaya Oblast’","capital":"minor","population":50112},{"city":"Itararé","city_ascii":"Itarare","lat":-24.1125,"lng":-49.3317,"country":"Brazil","iso2":"BR","iso3":"BRA","admin_name":"São Paulo","capital":"","population":50105},{"city":"Bhadrāchalam","city_ascii":"Bhadrachalam","lat":17.6688,"lng":80.8936,"country":"India","iso2":"IN","iso3":"IND","admin_name":"Telangāna","capital":"","population":50087},{"city":"Francisco I. Madero","city_ascii":"Francisco I. Madero","lat":25.7753,"lng":-103.2731,"country":"Mexico","iso2":"MX","iso3":"MEX","admin_name":"Coahuila","capital":"minor","population":50084},{"city":"Sfântu-Gheorghe","city_ascii":"Sfantu-Gheorghe","lat":45.8636,"lng":25.7875,"country":"Romania","iso2":"RO","iso3":"ROU","admin_name":"Covasna","capital":"admin","population":50080},{"city":"Tubod","city_ascii":"Tubod","lat":8.05,"lng":123.8,"country":"Philippines","iso2":"PH","iso3":"PHL","admin_name":"Lanao del Norte","capital":"admin","population":50073},{"city":"Biaora","city_ascii":"Biaora","lat":23.9163,"lng":76.9112,"country":"India","iso2":"IN","iso3":"IND","admin_name":"Madhya Pradesh","capital":"","population":50061},{"city":"Sojat","city_ascii":"Sojat","lat":25.92,"lng":73.67,"country":"India","iso2":"IN","iso3":"IND","admin_name":"Rājasthān","capital":"","population":50061},{"city":"Yerba Buena","city_ascii":"Yerba Buena","lat":-26.8167,"lng":-65.3167,"country":"Argentina","iso2":"AR","iso3":"ARG","admin_name":"Tucumán","capital":"minor","population":50057},{"city":"Wolossébougou","city_ascii":"Wolossebougou","lat":12,"lng":-7.9111,"country":"Mali","iso2":"ML","iso3":"MLI","admin_name":"Koulikoro","capital":"","population":50056},{"city":"Yasu","city_ascii":"Yasu","lat":35.0667,"lng":136.0333,"country":"Japan","iso2":"JP","iso3":"JPN","admin_name":"Shiga","capital":"","population":50049},{"city":"Miyoshi","city_ascii":"Miyoshi","lat":34.8,"lng":132.85,"country":"Japan","iso2":"JP","iso3":"JPN","admin_name":"Hiroshima","capital":"","population":50046},{"city":"Hassan Abdal","city_ascii":"Hassan Abdal","lat":33.8195,"lng":72.689,"country":"Pakistan","iso2":"PK","iso3":"PAK","admin_name":"Punjab","capital":"","population":50044},{"city":"Murray","city_ascii":"Murray","lat":40.6498,"lng":-111.8874,"country":"United States","iso2":"US","iso3":"USA","admin_name":"Utah","capital":"","population":50041},{"city":"Mazara del Vallo","city_ascii":"Mazara del Vallo","lat":37.65,"lng":12.5833,"country":"Italy","iso2":"IT","iso3":"ITA","admin_name":"Sicilia","capital":"","population":50039},{"city":"Leith","city_ascii":"Leith","lat":55.98,"lng":-3.17,"country":"United Kingdom","iso2":"GB","iso3":"GBR","admin_name":"Edinburgh, City of","capital":"","population":50030},{"city":"Pamplona","city_ascii":"Pamplona","lat":7.3781,"lng":-72.6525,"country":"Colombia","iso2":"CO","iso3":"COL","admin_name":"Norte de Santander","capital":"minor","population":50025},{"city":"Heidenheim","city_ascii":"Heidenheim","lat":48.6761,"lng":10.1544,"country":"Germany","iso2":"DE","iso3":"DEU","admin_name":"Baden-Württemberg","capital":"minor","population":50025},{"city":"Mooresville","city_ascii":"Mooresville","lat":35.5847,"lng":-80.8266,"country":"United States","iso2":"US","iso3":"USA","admin_name":"North Carolina","capital":"","population":50025},{"city":"Eger","city_ascii":"Eger","lat":47.899,"lng":20.3747,"country":"Hungary","iso2":"HU","iso3":"HUN","admin_name":"Heves","capital":"admin","population":50018},{"city":"Weert","city_ascii":"Weert","lat":51.25,"lng":5.7,"country":"Netherlands","iso2":"NL","iso3":"NLD","admin_name":"Limburg","capital":"minor","population":50011},{"city":"Sakubva","city_ascii":"Sakubva","lat":-18.9833,"lng":32.65,"country":"Zimbabwe","iso2":"ZW","iso3":"ZWE","admin_name":"Manicaland","capital":"","population":50000},{"city":"Qabb Eliâs","city_ascii":"Qabb Elias","lat":33.7986,"lng":35.825,"country":"Lebanon","iso2":"LB","iso3":"LBN","admin_name":"Béqaa","capital":"","population":50000},{"city":"El Ghâzîyé","city_ascii":"El Ghaziye","lat":33.5186,"lng":35.3661,"country":"Lebanon","iso2":"LB","iso3":"LBN","admin_name":"Liban-Sud","capital":"","population":50000},{"city":"Aarsâl","city_ascii":"Aarsal","lat":34.1794,"lng":36.4208,"country":"Lebanon","iso2":"LB","iso3":"LBN","admin_name":"Baalbek-Hermel","capital":"","population":50000},{"city":"Ikot Okoro","city_ascii":"Ikot Okoro","lat":4.9,"lng":7.7167,"country":"Nigeria","iso2":"NG","iso3":"NGA","admin_name":"Akwa Ibom","capital":"","population":50000},{"city":"Sechura","city_ascii":"Sechura","lat":-5.5576,"lng":-80.8223,"country":"Peru","iso2":"PE","iso3":"PER","admin_name":"Piura","capital":"","population":50000},{"city":"Chak Thirty-six North Branch","city_ascii":"Chak Thirty-six North Branch","lat":32.1261,"lng":72.7297,"country":"Pakistan","iso2":"PK","iso3":"PAK","admin_name":"Punjab","capital":"","population":50000},{"city":"Rukan","city_ascii":"Rukan","lat":32.4236,"lng":73.2722,"country":"Pakistan","iso2":"PK","iso3":"PAK","admin_name":"Punjab","capital":"","population":50000},{"city":"Buni","city_ascii":"Buni","lat":36.2728,"lng":72.2597,"country":"Pakistan","iso2":"PK","iso3":"PAK","admin_name":"Khyber Pakhtunkhwa","capital":"","population":50000},{"city":"Chak Sixty-one Gugera Branch","city_ascii":"Chak Sixty-one Gugera Branch","lat":31.5875,"lng":73.6897,"country":"Pakistan","iso2":"PK","iso3":"PAK","admin_name":"Punjab","capital":"","population":50000},{"city":"Al Wajh","city_ascii":"Al Wajh","lat":26.2833,"lng":36.4167,"country":"Saudi Arabia","iso2":"SA","iso3":"SAU","admin_name":"Tabūk","capital":"minor","population":50000},{"city":"Abū Ḩamad","city_ascii":"Abu Hamad","lat":19.5433,"lng":33.3378,"country":"Sudan","iso2":"SD","iso3":"SDN","admin_name":"River Nile","capital":"","population":50000},{"city":"Godinlabe","city_ascii":"Godinlabe","lat":5.8794,"lng":46.6308,"country":"Somalia","iso2":"SO","iso3":"SOM","admin_name":"Galguduud","capital":"","population":50000},{"city":"Ceel Dheere","city_ascii":"Ceel Dheere","lat":5.3683,"lng":46.1911,"country":"Somalia","iso2":"SO","iso3":"SOM","admin_name":"Galguduud","capital":"","population":50000},{"city":"Tukuyu","city_ascii":"Tukuyu","lat":-9.25,"lng":33.65,"country":"Tanzania","iso2":"TZ","iso3":"TZA","admin_name":"Mbeya","capital":"","population":50000},{"city":"Kyaliwajjala","city_ascii":"Kyaliwajjala","lat":0.38,"lng":32.6467,"country":"Uganda","iso2":"UG","iso3":"UGA","admin_name":"Wakiso","capital":"","population":50000},{"city":"Āqchah","city_ascii":"Aqchah","lat":36.9114,"lng":66.1858,"country":"Afghanistan","iso2":"AF","iso3":"AFG","admin_name":"Jowzjān","capital":"minor","population":50000},{"city":"Krems an der Donau","city_ascii":"Krems an der Donau","lat":48.4167,"lng":15.6167,"country":"Austria","iso2":"AT","iso3":"AUT","admin_name":"Niederösterreich","capital":"minor","population":50000},{"city":"Bandar Seri Begawan","city_ascii":"Bandar Seri Begawan","lat":4.8903,"lng":114.9422,"country":"Brunei","iso2":"BN","iso3":"BRN","admin_name":"Brunei dan Muara","capital":"primary","population":50000},{"city":"Kahemba","city_ascii":"Kahemba","lat":-7.2829,"lng":19,"country":"Congo (Kinshasa)","iso2":"CD","iso3":"COD","admin_name":"Kwango","capital":"","population":50000},{"city":"Gutao","city_ascii":"Gutao","lat":37.2,"lng":112.15,"country":"China","iso2":"CN","iso3":"CHN","admin_name":"Shanxi","capital":"minor","population":50000},{"city":"Xiayang","city_ascii":"Xiayang","lat":26.4906,"lng":113.7708,"country":"China","iso2":"CN","iso3":"CHN","admin_name":"Hunan","capital":"minor","population":50000},{"city":"Dongxishan","city_ascii":"Dongxishan","lat":27.7056,"lng":111.8561,"country":"China","iso2":"CN","iso3":"CHN","admin_name":"Hunan","capital":"","population":50000},{"city":"Xiazhai","city_ascii":"Xiazhai","lat":27.6909,"lng":107.1837,"country":"China","iso2":"CN","iso3":"CHN","admin_name":"Guizhou","capital":"","population":50000},{"city":"Jieshangya","city_ascii":"Jieshangya","lat":29.505,"lng":110.7653,"country":"China","iso2":"CN","iso3":"CHN","admin_name":"Hunan","capital":"","population":50000},{"city":"Saoula","city_ascii":"Saoula","lat":36.7,"lng":3.0167,"country":"Algeria","iso2":"DZ","iso3":"DZA","admin_name":"Tipaza","capital":"","population":50000},{"city":"’Aïn el Turk","city_ascii":"'Ain el Turk","lat":35.7408,"lng":-0.7492,"country":"Algeria","iso2":"DZ","iso3":"DZA","admin_name":"Oran","capital":"","population":50000},{"city":"Semera","city_ascii":"Semera","lat":11.7922,"lng":41.0086,"country":"Ethiopia","iso2":"ET","iso3":"ETH","admin_name":"Āfar","capital":"admin","population":50000},{"city":"Bogoso","city_ascii":"Bogoso","lat":5.5686,"lng":-2.0058,"country":"Ghana","iso2":"GH","iso3":"GHA","admin_name":"Western","capital":"","population":50000},{"city":"Tammampatti","city_ascii":"Tammampatti","lat":11.4381,"lng":78.4836,"country":"India","iso2":"IN","iso3":"IND","admin_name":"Tamil Nādu","capital":"","population":50000},{"city":"Sujānpur","city_ascii":"Sujanpur","lat":32.3127,"lng":75.6012,"country":"India","iso2":"IN","iso3":"IND","admin_name":"Punjab","capital":"","population":50000},{"city":"Shiv","city_ascii":"Shiv","lat":26.1831,"lng":71.25,"country":"India","iso2":"IN","iso3":"IND","admin_name":"Rājasthān","capital":"","population":50000},{"city":"Bhattu Kolān","city_ascii":"Bhattu Kolan","lat":29.3872,"lng":75.3422,"country":"India","iso2":"IN","iso3":"IND","admin_name":"Haryāna","capital":"","population":50000},{"city":"Downers Grove","city_ascii":"Downers Grove","lat":41.7949,"lng":-88.0172,"country":"United States","iso2":"US","iso3":"USA","admin_name":"Illinois","capital":"","population":49996},{"city":"Louveira","city_ascii":"Louveira","lat":-23.0864,"lng":-46.9506,"country":"Brazil","iso2":"BR","iso3":"BRA","admin_name":"São Paulo","capital":"","population":49993},{"city":"Florin","city_ascii":"Florin","lat":38.4832,"lng":-121.4043,"country":"United States","iso2":"US","iso3":"USA","admin_name":"California","capital":"","population":49992},{"city":"Al Khārjah","city_ascii":"Al Kharjah","lat":25.44,"lng":30.55,"country":"Egypt","iso2":"EG","iso3":"EGY","admin_name":"Al Wādī al Jadīd","capital":"admin","population":49991},{"city":"Sihorā","city_ascii":"Sihora","lat":23.4871,"lng":80.104,"country":"India","iso2":"IN","iso3":"IND","admin_name":"Madhya Pradesh","capital":"","population":49988},{"city":"Chatrā","city_ascii":"Chatra","lat":24.2064,"lng":84.8708,"country":"India","iso2":"IN","iso3":"IND","admin_name":"Jhārkhand","capital":"","population":49985},{"city":"Rovigo","city_ascii":"Rovigo","lat":45.0703,"lng":11.7906,"country":"Italy","iso2":"IT","iso3":"ITA","admin_name":"Veneto","capital":"minor","population":49985},{"city":"Parāsia","city_ascii":"Parasia","lat":22.1913,"lng":78.759,"country":"India","iso2":"IN","iso3":"IND","admin_name":"Madhya Pradesh","capital":"","population":49979},{"city":"Satte","city_ascii":"Satte","lat":36.0781,"lng":139.7259,"country":"Japan","iso2":"JP","iso3":"JPN","admin_name":"Saitama","capital":"","population":49961},{"city":"Chake Chake","city_ascii":"Chake Chake","lat":-5.2395,"lng":39.77,"country":"Tanzania","iso2":"TZ","iso3":"TZA","admin_name":"Pemba South","capital":"admin","population":49959},{"city":"Middelburg","city_ascii":"Middelburg","lat":51.5,"lng":3.6167,"country":"Netherlands","iso2":"NL","iso3":"NLD","admin_name":"Zeeland","capital":"admin","population":49956},{"city":"Cypress","city_ascii":"Cypress","lat":33.8171,"lng":-118.0386,"country":"United States","iso2":"US","iso3":"USA","admin_name":"California","capital":"","population":49955},{"city":"Chahār Dangeh","city_ascii":"Chahar Dangeh","lat":35.5958,"lng":51.3083,"country":"Iran","iso2":"IR","iso3":"IRN","admin_name":"Tehrān","capital":"","population":49950},{"city":"Simraungaḍh","city_ascii":"Simraungadh","lat":26.8894,"lng":85.1169,"country":"Nepal","iso2":"NP","iso3":"NPL","admin_name":"","capital":"","population":49939},{"city":"Porvoo","city_ascii":"Porvoo","lat":60.3944,"lng":25.6639,"country":"Finland","iso2":"FI","iso3":"FIN","admin_name":"Uusimaa","capital":"minor","population":49928},{"city":"Ejeda","city_ascii":"Ejeda","lat":-24.35,"lng":44.5167,"country":"Madagascar","iso2":"MG","iso3":"MDG","admin_name":"Toliara","capital":"","population":49915},{"city":"Muktāgācha","city_ascii":"Muktagacha","lat":24.7662,"lng":90.2562,"country":"Bangladesh","iso2":"BD","iso3":"BGD","admin_name":"Mymensingh","capital":"","population":49915},{"city":"Janīn","city_ascii":"Janin","lat":32.4611,"lng":35.3,"country":"West Bank","iso2":"XW","iso3":"XWB","admin_name":"","capital":"","population":49908},{"city":"Shankou","city_ascii":"Shankou","lat":24.5032,"lng":116.4046,"country":"China","iso2":"CN","iso3":"CHN","admin_name":"Guangdong","capital":"","population":49896},{"city":"Al Ma‘allā’","city_ascii":"Al Ma`alla'","lat":12.7897,"lng":45.0064,"country":"Yemen","iso2":"YE","iso3":"YEM","admin_name":"‘Adan","capital":"minor","population":49891},{"city":"Bigadiç","city_ascii":"Bigadic","lat":39.3925,"lng":28.1311,"country":"Turkey","iso2":"TR","iso3":"TUR","admin_name":"Balıkesir","capital":"minor","population":49887},{"city":"Erftstadt","city_ascii":"Erftstadt","lat":50.8167,"lng":6.7667,"country":"Germany","iso2":"DE","iso3":"DEU","admin_name":"North Rhine-Westphalia","capital":"","population":49882},{"city":"Lörrach","city_ascii":"Lorrach","lat":47.6167,"lng":7.6667,"country":"Germany","iso2":"DE","iso3":"DEU","admin_name":"Baden-Württemberg","capital":"minor","population":49876},{"city":"Stouffville","city_ascii":"Stouffville","lat":43.9667,"lng":-79.25,"country":"Canada","iso2":"CA","iso3":"CAN","admin_name":"Ontario","capital":"","population":49864},{"city":"Hilsa","city_ascii":"Hilsa","lat":25.32,"lng":85.28,"country":"India","iso2":"IN","iso3":"IND","admin_name":"Bihār","capital":"","population":49863},{"city":"Poprad","city_ascii":"Poprad","lat":49.0594,"lng":20.2975,"country":"Slovakia","iso2":"SK","iso3":"SVK","admin_name":"Prešov","capital":"minor","population":49855},{"city":"Cuxhaven","city_ascii":"Cuxhaven","lat":53.8611,"lng":8.6944,"country":"Germany","iso2":"DE","iso3":"DEU","admin_name":"Lower Saxony","capital":"minor","population":49854},{"city":"Tepeapulco","city_ascii":"Tepeapulco","lat":19.7856,"lng":-98.5517,"country":"Mexico","iso2":"MX","iso3":"MEX","admin_name":"Hidalgo","capital":"minor","population":49850},{"city":"Neyrīz","city_ascii":"Neyriz","lat":29.1928,"lng":54.3197,"country":"Iran","iso2":"IR","iso3":"IRN","admin_name":"Fārs","capital":"minor","population":49850},{"city":"Pananaw","city_ascii":"Pananaw","lat":5.98,"lng":121.25,"country":"Philippines","iso2":"PH","iso3":"PHL","admin_name":"Sulu","capital":"","population":49849},{"city":"Xankəndi","city_ascii":"Xankandi","lat":39.8153,"lng":46.7519,"country":"Azerbaijan","iso2":"AZ","iso3":"AZE","admin_name":"Xankəndi","capital":"","population":49848},{"city":"Boaco","city_ascii":"Boaco","lat":12.4667,"lng":-85.6667,"country":"Nicaragua","iso2":"NI","iso3":"NIC","admin_name":"Boaco","capital":"admin","population":49839},{"city":"Nohar","city_ascii":"Nohar","lat":29.18,"lng":74.77,"country":"India","iso2":"IN","iso3":"IND","admin_name":"Rājasthān","capital":"","population":49835},{"city":"Gediz","city_ascii":"Gediz","lat":38.9939,"lng":29.3914,"country":"Turkey","iso2":"TR","iso3":"TUR","admin_name":"Kütahya","capital":"minor","population":49827},{"city":"Gronau","city_ascii":"Gronau","lat":52.2125,"lng":7.0417,"country":"Germany","iso2":"DE","iso3":"DEU","admin_name":"North Rhine-Westphalia","capital":"","population":49824},{"city":"Ain El Aouda","city_ascii":"Ain El Aouda","lat":33.8111,"lng":-6.7922,"country":"Morocco","iso2":"MA","iso3":"MAR","admin_name":"Rabat-Salé-Kénitra","capital":"","population":49816},{"city":"Östersund","city_ascii":"Ostersund","lat":63.1792,"lng":14.6358,"country":"Sweden","iso2":"SE","iso3":"SWE","admin_name":"Jämtland","capital":"admin","population":49806},{"city":"Ostrołęka","city_ascii":"Ostroleka","lat":53.0667,"lng":21.5667,"country":"Poland","iso2":"PL","iso3":"POL","admin_name":"Mazowieckie","capital":"minor","population":49805},{"city":"Cerquilho Velho","city_ascii":"Cerquilho Velho","lat":-23.165,"lng":-47.7436,"country":"Brazil","iso2":"BR","iso3":"BRA","admin_name":"São Paulo","capital":"","population":49802},{"city":"Hannan","city_ascii":"Hannan","lat":34.3597,"lng":135.2394,"country":"Japan","iso2":"JP","iso3":"JPN","admin_name":"Ōsaka","capital":"","population":49794},{"city":"El Meghaïer","city_ascii":"El Meghaier","lat":33.9506,"lng":5.9242,"country":"Algeria","iso2":"DZ","iso3":"DZA","admin_name":"El Meghaier","capital":"admin","population":49793},{"city":"Concepción","city_ascii":"Concepcion","lat":-27.3333,"lng":-65.5833,"country":"Argentina","iso2":"AR","iso3":"ARG","admin_name":"Tucumán","capital":"minor","population":49782},{"city":"Novovolynsk","city_ascii":"Novovolynsk","lat":50.7333,"lng":24.1667,"country":"Ukraine","iso2":"UA","iso3":"UKR","admin_name":"Volynska Oblast","capital":"","population":49772},{"city":"Jeffersonville","city_ascii":"Jeffersonville","lat":38.3376,"lng":-85.7026,"country":"United States","iso2":"US","iso3":"USA","admin_name":"Indiana","capital":"","population":49771},{"city":"Karapınar","city_ascii":"Karapinar","lat":37.7147,"lng":33.5508,"country":"Turkey","iso2":"TR","iso3":"TUR","admin_name":"Konya","capital":"minor","population":49766},{"city":"Bhainsa","city_ascii":"Bhainsa","lat":19.1,"lng":77.9667,"country":"India","iso2":"IN","iso3":"IND","admin_name":"Telangāna","capital":"","population":49764},{"city":"North Bethesda","city_ascii":"North Bethesda","lat":39.0393,"lng":-77.1191,"country":"United States","iso2":"US","iso3":"USA","admin_name":"Maryland","capital":"","population":49763},{"city":"Çine","city_ascii":"Cine","lat":37.6117,"lng":28.0614,"country":"Turkey","iso2":"TR","iso3":"TUR","admin_name":"Aydın","capital":"minor","population":49760},{"city":"Itupiranga","city_ascii":"Itupiranga","lat":-5.15,"lng":-49.3333,"country":"Brazil","iso2":"BR","iso3":"BRA","admin_name":"Pará","capital":"minor","population":49752},{"city":"Pontevedra","city_ascii":"Pontevedra","lat":11.48,"lng":122.83,"country":"Philippines","iso2":"PH","iso3":"PHL","admin_name":"Capiz","capital":"","population":49725},{"city":"Selibe Phikwe","city_ascii":"Selibe Phikwe","lat":-21.9758,"lng":27.84,"country":"Botswana","iso2":"BW","iso3":"BWA","admin_name":"Selibe Phikwe","capital":"admin","population":49724},{"city":"Perintalmanna","city_ascii":"Perintalmanna","lat":10.9765,"lng":76.2269,"country":"India","iso2":"IN","iso3":"IND","admin_name":"Kerala","capital":"","population":49723},{"city":"Padrauna","city_ascii":"Padrauna","lat":26.9042,"lng":83.9808,"country":"India","iso2":"IN","iso3":"IND","admin_name":"Uttar Pradesh","capital":"","population":49723},{"city":"Bignay","city_ascii":"Bignay","lat":14.7456,"lng":120.9961,"country":"Philippines","iso2":"PH","iso3":"PHL","admin_name":"Caloocan","capital":"","population":49716},{"city":"Albi","city_ascii":"Albi","lat":43.9289,"lng":2.1464,"country":"France","iso2":"FR","iso3":"FRA","admin_name":"Occitanie","capital":"minor","population":49714},{"city":"Gualán","city_ascii":"Gualan","lat":15.1333,"lng":-89.3667,"country":"Guatemala","iso2":"GT","iso3":"GTM","admin_name":"Zacapa","capital":"minor","population":49709},{"city":"Azusa","city_ascii":"Azusa","lat":34.1386,"lng":-117.9124,"country":"United States","iso2":"US","iso3":"USA","admin_name":"California","capital":"","population":49704},{"city":"Yeovil","city_ascii":"Yeovil","lat":50.9452,"lng":-2.637,"country":"United Kingdom","iso2":"GB","iso3":"GBR","admin_name":"Somerset","capital":"","population":49698},{"city":"Coral Gables","city_ascii":"Coral Gables","lat":25.7037,"lng":-80.2715,"country":"United States","iso2":"US","iso3":"USA","admin_name":"Florida","capital":"","population":49696},{"city":"Ridder","city_ascii":"Ridder","lat":50.35,"lng":83.5167,"country":"Kazakhstan","iso2":"KZ","iso3":"KAZ","admin_name":"East Kazakhstan","capital":"minor","population":49695},{"city":"Wagga Wagga","city_ascii":"Wagga Wagga","lat":-35.1189,"lng":147.3689,"country":"Australia","iso2":"AU","iso3":"AUS","admin_name":"New South Wales","capital":"","population":49686},{"city":"Canguçu","city_ascii":"Cangucu","lat":-31.4,"lng":-52.6833,"country":"Brazil","iso2":"BR","iso3":"BRA","admin_name":"Rio Grande do Sul","capital":"","population":49680},{"city":"Nanao","city_ascii":"Nanao","lat":37.0431,"lng":136.9674,"country":"Japan","iso2":"JP","iso3":"JPN","admin_name":"Ishikawa","capital":"","population":49660},{"city":"Zyryanovsk","city_ascii":"Zyryanovsk","lat":49.7453,"lng":84.2548,"country":"Kazakhstan","iso2":"KZ","iso3":"KAZ","admin_name":"East Kazakhstan","capital":"minor","population":49658},{"city":"Laval","city_ascii":"Laval","lat":48.0733,"lng":-0.7689,"country":"France","iso2":"FR","iso3":"FRA","admin_name":"Pays de la Loire","capital":"minor","population":49657},{"city":"Perambalūr","city_ascii":"Perambalur","lat":11.23,"lng":78.88,"country":"India","iso2":"IN","iso3":"IND","admin_name":"Tamil Nādu","capital":"","population":49648},{"city":"Chesterfield","city_ascii":"Chesterfield","lat":38.6589,"lng":-90.5803,"country":"United States","iso2":"US","iso3":"USA","admin_name":"Missouri","capital":"","population":49645},{"city":"Irákleio","city_ascii":"Irakleio","lat":38.05,"lng":23.7667,"country":"Greece","iso2":"GR","iso3":"GRC","admin_name":"Attikí","capital":"minor","population":49642},{"city":"Noshiromachi","city_ascii":"Noshiromachi","lat":40.2121,"lng":140.0266,"country":"Japan","iso2":"JP","iso3":"JPN","admin_name":"Akita","capital":"","population":49625},{"city":"Coelho Neto","city_ascii":"Coelho Neto","lat":-4.2569,"lng":-43.0128,"country":"Brazil","iso2":"BR","iso3":"BRA","admin_name":"Maranhão","capital":"minor","population":49621},{"city":"Shawinigan","city_ascii":"Shawinigan","lat":46.5667,"lng":-72.75,"country":"Canada","iso2":"CA","iso3":"CAN","admin_name":"Quebec","capital":"","population":49620},{"city":"Aversa","city_ascii":"Aversa","lat":40.9667,"lng":14.2,"country":"Italy","iso2":"IT","iso3":"ITA","admin_name":"Campania","capital":"","population":49612},{"city":"Rosario","city_ascii":"Rosario","lat":8.38,"lng":126,"country":"Philippines","iso2":"PH","iso3":"PHL","admin_name":"Agusan del Sur","capital":"","population":49610},{"city":"Kandangan","city_ascii":"Kandangan","lat":-2.7833,"lng":115.2667,"country":"Indonesia","iso2":"ID","iso3":"IDN","admin_name":"Kalimantan Selatan","capital":"minor","population":49604},{"city":"Pirot","city_ascii":"Pirot","lat":43.1667,"lng":22.6,"country":"Serbia","iso2":"RS","iso3":"SRB","admin_name":"Pirot","capital":"admin","population":49601},{"city":"Cimitarra","city_ascii":"Cimitarra","lat":6.3167,"lng":-73.95,"country":"Colombia","iso2":"CO","iso3":"COL","admin_name":"Santander","capital":"minor","population":49593},{"city":"Sosúa","city_ascii":"Sosua","lat":19.75,"lng":-70.52,"country":"Dominican Republic","iso2":"DO","iso3":"DOM","admin_name":"Cibao Norte","capital":"","population":49593},{"city":"McLean","city_ascii":"McLean","lat":38.9436,"lng":-77.1943,"country":"United States","iso2":"US","iso3":"USA","admin_name":"Virginia","capital":"","population":49587},{"city":"San Juan del Cesar","city_ascii":"San Juan del Cesar","lat":10.7667,"lng":-73,"country":"Colombia","iso2":"CO","iso3":"COL","admin_name":"La Guajira","capital":"minor","population":49584},{"city":"Huancavelica","city_ascii":"Huancavelica","lat":-12.7864,"lng":-74.9756,"country":"Peru","iso2":"PE","iso3":"PER","admin_name":"Huancavelica","capital":"admin","population":49570},{"city":"Saint-Herblain","city_ascii":"Saint-Herblain","lat":47.2122,"lng":-1.6497,"country":"France","iso2":"FR","iso3":"FRA","admin_name":"Pays de la Loire","capital":"","population":49537},{"city":"Kizhake Chālakudi","city_ascii":"Kizhake Chalakudi","lat":10.3,"lng":76.33,"country":"India","iso2":"IN","iso3":"IND","admin_name":"Kerala","capital":"","population":49525},{"city":"Mojo","city_ascii":"Mojo","lat":8.65,"lng":39.0833,"country":"Ethiopia","iso2":"ET","iso3":"ETH","admin_name":"Oromīya","capital":"","population":49521},{"city":"Leonberg","city_ascii":"Leonberg","lat":48.8014,"lng":9.0131,"country":"Germany","iso2":"DE","iso3":"DEU","admin_name":"Baden-Württemberg","capital":"","population":49512},{"city":"Dumarao","city_ascii":"Dumarao","lat":11.2631,"lng":122.6878,"country":"Philippines","iso2":"PH","iso3":"PHL","admin_name":"Capiz","capital":"","population":49506},{"city":"Sesimbra","city_ascii":"Sesimbra","lat":38.4437,"lng":-9.0996,"country":"Portugal","iso2":"PT","iso3":"PRT","admin_name":"Setúbal","capital":"minor","population":49500},{"city":"Mpigi","city_ascii":"Mpigi","lat":0.23,"lng":32.33,"country":"Uganda","iso2":"UG","iso3":"UGA","admin_name":"Mpigi","capital":"admin","population":49500},{"city":"Sulleru","city_ascii":"Sulleru","lat":18.5333,"lng":83.2167,"country":"India","iso2":"IN","iso3":"IND","admin_name":"Andhra Pradesh","capital":"","population":49500},{"city":"St. Louis Park","city_ascii":"St. Louis Park","lat":44.9488,"lng":-93.3649,"country":"United States","iso2":"US","iso3":"USA","admin_name":"Minnesota","capital":"","population":49500},{"city":"Araklı","city_ascii":"Arakli","lat":40.9333,"lng":40.05,"country":"Turkey","iso2":"TR","iso3":"TUR","admin_name":"Trabzon","capital":"minor","population":49496},{"city":"East Honolulu","city_ascii":"East Honolulu","lat":21.2975,"lng":-157.7211,"country":"United States","iso2":"US","iso3":"USA","admin_name":"Hawaii","capital":"","population":49491},{"city":"San Pedro","city_ascii":"San Pedro","lat":25.7578,"lng":-102.9831,"country":"Mexico","iso2":"MX","iso3":"MEX","admin_name":"Coahuila","capital":"minor","population":49490},{"city":"Rheda-Wiedenbrück","city_ascii":"Rheda-Wiedenbruck","lat":51.8417,"lng":8.3,"country":"Germany","iso2":"DE","iso3":"DEU","admin_name":"North Rhine-Westphalia","capital":"","population":49486},{"city":"Gao","city_ascii":"Gao","lat":16.2667,"lng":-0.05,"country":"Mali","iso2":"ML","iso3":"MLI","admin_name":"Gao","capital":"admin","population":49483},{"city":"Shakhtarsk","city_ascii":"Shakhtarsk","lat":48.0469,"lng":38.4686,"country":"Ukraine","iso2":"UA","iso3":"UKR","admin_name":"Donetska Oblast","capital":"minor","population":49482},{"city":"Bad Oeynhausen","city_ascii":"Bad Oeynhausen","lat":52.2,"lng":8.8,"country":"Germany","iso2":"DE","iso3":"DEU","admin_name":"North Rhine-Westphalia","capital":"","population":49477},{"city":"Peddāpuram","city_ascii":"Peddapuram","lat":17.08,"lng":82.13,"country":"India","iso2":"IN","iso3":"IND","admin_name":"Andhra Pradesh","capital":"","population":49477},{"city":"Novovyatsk","city_ascii":"Novovyatsk","lat":58.5083,"lng":49.6994,"country":"Russia","iso2":"RU","iso3":"RUS","admin_name":"Kirovskaya Oblast’","capital":"","population":49475},{"city":"Payyoli","city_ascii":"Payyoli","lat":11.5333,"lng":75.6667,"country":"India","iso2":"IN","iso3":"IND","admin_name":"Kerala","capital":"","population":49470},{"city":"Tomisato","city_ascii":"Tomisato","lat":35.7,"lng":140.5667,"country":"Japan","iso2":"JP","iso3":"JPN","admin_name":"Chiba","capital":"","population":49470},{"city":"María la Baja","city_ascii":"Maria la Baja","lat":10,"lng":-75.3333,"country":"Colombia","iso2":"CO","iso3":"COL","admin_name":"Bolívar","capital":"minor","population":49462},{"city":"East Brunswick","city_ascii":"East Brunswick","lat":40.4281,"lng":-74.4179,"country":"United States","iso2":"US","iso3":"USA","admin_name":"New Jersey","capital":"","population":49462},{"city":"Santa Lucía del Camino","city_ascii":"Santa Lucia del Camino","lat":17.0667,"lng":-96.7,"country":"Mexico","iso2":"MX","iso3":"MEX","admin_name":"Oaxaca","capital":"","population":49459},{"city":"Kameyama","city_ascii":"Kameyama","lat":34.8558,"lng":136.4517,"country":"Japan","iso2":"JP","iso3":"JPN","admin_name":"Mie","capital":"","population":49457},{"city":"Monte Alto","city_ascii":"Monte Alto","lat":-21.2611,"lng":-48.4964,"country":"Brazil","iso2":"BR","iso3":"BRA","admin_name":"São Paulo","capital":"","population":49456},{"city":"Bedford","city_ascii":"Bedford","lat":32.8464,"lng":-97.135,"country":"United States","iso2":"US","iso3":"USA","admin_name":"Texas","capital":"","population":49455},{"city":"Mājalgaon","city_ascii":"Majalgaon","lat":19.15,"lng":76.2333,"country":"India","iso2":"IN","iso3":"IND","admin_name":"Mahārāshtra","capital":"","population":49453},{"city":"Noveleta","city_ascii":"Noveleta","lat":14.43,"lng":120.88,"country":"Philippines","iso2":"PH","iso3":"PHL","admin_name":"Cavite","capital":"","population":49452},{"city":"Catemaco","city_ascii":"Catemaco","lat":18.4167,"lng":-95.1167,"country":"Mexico","iso2":"MX","iso3":"MEX","admin_name":"Veracruz","capital":"minor","population":49451},{"city":"São Bento do Una","city_ascii":"Sao Bento do Una","lat":-8.5228,"lng":-36.4439,"country":"Brazil","iso2":"BR","iso3":"BRA","admin_name":"Pernambuco","capital":"","population":49448},{"city":"Villaguay","city_ascii":"Villaguay","lat":-31.85,"lng":-59.0167,"country":"Argentina","iso2":"AR","iso3":"ARG","admin_name":"Entre Ríos","capital":"minor","population":49445},{"city":"Singen","city_ascii":"Singen","lat":47.7628,"lng":8.84,"country":"Germany","iso2":"DE","iso3":"DEU","admin_name":"Baden-Württemberg","capital":"","population":49441},{"city":"Battipaglia","city_ascii":"Battipaglia","lat":40.6167,"lng":14.9833,"country":"Italy","iso2":"IT","iso3":"ITA","admin_name":"Campania","capital":"","population":49415},{"city":"Gennevilliers","city_ascii":"Gennevilliers","lat":48.9333,"lng":2.3,"country":"France","iso2":"FR","iso3":"FRA","admin_name":"Île-de-France","capital":"","population":49410},{"city":"Özgön","city_ascii":"Ozgon","lat":40.7667,"lng":73.3,"country":"Kyrgyzstan","iso2":"KG","iso3":"KGZ","admin_name":"Osh","capital":"","population":49410},{"city":"Pen-y-Bont ar Ogwr","city_ascii":"Pen-y-Bont ar Ogwr","lat":51.507,"lng":-3.578,"country":"United Kingdom","iso2":"GB","iso3":"GBR","admin_name":"Bridgend","capital":"","population":49404},{"city":"Nowshahr","city_ascii":"Nowshahr","lat":36.6475,"lng":51.4931,"country":"Iran","iso2":"IR","iso3":"IRN","admin_name":"Māzandarān","capital":"minor","population":49403},{"city":"Prudentópolis","city_ascii":"Prudentopolis","lat":-25.2128,"lng":-50.9778,"country":"Brazil","iso2":"BR","iso3":"BRA","admin_name":"Paraná","capital":"","population":49393},{"city":"Suzaka","city_ascii":"Suzaka","lat":36.6511,"lng":138.3073,"country":"Japan","iso2":"JP","iso3":"JPN","admin_name":"Nagano","capital":"","population":49393},{"city":"Prattipādu","city_ascii":"Prattipadu","lat":16.1878,"lng":80.3392,"country":"India","iso2":"IN","iso3":"IND","admin_name":"Andhra Pradesh","capital":"","population":49390},{"city":"Scandicci","city_ascii":"Scandicci","lat":43.7544,"lng":11.1894,"country":"Italy","iso2":"IT","iso3":"ITA","admin_name":"Tuscany","capital":"","population":49390},{"city":"Kiblawan","city_ascii":"Kiblawan","lat":6.62,"lng":125.22,"country":"Philippines","iso2":"PH","iso3":"PHL","admin_name":"Davao del Sur","capital":"","population":49381},{"city":"Karlovac","city_ascii":"Karlovac","lat":45.4833,"lng":15.55,"country":"Croatia","iso2":"HR","iso3":"HRV","admin_name":"Karlovačka Županija","capital":"","population":49377},{"city":"Ksar Hellal","city_ascii":"Ksar Hellal","lat":35.6429,"lng":10.8911,"country":"Tunisia","iso2":"TN","iso3":"TUN","admin_name":"Monastir","capital":"","population":49376},{"city":"Santiago","city_ascii":"Santiago","lat":-29.1917,"lng":-54.8672,"country":"Brazil","iso2":"BR","iso3":"BRA","admin_name":"Rio Grande do Sul","capital":"","population":49360},{"city":"Arifiye","city_ascii":"Arifiye","lat":40.7167,"lng":30.3667,"country":"Turkey","iso2":"TR","iso3":"TUR","admin_name":"Sakarya","capital":"minor","population":49340},{"city":"Mulukukú","city_ascii":"Mulukuku","lat":13.1503,"lng":-84.97,"country":"Nicaragua","iso2":"NI","iso3":"NIC","admin_name":"Costa Caribe Norte","capital":"minor","population":49339},{"city":"Freising","city_ascii":"Freising","lat":48.4028,"lng":11.7489,"country":"Germany","iso2":"DE","iso3":"DEU","admin_name":"Bavaria","capital":"minor","population":49339},{"city":"Sebeta","city_ascii":"Sebeta","lat":8.9111,"lng":38.6214,"country":"Ethiopia","iso2":"ET","iso3":"ETH","admin_name":"Oromīya","capital":"","population":49331},{"city":"Mozhga","city_ascii":"Mozhga","lat":56.45,"lng":52.2167,"country":"Russia","iso2":"RU","iso3":"RUS","admin_name":"Udmurtiya","capital":"minor","population":49328},{"city":"Wandan","city_ascii":"Wandan","lat":22.5897,"lng":120.4851,"country":"Taiwan","iso2":"TW","iso3":"TWN","admin_name":"Pingtung","capital":"","population":49328},{"city":"San Severo","city_ascii":"San Severo","lat":41.6833,"lng":15.3833,"country":"Italy","iso2":"IT","iso3":"ITA","admin_name":"Puglia","capital":"","population":49328},{"city":"Bagumbayan","city_ascii":"Bagumbayan","lat":14.4744,"lng":121.0569,"country":"Philippines","iso2":"PH","iso3":"PHL","admin_name":"Taguig","capital":"","population":49319},{"city":"Haripur","city_ascii":"Haripur","lat":33.9942,"lng":72.9333,"country":"Pakistan","iso2":"PK","iso3":"PAK","admin_name":"Khyber Pakhtunkhwa","capital":"minor","population":49318},{"city":"Mbouda","city_ascii":"Mbouda","lat":5.6333,"lng":10.25,"country":"Cameroon","iso2":"CM","iso3":"CMR","admin_name":"Ouest","capital":"","population":49313},{"city":"Goba","city_ascii":"Goba","lat":7,"lng":39.9833,"country":"Ethiopia","iso2":"ET","iso3":"ETH","admin_name":"Oromīya","capital":"","population":49309},{"city":"Kapadvanj","city_ascii":"Kapadvanj","lat":23.02,"lng":73.07,"country":"India","iso2":"IN","iso3":"IND","admin_name":"Gujarāt","capital":"","population":49308},{"city":"Mailiao","city_ascii":"Mailiao","lat":23.75,"lng":120.25,"country":"Taiwan","iso2":"TW","iso3":"TWN","admin_name":"Yunlin","capital":"","population":49298},{"city":"Edenvale","city_ascii":"Edenvale","lat":-26.1411,"lng":28.1528,"country":"South Africa","iso2":"ZA","iso3":"ZAF","admin_name":"Gauteng","capital":"","population":49292},{"city":"Odiongan","city_ascii":"Odiongan","lat":12.4,"lng":122,"country":"Philippines","iso2":"PH","iso3":"PHL","admin_name":"Romblon","capital":"","population":49284},{"city":"Euclid","city_ascii":"Euclid","lat":41.5903,"lng":-81.5188,"country":"United States","iso2":"US","iso3":"USA","admin_name":"Ohio","capital":"","population":49279},{"city":"Bergkamen","city_ascii":"Bergkamen","lat":51.6167,"lng":7.6333,"country":"Germany","iso2":"DE","iso3":"DEU","admin_name":"North Rhine-Westphalia","capital":"","population":49263},{"city":"Asakura","city_ascii":"Asakura","lat":33.4167,"lng":130.6667,"country":"Japan","iso2":"JP","iso3":"JPN","admin_name":"Fukuoka","capital":"","population":49254},{"city":"Higashiura","city_ascii":"Higashiura","lat":34.9771,"lng":136.9656,"country":"Japan","iso2":"JP","iso3":"JPN","admin_name":"Aichi","capital":"","population":49252},{"city":"Kizlyar","city_ascii":"Kizlyar","lat":43.85,"lng":46.7167,"country":"Russia","iso2":"RU","iso3":"RUS","admin_name":"Dagestan","capital":"minor","population":49247},{"city":"Joliette","city_ascii":"Joliette","lat":46.0167,"lng":-73.45,"country":"Canada","iso2":"CA","iso3":"CAN","admin_name":"Quebec","capital":"","population":49246},{"city":"Buguruslan","city_ascii":"Buguruslan","lat":53.6583,"lng":52.4358,"country":"Russia","iso2":"RU","iso3":"RUS","admin_name":"Orenburgskaya Oblast’","capital":"","population":49245},{"city":"Zargar","city_ascii":"Zargar","lat":37.8,"lng":68.65,"country":"Tajikistan","iso2":"TJ","iso3":"TJK","admin_name":"Khatlon","capital":"","population":49235},{"city":"Agustín Codazzi","city_ascii":"Agustin Codazzi","lat":10.0367,"lng":-73.2369,"country":"Colombia","iso2":"CO","iso3":"COL","admin_name":"Cesar","capital":"minor","population":49233},{"city":"Tuodian","city_ascii":"Tuodian","lat":24.6907,"lng":101.6382,"country":"China","iso2":"CN","iso3":"CHN","admin_name":"Yunnan","capital":"minor","population":49218},{"city":"Lawrence","city_ascii":"Lawrence","lat":39.8674,"lng":-85.9904,"country":"United States","iso2":"US","iso3":"USA","admin_name":"Indiana","capital":"","population":49218},{"city":"Tennala","city_ascii":"Tennala","lat":11,"lng":75.9333,"country":"India","iso2":"IN","iso3":"IND","admin_name":"Kerala","capital":"","population":49214},{"city":"Fangcun","city_ascii":"Fangcun","lat":37.9799,"lng":114.549,"country":"China","iso2":"CN","iso3":"CHN","admin_name":"Hebei","capital":"","population":49212},{"city":"Baicheng","city_ascii":"Baicheng","lat":41.7957,"lng":81.8715,"country":"China","iso2":"CN","iso3":"CHN","admin_name":"Xinjiang","capital":"minor","population":49207},{"city":"Cintalapa de Figueroa","city_ascii":"Cintalapa de Figueroa","lat":16.6978,"lng":-93.7203,"country":"Mexico","iso2":"MX","iso3":"MEX","admin_name":"Chiapas","capital":"minor","population":49201},{"city":"Carmen","city_ascii":"Carmen","lat":9.82,"lng":124.2,"country":"Philippines","iso2":"PH","iso3":"PHL","admin_name":"Bohol","capital":"","population":49191},{"city":"Midori","city_ascii":"Midori","lat":36.3948,"lng":139.2811,"country":"Japan","iso2":"JP","iso3":"JPN","admin_name":"Gunma","capital":"","population":49190},{"city":"Ceres","city_ascii":"Ceres","lat":37.5952,"lng":-120.962,"country":"United States","iso2":"US","iso3":"USA","admin_name":"California","capital":"","population":49183},{"city":"Samaniego","city_ascii":"Samaniego","lat":1.35,"lng":-77.6,"country":"Colombia","iso2":"CO","iso3":"COL","admin_name":"Nariño","capital":"minor","population":49178},{"city":"Yong’an","city_ascii":"Yong'an","lat":31.0206,"lng":109.4587,"country":"China","iso2":"CN","iso3":"CHN","admin_name":"Chongqing","capital":"minor","population":49168},{"city":"Straubing","city_ascii":"Straubing","lat":48.8833,"lng":12.5667,"country":"Germany","iso2":"DE","iso3":"DEU","admin_name":"Bavaria","capital":"minor","population":49164},{"city":"Qalāt","city_ascii":"Qalat","lat":32.1061,"lng":66.9069,"country":"Afghanistan","iso2":"AF","iso3":"AFG","admin_name":"Zābul","capital":"admin","population":49158},{"city":"Kaédi","city_ascii":"Kaedi","lat":16.1506,"lng":-13.5056,"country":"Mauritania","iso2":"MR","iso3":"MRT","admin_name":"Gorgol","capital":"admin","population":49152},{"city":"University","city_ascii":"University","lat":28.0771,"lng":-82.4335,"country":"United States","iso2":"US","iso3":"USA","admin_name":"Florida","capital":"","population":49148},{"city":"Notsé","city_ascii":"Notse","lat":6.9483,"lng":1.1681,"country":"Togo","iso2":"TG","iso3":"TGO","admin_name":"Plateaux","capital":"","population":49143},{"city":"Rāmnagar","city_ascii":"Ramnagar","lat":25.28,"lng":83.03,"country":"India","iso2":"IN","iso3":"IND","admin_name":"Uttar Pradesh","capital":"","population":49142},{"city":"Biloxi","city_ascii":"Biloxi","lat":30.4426,"lng":-88.9514,"country":"United States","iso2":"US","iso3":"USA","admin_name":"Mississippi","capital":"","population":49141},{"city":"Tunuyán","city_ascii":"Tunuyan","lat":-33.5667,"lng":-69.0167,"country":"Argentina","iso2":"AR","iso3":"ARG","admin_name":"Mendoza","capital":"minor","population":49132},{"city":"Luleå","city_ascii":"Lulea","lat":65.5844,"lng":22.1539,"country":"Sweden","iso2":"SE","iso3":"SWE","admin_name":"Norrbotten","capital":"admin","population":49123},{"city":"San Marcos","city_ascii":"San Marcos","lat":14.9653,"lng":-91.7958,"country":"Guatemala","iso2":"GT","iso3":"GTM","admin_name":"San Marcos","capital":"admin","population":49115},{"city":"Slonim","city_ascii":"Slonim","lat":53.0833,"lng":25.3167,"country":"Belarus","iso2":"BY","iso3":"BLR","admin_name":"Hrodzyenskaya Voblasts’","capital":"minor","population":49113},{"city":"Saray","city_ascii":"Saray","lat":41.4411,"lng":27.9216,"country":"Turkey","iso2":"TR","iso3":"TUR","admin_name":"Tekirdağ","capital":"minor","population":49106},{"city":"Suresnes","city_ascii":"Suresnes","lat":48.87,"lng":2.22,"country":"France","iso2":"FR","iso3":"FRA","admin_name":"Île-de-France","capital":"","population":49104},{"city":"Luwero","city_ascii":"Luwero","lat":0.8331,"lng":32.4994,"country":"Uganda","iso2":"UG","iso3":"UGA","admin_name":"Luwero","capital":"admin","population":49100},{"city":"Guozhen","city_ascii":"Guozhen","lat":34.3668,"lng":107.198,"country":"China","iso2":"CN","iso3":"CHN","admin_name":"Shaanxi","capital":"minor","population":49100},{"city":"Hikari","city_ascii":"Hikari","lat":33.9619,"lng":131.9422,"country":"Japan","iso2":"JP","iso3":"JPN","admin_name":"Yamaguchi","capital":"","population":49100},{"city":"Kefamenanu","city_ascii":"Kefamenanu","lat":-9.4467,"lng":124.4781,"country":"Indonesia","iso2":"ID","iso3":"IDN","admin_name":"Nusa Tenggara Timur","capital":"minor","population":49095},{"city":"Malabang","city_ascii":"Malabang","lat":7.5903,"lng":124.0703,"country":"Philippines","iso2":"PH","iso3":"PHL","admin_name":"Lanao del Sur","capital":"","population":49088},{"city":"Sungurlu","city_ascii":"Sungurlu","lat":40.161,"lng":34.377,"country":"Turkey","iso2":"TR","iso3":"TUR","admin_name":"Çorum","capital":"minor","population":49082},{"city":"Yamaga","city_ascii":"Yamaga","lat":33.0169,"lng":130.6828,"country":"Japan","iso2":"JP","iso3":"JPN","admin_name":"Kumamoto","capital":"","population":49082},{"city":"El Dorado Hills","city_ascii":"El Dorado Hills","lat":38.675,"lng":-121.049,"country":"United States","iso2":"US","iso3":"USA","admin_name":"California","capital":"","population":49082},{"city":"Nahuizalco","city_ascii":"Nahuizalco","lat":13.7833,"lng":-89.7333,"country":"El Salvador","iso2":"SV","iso3":"SLV","admin_name":"Sonsonate","capital":"","population":49081},{"city":"Pio Duran","city_ascii":"Pio Duran","lat":13.03,"lng":123.45,"country":"Philippines","iso2":"PH","iso3":"PHL","admin_name":"Albay","capital":"","population":49070},{"city":"Naugachhia","city_ascii":"Naugachhia","lat":25.4,"lng":87.1,"country":"India","iso2":"IN","iso3":"IND","admin_name":"Bihār","capital":"","population":49069},{"city":"Ardea","city_ascii":"Ardea","lat":41.6167,"lng":12.55,"country":"Italy","iso2":"IT","iso3":"ITA","admin_name":"Lazio","capital":"","population":49057},{"city":"Lesnoy","city_ascii":"Lesnoy","lat":58.6333,"lng":59.7833,"country":"Russia","iso2":"RU","iso3":"RUS","admin_name":"Sverdlovskaya Oblast’","capital":"","population":49056},{"city":"Frankenthal","city_ascii":"Frankenthal","lat":49.5333,"lng":8.35,"country":"Germany","iso2":"DE","iso3":"DEU","admin_name":"Rhineland-Palatinate","capital":"minor","population":49051},{"city":"Karlovy Vary","city_ascii":"Karlovy Vary","lat":50.2306,"lng":12.8725,"country":"Czechia","iso2":"CZ","iso3":"CZE","admin_name":"Karlovarský Kraj","capital":"admin","population":49043},{"city":"Vinzons","city_ascii":"Vinzons","lat":14.1739,"lng":122.9081,"country":"Philippines","iso2":"PH","iso3":"PHL","admin_name":"Camarines Norte","capital":"","population":49042},{"city":"La Libertad","city_ascii":"La Libertad","lat":15.5,"lng":-91.8333,"country":"Guatemala","iso2":"GT","iso3":"GTM","admin_name":"Huehuetenango","capital":"minor","population":49035},{"city":"Port-Vila","city_ascii":"Port-Vila","lat":-17.7333,"lng":168.3167,"country":"Vanuatu","iso2":"VU","iso3":"VUT","admin_name":"Shefa","capital":"primary","population":49034},{"city":"Bornheim","city_ascii":"Bornheim","lat":50.7592,"lng":7.005,"country":"Germany","iso2":"DE","iso3":"DEU","admin_name":"North Rhine-Westphalia","capital":"","population":49025},{"city":"Ōamishirasato","city_ascii":"Oamishirasato","lat":35.5167,"lng":140.3167,"country":"Japan","iso2":"JP","iso3":"JPN","admin_name":"Chiba","capital":"","population":49019},{"city":"Misterbianco","city_ascii":"Misterbianco","lat":37.5167,"lng":15,"country":"Italy","iso2":"IT","iso3":"ITA","admin_name":"Sicilia","capital":"","population":49017},{"city":"Cerritos","city_ascii":"Cerritos","lat":33.8678,"lng":-118.0686,"country":"United States","iso2":"US","iso3":"USA","admin_name":"California","capital":"","population":49016},{"city":"Nizāmpur","city_ascii":"Nizampur","lat":21.1117,"lng":74.33,"country":"India","iso2":"IN","iso3":"IND","admin_name":"Mahārāshtra","capital":"","population":49004},{"city":"Farajok","city_ascii":"Farajok","lat":3.8724,"lng":32.4792,"country":"South Sudan","iso2":"SS","iso3":"SSD","admin_name":"Eastern Equatoria","capital":"","population":49000},{"city":"Sông Đốc","city_ascii":"Song Doc","lat":9.0333,"lng":104.8167,"country":"Vietnam","iso2":"VN","iso3":"VNM","admin_name":"Cà Mau","capital":"","population":49000},{"city":"Jaggisettigūdem","city_ascii":"Jaggisettigudem","lat":17.1167,"lng":81.3,"country":"India","iso2":"IN","iso3":"IND","admin_name":"Andhra Pradesh","capital":"","population":48994},{"city":"Dulag","city_ascii":"Dulag","lat":10.9525,"lng":125.0317,"country":"Philippines","iso2":"PH","iso3":"PHL","admin_name":"Leyte","capital":"","population":48992},{"city":"Rye","city_ascii":"Rye","lat":41.0075,"lng":-73.6872,"country":"United States","iso2":"US","iso3":"USA","admin_name":"New York","capital":"","population":48989},{"city":"Changyŏn","city_ascii":"Changyon","lat":38.2517,"lng":125.1021,"country":"Korea, North","iso2":"KP","iso3":"PRK","admin_name":"Hwangnam","capital":"","population":48984},{"city":"Valladolid","city_ascii":"Valladolid","lat":20.6894,"lng":-88.2017,"country":"Mexico","iso2":"MX","iso3":"MEX","admin_name":"Yucatán","capital":"","population":48973},{"city":"Suwa","city_ascii":"Suwa","lat":36.0391,"lng":138.114,"country":"Japan","iso2":"JP","iso3":"JPN","admin_name":"Nagano","capital":"","population":48972},{"city":"Burleson","city_ascii":"Burleson","lat":32.517,"lng":-97.3344,"country":"United States","iso2":"US","iso3":"USA","admin_name":"Texas","capital":"","population":48970},{"city":"Libona","city_ascii":"Libona","lat":8.3333,"lng":124.7433,"country":"Philippines","iso2":"PH","iso3":"PHL","admin_name":"Bukidnon","capital":"","population":48965},{"city":"Eltham","city_ascii":"Eltham","lat":51.451,"lng":0.052,"country":"United Kingdom","iso2":"GB","iso3":"GBR","admin_name":"Greenwich","capital":"","population":48964},{"city":"Fouka","city_ascii":"Fouka","lat":36.6667,"lng":2.75,"country":"Algeria","iso2":"DZ","iso3":"DZA","admin_name":"Tipaza","capital":"","population":48959},{"city":"Portage","city_ascii":"Portage","lat":42.2,"lng":-85.5906,"country":"United States","iso2":"US","iso3":"USA","admin_name":"Michigan","capital":"","population":48936},{"city":"Rimouski","city_ascii":"Rimouski","lat":48.45,"lng":-68.53,"country":"Canada","iso2":"CA","iso3":"CAN","admin_name":"Quebec","capital":"","population":48935},{"city":"Al Mayādīn","city_ascii":"Al Mayadin","lat":35.0183,"lng":40.4533,"country":"Syria","iso2":"SY","iso3":"SYR","admin_name":"Dayr az Zawr","capital":"minor","population":48922},{"city":"Barnstable","city_ascii":"Barnstable","lat":41.6655,"lng":-70.3639,"country":"United States","iso2":"US","iso3":"USA","admin_name":"Massachusetts","capital":"","population":48922},{"city":"Courtenay","city_ascii":"Courtenay","lat":49.6878,"lng":-124.9944,"country":"Canada","iso2":"CA","iso3":"CAN","admin_name":"British Columbia","capital":"","population":48917},{"city":"Alcala","city_ascii":"Alcala","lat":15.8468,"lng":120.5218,"country":"Philippines","iso2":"PH","iso3":"PHL","admin_name":"Pangasinan","capital":"","population":48908},{"city":"Upplands Väsby","city_ascii":"Upplands Vasby","lat":59.5167,"lng":17.9167,"country":"Sweden","iso2":"SE","iso3":"SWE","admin_name":"Stockholm","capital":"minor","population":48907},{"city":"‘Akko","city_ascii":"`Akko","lat":32.9278,"lng":35.0817,"country":"Israel","iso2":"IL","iso3":"ISR","admin_name":"Northern","capital":"","population":48900},{"city":"Kangar","city_ascii":"Kangar","lat":6.4333,"lng":100.2,"country":"Malaysia","iso2":"MY","iso3":"MYS","admin_name":"Perlis","capital":"admin","population":48898},{"city":"Dublin","city_ascii":"Dublin","lat":40.1112,"lng":-83.1454,"country":"United States","iso2":"US","iso3":"USA","admin_name":"Ohio","capital":"","population":48893},{"city":"Panay","city_ascii":"Panay","lat":11.5553,"lng":122.7931,"country":"Philippines","iso2":"PH","iso3":"PHL","admin_name":"Capiz","capital":"minor","population":48890},{"city":"Dumingag","city_ascii":"Dumingag","lat":8.155,"lng":123.345,"country":"Philippines","iso2":"PH","iso3":"PHL","admin_name":"Zamboanga del Sur","capital":"","population":48881},{"city":"Nomimachi","city_ascii":"Nomimachi","lat":36.447,"lng":136.5541,"country":"Japan","iso2":"JP","iso3":"JPN","admin_name":"Ishikawa","capital":"","population":48860},{"city":"Jiménez","city_ascii":"Jimenez","lat":27.13,"lng":-104.9067,"country":"Mexico","iso2":"MX","iso3":"MEX","admin_name":"Chihuahua","capital":"minor","population":48859},{"city":"Couva","city_ascii":"Couva","lat":10.4167,"lng":-61.45,"country":"Trinidad and Tobago","iso2":"TT","iso3":"TTO","admin_name":"Couva/Tabaquite/Talparo","capital":"admin","population":48858},{"city":"Hampstead","city_ascii":"Hampstead","lat":51.5541,"lng":-0.1744,"country":"United Kingdom","iso2":"GB","iso3":"GBR","admin_name":"Camden","capital":"","population":48858},{"city":"Godda","city_ascii":"Godda","lat":24.827,"lng":87.2125,"country":"India","iso2":"IN","iso3":"IND","admin_name":"Jhārkhand","capital":"","population":48850},{"city":"Telerghma","city_ascii":"Telerghma","lat":36.1167,"lng":6.3667,"country":"Algeria","iso2":"DZ","iso3":"DZA","admin_name":"Mila","capital":"","population":48846},{"city":"Takeochō-takeo","city_ascii":"Takeocho-takeo","lat":33.2,"lng":130.0167,"country":"Japan","iso2":"JP","iso3":"JPN","admin_name":"Saga","capital":"","population":48845},{"city":"Empoli","city_ascii":"Empoli","lat":43.7167,"lng":10.95,"country":"Italy","iso2":"IT","iso3":"ITA","admin_name":"Tuscany","capital":"","population":48844},{"city":"Tājūrā’","city_ascii":"Tajura'","lat":32.8818,"lng":13.3399,"country":"Libya","iso2":"LY","iso3":"LBY","admin_name":"Ţarābulus","capital":"","population":48836},{"city":"Bādurpalle","city_ascii":"Badurpalle","lat":17.5468,"lng":78.365,"country":"India","iso2":"IN","iso3":"IND","admin_name":"Telangāna","capital":"","population":48835},{"city":"Washington","city_ascii":"Washington","lat":39.7469,"lng":-75.0724,"country":"United States","iso2":"US","iso3":"USA","admin_name":"New Jersey","capital":"","population":48830},{"city":"Santo Domingo Suchitepéquez","city_ascii":"Santo Domingo Suchitepequez","lat":14.4667,"lng":-91.4833,"country":"Guatemala","iso2":"GT","iso3":"GTM","admin_name":"Suchitepéquez","capital":"minor","population":48825},{"city":"Saint-Priest","city_ascii":"Saint-Priest","lat":45.6964,"lng":4.9439,"country":"France","iso2":"FR","iso3":"FRA","admin_name":"Auvergne-Rhône-Alpes","capital":"","population":48822},{"city":"Vertientes","city_ascii":"Vertientes","lat":21.2569,"lng":-78.1492,"country":"Cuba","iso2":"CU","iso3":"CUB","admin_name":"Camagüey","capital":"minor","population":48821},{"city":"Waalwijk","city_ascii":"Waalwijk","lat":51.6833,"lng":5.0667,"country":"Netherlands","iso2":"NL","iso3":"NLD","admin_name":"Noord-Brabant","capital":"minor","population":48815},{"city":"Shimotsuchō-kominami","city_ascii":"Shimotsucho-kominami","lat":34.15,"lng":135.2167,"country":"Japan","iso2":"JP","iso3":"JPN","admin_name":"Wakayama","capital":"","population":48811},{"city":"Aïn Fakroun","city_ascii":"Ain Fakroun","lat":35.9667,"lng":6.8667,"country":"Algeria","iso2":"DZ","iso3":"DZA","admin_name":"Oum el Bouaghi","capital":"","population":48804},{"city":"Cacongo","city_ascii":"Cacongo","lat":-5.2333,"lng":12.1333,"country":"Angola","iso2":"AO","iso3":"AGO","admin_name":"Cabinda","capital":"","population":48801},{"city":"Vincennes","city_ascii":"Vincennes","lat":48.8478,"lng":2.4392,"country":"France","iso2":"FR","iso3":"FRA","admin_name":"Île-de-France","capital":"","population":48798},{"city":"Chikugo","city_ascii":"Chikugo","lat":33.2122,"lng":130.5019,"country":"Japan","iso2":"JP","iso3":"JPN","admin_name":"Fukuoka","capital":"","population":48794},{"city":"Jales","city_ascii":"Jales","lat":-20.2689,"lng":-50.5458,"country":"Brazil","iso2":"BR","iso3":"BRA","admin_name":"São Paulo","capital":"","population":48776},{"city":"Nikaweratiya","city_ascii":"Nikaweratiya","lat":7.7475,"lng":80.1156,"country":"Sri Lanka","iso2":"LK","iso3":"LKA","admin_name":"North Western","capital":"","population":48770},{"city":"Bastia","city_ascii":"Bastia","lat":42.7008,"lng":9.4503,"country":"France","iso2":"FR","iso3":"FRA","admin_name":"Corsica","capital":"","population":48768},{"city":"Ocotal","city_ascii":"Ocotal","lat":13.6333,"lng":-86.4833,"country":"Nicaragua","iso2":"NI","iso3":"NIC","admin_name":"Nueva Segovia","capital":"admin","population":48765},{"city":"Sanare","city_ascii":"Sanare","lat":9.7822,"lng":-69.7931,"country":"Venezuela","iso2":"VE","iso3":"VEN","admin_name":"Lara","capital":"minor","population":48764},{"city":"El‘ad","city_ascii":"El`ad","lat":32.0522,"lng":34.9511,"country":"Israel","iso2":"IL","iso3":"ISR","admin_name":"Central","capital":"","population":48763},{"city":"Sesto Fiorentino","city_ascii":"Sesto Fiorentino","lat":43.8319,"lng":11.1994,"country":"Italy","iso2":"IT","iso3":"ITA","admin_name":"Tuscany","capital":"","population":48742},{"city":"Tunglangan","city_ascii":"Tunglangan","lat":-8.4167,"lng":115.3,"country":"Indonesia","iso2":"ID","iso3":"IDN","admin_name":"Bali","capital":"","population":48740},{"city":"Tucano","city_ascii":"Tucano","lat":-10.9628,"lng":-38.7869,"country":"Brazil","iso2":"BR","iso3":"BRA","admin_name":"Bahia","capital":"","population":48738},{"city":"Poway","city_ascii":"Poway","lat":32.9871,"lng":-117.0201,"country":"United States","iso2":"US","iso3":"USA","admin_name":"California","capital":"","population":48737},{"city":"Lal-lo","city_ascii":"Lal-lo","lat":18.2,"lng":121.6622,"country":"Philippines","iso2":"PH","iso3":"PHL","admin_name":"Cagayan","capital":"","population":48733},{"city":"Cedar Hill","city_ascii":"Cedar Hill","lat":32.581,"lng":-96.9591,"country":"United States","iso2":"US","iso3":"USA","admin_name":"Texas","capital":"","population":48733},{"city":"Harderwijk","city_ascii":"Harderwijk","lat":52.35,"lng":5.6167,"country":"Netherlands","iso2":"NL","iso3":"NLD","admin_name":"Gelderland","capital":"minor","population":48726},{"city":"Verrettes","city_ascii":"Verrettes","lat":19.05,"lng":-72.4667,"country":"Haiti","iso2":"HT","iso3":"HTI","admin_name":"Artibonite","capital":"","population":48724},{"city":"Boucan Carré","city_ascii":"Boucan Carre","lat":18.9667,"lng":-72.2,"country":"Haiti","iso2":"HT","iso3":"HTI","admin_name":"Centre","capital":"","population":48700},{"city":"Dongzhang","city_ascii":"Dongzhang","lat":37.935,"lng":115.0839,"country":"China","iso2":"CN","iso3":"CHN","admin_name":"Hebei","capital":"","population":48686},{"city":"Takahama","city_ascii":"Takahama","lat":34.9275,"lng":136.9878,"country":"Japan","iso2":"JP","iso3":"JPN","admin_name":"Aichi","capital":"","population":48685},{"city":"Everett","city_ascii":"Everett","lat":42.4064,"lng":-71.0545,"country":"United States","iso2":"US","iso3":"USA","admin_name":"Massachusetts","capital":"","population":48685},{"city":"Mladenovac","city_ascii":"Mladenovac","lat":44.4333,"lng":20.7,"country":"Serbia","iso2":"RS","iso3":"SRB","admin_name":"Beograd","capital":"minor","population":48683},{"city":"Koduvalli","city_ascii":"Koduvalli","lat":11.3594,"lng":75.9111,"country":"India","iso2":"IN","iso3":"IND","admin_name":"Kerala","capital":"","population":48678},{"city":"Garmsār","city_ascii":"Garmsar","lat":35.2206,"lng":52.3389,"country":"Iran","iso2":"IR","iso3":"IRN","admin_name":"Semnān","capital":"minor","population":48672},{"city":"Guntakal Junction","city_ascii":"Guntakal Junction","lat":15.1711,"lng":77.3624,"country":"India","iso2":"IN","iso3":"IND","admin_name":"Andhra Pradesh","capital":"","population":48658},